{"meta":{"code":200,"requestId":"586939be4c1f676ce9c9425e"},"response":{"venues":[{"id":"4dfa7485aeb785aedbf1cda7","name":"Beachwood BBQ & Brewing","contact":{"phone":"5624364020","formattedPhone":"(562) 436-4020","twitter":"beachwoodbbq_lb"},"location":{"address":"210 E 3rd St","lat":33.76998608010133,"lng":-118.191028114999,"labeledLatLngs":[{"label":"display","lat":33.76998608010133,"lng":-118.191028114999}],"postalCode":"90802","cc":"US","city":"Long Beach","state":"CA","country":"United States","formattedAddress":["210 E 3rd St","Long Beach, CA 90802","United States"]},"categories":[{"id":"50327c8591d4c4b30a586d5d","name":"Brewery","pluralName":"Breweries","shortName":"Brewery","icon":{"prefix":"https:\/\/ss3.4sqi.net\/img\/categories_v2\/food\/brewery_","suffix":".png"},"primary":true}],"verified":false,"stats":{"checkinsCount":10768,"usersCount":4088,"tipCount":118},"url":"http:\/\/beachwoodbbq.com","hasMenu":true,"menu":{"type":"Menu","label":"Menu","anchor":"View Menu","url":"https:\/\/foursquare.com\/v\/beachwood-bbq--brewing\/4dfa7485aeb785aedbf1cda7\/menu","mobileUrl":"https:\/\/foursquare.com\/v\/4dfa7485aeb785aedbf1cda7\/device_menu"},"allowMenuUrlEdit":true,"beenHere":{"lastCheckinExpiredAt":0},"specials":{"count":0,"items":[]},"referralId":"v-1483291070","venueChains":[],"hasPerk":false},{"id":"4b48af0ef964a520c15226e3","name":"Renaissance Long Beach Hotel","contact":{"phone":"5624375900","formattedPhone":"(562) 437-5900","twitter":"renhotels","facebook":"350552094981836","facebookUsername":"RenaissancePhoenixDowntownHotel","facebookName":"Renaissance Phoenix Downtown Hotel"},"location":{"address":"111 E Ocean Blvd","crossStreet":"Pine Ave","lat":33.76748222772128,"lng":-118.19169044494629,"labeledLatLngs":[{"label":"display","lat":33.76748222772128,"lng":-118.19169044494629}],"postalCode":"90802","cc":"US","city":"Long Beach","state":"CA","country":"United States","formattedAddress":["111 E Ocean Blvd (Pine Ave)","Long Beach, CA 90802","United States"]},"categories":[{"id":"4bf58dd8d48988d1fa931735","name":"Hotel","pluralName":"Hotels","shortName":"Hotel","icon":{"prefix":"https:\/\/ss3.4sqi.net\/img\/categories_v2\/travel\/hotel_","suffix":".png"},"primary":true}],"verified":true,"stats":{"checkinsCount":5551,"usersCount":2493,"tipCount":26},"url":"http:\/\/www.renhotels.com\/","allowMenuUrlEdit":true,"beenHere":{"lastCheckinExpiredAt":0},"specials":{"count":0,"items":[]},"storeId":"","referralId":"v-1483291070","venueChains":[{"id":"556a2d9ea7c8957d73d4052a"}],"hasPerk":false},{"id":"4bf763a45317a593d119fe7e","name":"Yard House","contact":{"phone":"5626280455","formattedPhone":"(562) 628-0455","twitter":"yardhouse","facebook":"92873089221","facebookUsername":"YardHouse","facebookName":"Yard House"},"location":{"address":"401 Shoreline Village Dr","lat":33.76146177,"lng":-118.1901777,"labeledLatLngs":[{"label":"display","lat":33.76146177,"lng":-118.1901777}],"postalCode":"90802","cc":"US","city":"Long Beach","state":"CA","country":"United States","formattedAddress":["401 Shoreline Village Dr","Long Beach, CA 90802","United States"]},"categories":[{"id":"4bf58dd8d48988d14e941735","name":"American Restaurant","pluralName":"American Restaurants","shortName":"American","icon":{"prefix":"https:\/\/ss3.4sqi.net\/img\/categories_v2\/food\/default_","suffix":".png"},"primary":true}],"verified":true,"stats":{"checkinsCount":15067,"usersCount":9456,"tipCount":117},"url":"http:\/\/www.yardhouse.com","hasMenu":true,"menu":{"type":"Menu","label":"Menu","anchor":"View Menu","url":"https:\/\/foursquare.com\/v\/yard-house\/4bf763a45317a593d119fe7e\/menu","mobileUrl":"https:\/\/foursquare.com\/v\/4bf763a45317a593d119fe7e\/device_menu"},"allowMenuUrlEdit":true,"beenHere":{"lastCheckinExpiredAt":0},"specials":{"count":0,"items":[]},"storeId":"8301","referralId":"v-1483291070","venueChains":[{"id":"556a223ba7c8957d73d2bad3"}],"hasPerk":false},{"id":"51437cafebca5cf063767bca","name":"The Federal Bar","contact":{"phone":"5624352000","formattedPhone":"(562) 435-2000","twitter":"thefederalbarlb","facebook":"624020900947809","facebookUsername":"thefederalbarlongbeach","facebookName":"The Federal Bar - Long Beach"},"location":{"address":"102 Pine Ave","lat":33.7682782342448,"lng":-118.19233417510986,"labeledLatLngs":[{"label":"display","lat":33.7682782342448,"lng":-118.19233417510986}],"postalCode":"90802","cc":"US","neighborhood":"Downtown Long Beach","city":"Long Beach","state":"CA","country":"United States","formattedAddress":["102 Pine Ave","Long Beach, CA 90802","United States"]},"categories":[{"id":"4bf58dd8d48988d116941735","name":"Bar","pluralName":"Bars","shortName":"Bar","icon":{"prefix":"https:\/\/ss3.4sqi.net\/img\/categories_v2\/nightlife\/pub_","suffix":".png"},"primary":true}],"verified":true,"stats":{"checkinsCount":3740,"usersCount":2254,"tipCount":55},"url":"http:\/\/thefederalbar.com","hasMenu":true,"menu":{"type":"Menu","label":"Menu","anchor":"View Menu","url":"https:\/\/foursquare.com\/v\/the-federal-bar\/51437cafebca5cf063767bca\/menu","mobileUrl":"https:\/\/foursquare.com\/v\/51437cafebca5cf063767bca\/device_menu","externalUrl":"http:\/\/lb.thefederalbar.com\/menu\/"},"allowMenuUrlEdit":true,"beenHere":{"lastCheckinExpiredAt":0},"specials":{"count":0,"items":[]},"venuePage":{"id":"99358154"},"referralId":"v-1483291070","venueChains":[],"hasPerk":false},{"id":"4ab53694f964a520497320e3","name":"Rock Bottom Restaurant & Brewery","contact":{"phone":"5623082255","formattedPhone":"(562) 308-2255"},"location":{"address":"1 Pine Ave","crossStreet":"at Ocean Blvd","lat":33.76723074912448,"lng":-118.19248476730584,"labeledLatLngs":[{"label":"display","lat":33.76723074912448,"lng":-118.19248476730584}],"postalCode":"90802","cc":"US","city":"Long Beach","state":"CA","country":"United States","formattedAddress":["1 Pine Ave (at Ocean Blvd)","Long Beach, CA 90802","United States"]},"categories":[{"id":"50327c8591d4c4b30a586d5d","name":"Brewery","pluralName":"Breweries","shortName":"Brewery","icon":{"prefix":"https:\/\/ss3.4sqi.net\/img\/categories_v2\/food\/brewery_","suffix":".png"},"primary":true}],"verified":true,"stats":{"checkinsCount":7586,"usersCount":4572,"tipCount":80},"url":"http:\/\/rockbottom.com","allowMenuUrlEdit":true,"beenHere":{"lastCheckinExpiredAt":0},"specials":{"count":0,"items":[]},"referralId":"v-1483291070","venueChains":[],"hasPerk":false},{"id":"54415abf498e91ee7ccbacc1","name":"Starbucks","contact":{"phone":"5624959527","formattedPhone":"(562) 495-9527","twitter":"starbucks","facebook":"22092443056","facebookUsername":"Starbucks","facebookName":"Starbucks"},"location":{"address":"421 West Broadway","crossStreet":"Magnolia","lat":33.769558,"lng":-118.197716,"labeledLatLngs":[{"label":"display","lat":33.769558,"lng":-118.197716}],"postalCode":"90802","cc":"US","city":"Long Beach","state":"CA","country":"United States","formattedAddress":["421 West Broadway (Magnolia)","Long Beach, CA 90802","United States"]},"categories":[{"id":"4bf58dd8d48988d1e0931735","name":"Coffee Shop","pluralName":"Coffee Shops","shortName":"Coffee Shop","icon":{"prefix":"https:\/\/ss3.4sqi.net\/img\/categories_v2\/food\/coffeeshop_","suffix":".png"},"primary":true}],"verified":true,"stats":{"checkinsCount":537,"usersCount":245,"tipCount":5},"url":"http:\/\/www.starbucks.com","allowMenuUrlEdit":true,"beenHere":{"lastCheckinExpiredAt":0},"specials":{"count":0,"items":[]},"storeId":"23924","referralId":"v-1483291070","venueChains":[{"id":"556f676fbd6a75a99038d8ec"}],"hasPerk":false},{"id":"4c1d09e4fcf8c9b6260cab0b","name":"7-Eleven","contact":{"phone":"5629515989","formattedPhone":"(562) 951-5989","twitter":"7eleven","facebook":"227771060609121","facebookName":"7-Eleven"},"location":{"address":"805 E Ocean Blvd","lat":33.766848,"lng":-118.182537,"labeledLatLngs":[{"label":"display","lat":33.766848,"lng":-118.182537}],"postalCode":"90802","cc":"US","city":"Long Beach","state":"CA","country":"United States","formattedAddress":["805 E Ocean Blvd","Long Beach, CA 90802","United States"]},"categories":[{"id":"4d954b0ea243a5684a65b473","name":"Convenience Store","pluralName":"Convenience Stores","shortName":"Convenience Store","icon":{"prefix":"https:\/\/ss3.4sqi.net\/img\/categories_v2\/shops\/conveniencestore_","suffix":".png"},"primary":true}],"verified":true,"stats":{"checkinsCount":1513,"usersCount":461,"tipCount":5},"url":"http:\/\/www.7-eleven.com","allowMenuUrlEdit":true,"beenHere":{"lastCheckinExpiredAt":0},"specials":{"count":0,"items":[]},"storeId":"39328","referralId":"v-1483291070","venueChains":[{"id":"556f676fbd6a75a99038d8e9"}],"hasPerk":false},{"id":"52cdd60f11d214b303b7e494","name":"Northgate Gonzalez Markets","contact":{"phone":"5624381064","formattedPhone":"(562) 438-1064"},"location":{"address":"2040 E 10th St","lat":33.77847841455672,"lng":-118.1670629956034,"labeledLatLngs":[{"label":"display","lat":33.77847841455672,"lng":-118.1670629956034}],"postalCode":"90804","cc":"US","city":"Long Beach","state":"CA","country":"United States","formattedAddress":["2040 E 10th St","Long Beach, CA 90804","United States"]},"categories":[{"id":"4bf58dd8d48988d118951735","name":"Grocery Store","pluralName":"Grocery Stores","shortName":"Grocery Store","icon":{"prefix":"https:\/\/ss3.4sqi.net\/img\/categories_v2\/shops\/food_grocery_","suffix":".png"},"primary":true}],"verified":true,"stats":{"checkinsCount":248,"usersCount":67,"tipCount":2},"url":"http:\/\/www.northgatemarkets.com","allowMenuUrlEdit":true,"beenHere":{"lastCheckinExpiredAt":0},"specials":{"count":0,"items":[]},"referralId":"v-1483291070","venueChains":[{"id":"5569f9e0a7c8896abe7d31e9"}],"hasPerk":false},{"id":"4bea4268b3352d7f1e0855d2","name":"Congregation Ale House","contact":{"phone":"5624342337","formattedPhone":"(562) 434-2337","twitter":"congregationale"},"location":{"address":"201 E Broadway","crossStreet":"Promenade","lat":33.769377700695756,"lng":-118.19112522553483,"labeledLatLngs":[{"label":"display","lat":33.769377700695756,"lng":-118.19112522553483}],"postalCode":"90802","cc":"US","city":"Long Beach","state":"CA","country":"United States","formattedAddress":["201 E Broadway (Promenade)","Long Beach, CA 90802","United States"]},"categories":[{"id":"4bf58dd8d48988d117941735","name":"Beer Garden","pluralName":"Beer Gardens","shortName":"Beer Garden","icon":{"prefix":"https:\/\/ss3.4sqi.net\/img\/categories_v2\/nightlife\/beergarden_","suffix":".png"},"primary":true}],"verified":false,"stats":{"checkinsCount":12449,"usersCount":5339,"tipCount":109},"url":"http:\/\/congregationalehouse.com","hasMenu":true,"menu":{"type":"Menu","label":"Menu","anchor":"View Menu","url":"https:\/\/foursquare.com\/v\/congregation-ale-house\/4bea4268b3352d7f1e0855d2\/menu","mobileUrl":"https:\/\/foursquare.com\/v\/4bea4268b3352d7f1e0855d2\/device_menu"},"allowMenuUrlEdit":true,"beenHere":{"lastCheckinExpiredAt":0},"specials":{"count":0,"items":[]},"referralId":"v-1483291070","venueChains":[],"hasPerk":false},{"id":"4aada260f964a520156120e3","name":"Parkers' Lighthouse","contact":{"phone":"5624326500","formattedPhone":"(562) 432-6500","twitter":"parkerslh"},"location":{"address":"435 Shoreline Village Dr","lat":33.7600303310231,"lng":-118.1919992179015,"labeledLatLngs":[{"label":"display","lat":33.7600303310231,"lng":-118.1919992179015}],"postalCode":"90802","cc":"US","city":"Long Beach","state":"CA","country":"United States","formattedAddress":["435 Shoreline Village Dr","Long Beach, CA 90802","United States"]},"categories":[{"id":"4bf58dd8d48988d1ce941735","name":"Seafood Restaurant","pluralName":"Seafood Restaurants","shortName":"Seafood","icon":{"prefix":"https:\/\/ss3.4sqi.net\/img\/categories_v2\/food\/seafood_","suffix":".png"},"primary":true}],"verified":true,"stats":{"checkinsCount":4537,"usersCount":3287,"tipCount":46},"url":"http:\/\/www.parkerslighthouse.com","hasMenu":true,"menu":{"type":"Menu","label":"Menu","anchor":"View Menu","url":"https:\/\/foursquare.com\/v\/parkers-lighthouse\/4aada260f964a520156120e3\/menu","mobileUrl":"https:\/\/foursquare.com\/v\/4aada260f964a520156120e3\/device_menu"},"allowMenuUrlEdit":true,"beenHere":{"lastCheckinExpiredAt":0},"specials":{"count":0,"items":[]},"venuePage":{"id":"49315634"},"storeId":"","referralId":"v-1483291070","venueChains":[],"hasPerk":false},{"id":"57fd4580498e4cdc9d94d53e","name":"Starbucks","contact":{"phone":"5623351122","formattedPhone":"(562) 335-1122","twitter":"starbucks","facebook":"22092443056","facebookUsername":"Starbucks","facebookName":"Starbucks"},"location":{"address":"707 E Ocean Blvd","lat":33.766426,"lng":-118.183846,"labeledLatLngs":[{"label":"display","lat":33.766426,"lng":-118.183846}],"postalCode":"90802","cc":"US","city":"Long Beach","state":"CA","country":"United States","formattedAddress":["707 E Ocean Blvd","Long Beach, CA 90802","United States"]},"categories":[{"id":"4bf58dd8d48988d1e0931735","name":"Coffee Shop","pluralName":"Coffee Shops","shortName":"Coffee Shop","icon":{"prefix":"https:\/\/ss3.4sqi.net\/img\/categories_v2\/food\/coffeeshop_","suffix":".png"},"primary":true}],"verified":true,"stats":{"checkinsCount":120,"usersCount":55,"tipCount":1},"allowMenuUrlEdit":true,"beenHere":{"lastCheckinExpiredAt":0},"specials":{"count":0,"items":[]},"storeId":"1015747","referralId":"v-1483291070","venueChains":[{"id":"556f676fbd6a75a99038d8ec"}],"hasPerk":false},{"id":"56269afd498e6e27f5b7b896","name":"Recreational Coffee","contact":{"phone":"5624364954","formattedPhone":"(562) 436-4954"},"location":{"address":"237 Long Beach Blvd Ste A","lat":33.77026862169641,"lng":-118.18963999960916,"labeledLatLngs":[{"label":"display","lat":33.77026862169641,"lng":-118.18963999960916}],"postalCode":"90802","cc":"US","city":"Long Beach","state":"CA","country":"United States","formattedAddress":["237 Long Beach Blvd Ste A","Long Beach, CA 90802","United States"]},"categories":[{"id":"4bf58dd8d48988d16d941735","name":"Café","pluralName":"Cafés","shortName":"Café","icon":{"prefix":"https:\/\/ss3.4sqi.net\/img\/categories_v2\/food\/cafe_","suffix":".png"},"primary":true}],"verified":false,"stats":{"checkinsCount":566,"usersCount":210,"tipCount":6},"allowMenuUrlEdit":true,"beenHere":{"lastCheckinExpiredAt":0},"specials":{"count":0,"items":[]},"referralId":"v-1483291070","venueChains":[],"hasPerk":false},{"id":"56e30a2c498ec3afbf0eebde","name":"Starbucks","contact":{"phone":"5622334674","formattedPhone":"(562) 233-4674","twitter":"starbucks","facebook":"22092443056","facebookUsername":"Starbucks","facebookName":"Starbucks"},"location":{"address":"11 The Paseo","lat":33.765364500529515,"lng":-118.19317024649453,"labeledLatLngs":[{"label":"display","lat":33.765364500529515,"lng":-118.19317024649453}],"postalCode":"90802","cc":"US","city":"Long Beach","state":"CA","country":"United States","formattedAddress":["11 The Paseo","Long Beach, CA 90802","United States"]},"categories":[{"id":"4bf58dd8d48988d1e0931735","name":"Coffee Shop","pluralName":"Coffee Shops","shortName":"Coffee Shop","icon":{"prefix":"https:\/\/ss3.4sqi.net\/img\/categories_v2\/food\/coffeeshop_","suffix":".png"},"primary":true}],"verified":true,"stats":{"checkinsCount":420,"usersCount":250,"tipCount":2},"url":"http:\/\/www.starbucks.com\/store\/1014276","allowMenuUrlEdit":true,"beenHere":{"lastCheckinExpiredAt":0},"specials":{"count":0,"items":[]},"storeId":"1014276","referralId":"v-1483291070","venueChains":[{"id":"556f676fbd6a75a99038d8ec"}],"hasPerk":false},{"id":"4bdb3f552a3a0f47a91caeb6","name":"Hooters of Long Beach","contact":{"phone":"5629831010","formattedPhone":"(562) 983-1010","twitter":"westcoasthoots"},"location":{"address":"71 Aquarium Way","crossStreet":"at Shoreline Dr.","lat":33.763136360825044,"lng":-118.19472398925078,"labeledLatLngs":[{"label":"display","lat":33.763136360825044,"lng":-118.19472398925078}],"postalCode":"90802","cc":"US","city":"Long Beach","state":"CA","country":"United States","formattedAddress":["71 Aquarium Way (at Shoreline Dr.)","Long Beach, CA 90802","United States"]},"categories":[{"id":"4bf58dd8d48988d14c941735","name":"Wings Joint","pluralName":"Wings Joints","shortName":"Wings","icon":{"prefix":"https:\/\/ss3.4sqi.net\/img\/categories_v2\/food\/wings_","suffix":".png"},"primary":true}],"verified":true,"stats":{"checkinsCount":7243,"usersCount":4411,"tipCount":70},"url":"http:\/\/www.westcoasthooters.com","hasMenu":true,"menu":{"type":"Menu","label":"Menu","anchor":"View Menu","url":"https:\/\/foursquare.com\/v\/hooters-of-long-beach\/4bdb3f552a3a0f47a91caeb6\/menu","mobileUrl":"https:\/\/foursquare.com\/v\/4bdb3f552a3a0f47a91caeb6\/device_menu"},"allowMenuUrlEdit":true,"beenHere":{"lastCheckinExpiredAt":0},"specials":{"count":0,"items":[]},"referralId":"v-1483291070","venueChains":[{"id":"556a48c3a7c8957d73d66806"}],"hasPerk":false},{"id":"49cbaebdf964a5200d591fe3","name":"Portfolio Coffeehouse","contact":{"phone":"5624342486","formattedPhone":"(562) 434-2486","twitter":"portfoliocoffee"},"location":{"address":"2300 E 4th St","crossStreet":"Junipero","lat":33.771615,"lng":-118.1642997264862,"labeledLatLngs":[{"label":"display","lat":33.771615,"lng":-118.1642997264862}],"postalCode":"90814","cc":"US","city":"Long Beach","state":"CA","country":"United States","formattedAddress":["2300 E 4th St (Junipero)","Long Beach, CA 90814","United States"]},"categories":[{"id":"4bf58dd8d48988d1e0931735","name":"Coffee Shop","pluralName":"Coffee Shops","shortName":"Coffee Shop","icon":{"prefix":"https:\/\/ss3.4sqi.net\/img\/categories_v2\/food\/coffeeshop_","suffix":".png"},"primary":true}],"verified":true,"stats":{"checkinsCount":7893,"usersCount":2221,"tipCount":75},"url":"http:\/\/www.portfoliocoffeehouse.com","hasMenu":true,"menu":{"type":"Menu","label":"Menu","anchor":"View Menu","url":"https:\/\/foursquare.com\/v\/portfolio-coffeehouse\/49cbaebdf964a5200d591fe3\/menu","mobileUrl":"https:\/\/foursquare.com\/v\/49cbaebdf964a5200d591fe3\/device_menu"},"allowMenuUrlEdit":true,"beenHere":{"lastCheckinExpiredAt":0},"specials":{"count":0,"items":[]},"venuePage":{"id":"77675482"},"referralId":"v-1483291070","venueChains":[],"hasPerk":false},{"id":"4c081a09009a0f47ed91e5bf","name":"Starbucks","contact":{"phone":"5624375900","formattedPhone":"(562) 437-5900","twitter":"starbucks","facebook":"22092443056","facebookUsername":"Starbucks","facebookName":"Starbucks"},"location":{"address":"111 E Ocean Blvd","lat":33.76762657186542,"lng":-118.19101097783994,"labeledLatLngs":[{"label":"display","lat":33.76762657186542,"lng":-118.19101097783994}],"postalCode":"90802","cc":"US","city":"Long Beach","state":"CA","country":"United States","formattedAddress":["111 E Ocean Blvd","Long Beach, CA 90802","United States"]},"categories":[{"id":"4bf58dd8d48988d1e0931735","name":"Coffee Shop","pluralName":"Coffee Shops","shortName":"Coffee Shop","icon":{"prefix":"https:\/\/ss3.4sqi.net\/img\/categories_v2\/food\/coffeeshop_","suffix":".png"},"primary":true}],"verified":true,"stats":{"checkinsCount":4640,"usersCount":881,"tipCount":30},"url":"http:\/\/www.starbucks.com\/","hasMenu":true,"menu":{"type":"Menu","label":"Menu","anchor":"View Menu","url":"https:\/\/foursquare.com\/v\/starbucks\/4c081a09009a0f47ed91e5bf\/menu","mobileUrl":"https:\/\/foursquare.com\/v\/4c081a09009a0f47ed91e5bf\/device_menu"},"allowMenuUrlEdit":true,"beenHere":{"lastCheckinExpiredAt":0},"specials":{"count":0,"items":[]},"storeId":"75948","referralId":"v-1483291070","venueChains":[{"id":"556f676fbd6a75a99038d8ec"}],"hasPerk":false},{"id":"52747a92498ef7c7ccdf3e66","name":"The Breakfast Bar","contact":{"twitter":"breakfastbarlb"},"location":{"address":"70 Atlantic Ave","crossStreet":"East Malta Way","lat":33.76728601209211,"lng":-118.18490982055664,"labeledLatLngs":[{"label":"display","lat":33.76728601209211,"lng":-118.18490982055664}],"postalCode":"90802","cc":"US","city":"Long Beach","state":"CA","country":"United States","formattedAddress":["70 Atlantic Ave (East Malta Way)","Long Beach, CA 90802","United States"]},"categories":[{"id":"4bf58dd8d48988d143941735","name":"Breakfast Spot","pluralName":"Breakfast Spots","shortName":"Breakfast","icon":{"prefix":"https:\/\/ss3.4sqi.net\/img\/categories_v2\/food\/breakfast_","suffix":".png"},"primary":true}],"verified":false,"stats":{"checkinsCount":1259,"usersCount":915,"tipCount":34},"url":"http:\/\/www.the-breakfast-bar.com","hasMenu":true,"menu":{"type":"Menu","label":"Menu","anchor":"View Menu","url":"https:\/\/foursquare.com\/v\/the-breakfast-bar\/52747a92498ef7c7ccdf3e66\/menu","mobileUrl":"https:\/\/foursquare.com\/v\/52747a92498ef7c7ccdf3e66\/device_menu"},"allowMenuUrlEdit":true,"beenHere":{"lastCheckinExpiredAt":0},"specials":{"count":0,"items":[]},"referralId":"v-1483291070","venueChains":[],"hasPerk":false},{"id":"4b635b2ef964a5202b742ae3","name":"McDonald's","contact":{"phone":"5624351808","formattedPhone":"(562) 435-1808","twitter":"mcdonalds"},"location":{"address":"1000 E 4th St","crossStreet":"at Bonito Ave","lat":33.77145466979272,"lng":-118.17964295470321,"labeledLatLngs":[{"label":"display","lat":33.77145466979272,"lng":-118.17964295470321}],"postalCode":"90802","cc":"US","city":"Long Beach","state":"CA","country":"United States","formattedAddress":["1000 E 4th St (at Bonito Ave)","Long Beach, CA 90802","United States"]},"categories":[{"id":"4bf58dd8d48988d16e941735","name":"Fast Food Restaurant","pluralName":"Fast Food Restaurants","shortName":"Fast Food","icon":{"prefix":"https:\/\/ss3.4sqi.net\/img\/categories_v2\/food\/fastfood_","suffix":".png"},"primary":true}],"verified":true,"stats":{"checkinsCount":1698,"usersCount":535,"tipCount":15},"url":"http:\/\/mcdonalds.com","hasMenu":true,"menu":{"type":"Menu","label":"Menu","anchor":"View Menu","url":"https:\/\/foursquare.com\/v\/mcdonalds\/4b635b2ef964a5202b742ae3\/menu","mobileUrl":"https:\/\/foursquare.com\/v\/4b635b2ef964a5202b742ae3\/device_menu"},"allowMenuUrlEdit":true,"beenHere":{"lastCheckinExpiredAt":0},"specials":{"count":0,"items":[]},"referralId":"v-1483291070","venueChains":[{"id":"556f7a12bd6a75a9903bddb2"}],"hasPerk":false},{"id":"4b6fbbbef964a52023fb2ce3","name":"Louis Burgers III","contact":{},"location":{"address":"555 Atlantic Ave","crossStreet":"6th St. and Atlantic Ave.","lat":33.77388759,"lng":-118.18533897399558,"labeledLatLngs":[{"label":"display","lat":33.77388759,"lng":-118.18533897399558}],"postalCode":"90802","cc":"US","city":"Long Beach","state":"CA","country":"United States","formattedAddress":["555 Atlantic Ave (6th St. and Atlantic Ave.)","Long Beach, CA 90802","United States"]},"categories":[{"id":"4bf58dd8d48988d16c941735","name":"Burger Joint","pluralName":"Burger Joints","shortName":"Burgers","icon":{"prefix":"https:\/\/ss3.4sqi.net\/img\/categories_v2\/food\/burger_","suffix":".png"},"primary":true}],"verified":false,"stats":{"checkinsCount":1809,"usersCount":654,"tipCount":27},"hasMenu":true,"menu":{"type":"Menu","label":"Menu","anchor":"View Menu","url":"https:\/\/foursquare.com\/v\/louis-burgers-iii\/4b6fbbbef964a52023fb2ce3\/menu","mobileUrl":"https:\/\/foursquare.com\/v\/4b6fbbbef964a52023fb2ce3\/device_menu"},"allowMenuUrlEdit":true,"beenHere":{"lastCheckinExpiredAt":0},"specials":{"count":0,"items":[]},"referralId":"v-1483291070","venueChains":[],"hasPerk":false},{"id":"49d8e61df964a520d45d1fe3","name":"Starbucks","contact":{"phone":"5624366883","formattedPhone":"(562) 436-6883","twitter":"starbucks","facebook":"22092443056","facebookUsername":"Starbucks","facebookName":"Starbucks"},"location":{"address":"242 Pine Avenue","lat":33.770159,"lng":-118.192195,"labeledLatLngs":[{"label":"display","lat":33.770159,"lng":-118.192195}],"postalCode":"90802","cc":"US","city":"Long Beach","state":"CA","country":"United States","formattedAddress":["242 Pine Avenue","Long Beach, CA 90802","United States"]},"categories":[{"id":"4bf58dd8d48988d1e0931735","name":"Coffee Shop","pluralName":"Coffee Shops","shortName":"Coffee Shop","icon":{"prefix":"https:\/\/ss3.4sqi.net\/img\/categories_v2\/food\/coffeeshop_","suffix":".png"},"primary":true}],"verified":true,"stats":{"checkinsCount":5802,"usersCount":1550,"tipCount":15},"url":"http:\/\/www.starbucks.com\/","hasMenu":true,"menu":{"type":"Menu","label":"Menu","anchor":"View Menu","url":"https:\/\/foursquare.com\/v\/starbucks\/49d8e61df964a520d45d1fe3\/menu","mobileUrl":"https:\/\/foursquare.com\/v\/49d8e61df964a520d45d1fe3\/device_menu"},"allowMenuUrlEdit":true,"beenHere":{"lastCheckinExpiredAt":0},"specials":{"count":0,"items":[]},"storeId":"5221","referralId":"v-1483291070","venueChains":[{"id":"556f676fbd6a75a99038d8ec"}],"hasPerk":false},{"id":"56a93553498e3e4613cda451","name":"Dog Haus Biergarten Long Beach","contact":{"phone":"5629014287","formattedPhone":"(562) 901-4287","twitter":"doghausdogs","facebook":"1518856288130314","facebookName":"Dog Haus Biergarten"},"location":{"address":"210 East 3rd Street","crossStreet":"The Promenade N","lat":33.77033651858541,"lng":-118.19092274788511,"labeledLatLngs":[{"label":"display","lat":33.77033651858541,"lng":-118.19092274788511}],"postalCode":"90802","cc":"US","city":"Long Beach","state":"CA","country":"United States","formattedAddress":["210 East 3rd Street (The Promenade N)","Long Beach, CA 90802","United States"]},"categories":[{"id":"4bf58dd8d48988d16c941735","name":"Burger Joint","pluralName":"Burger Joints","shortName":"Burgers","icon":{"prefix":"https:\/\/ss3.4sqi.net\/img\/categories_v2\/food\/burger_","suffix":".png"},"primary":true}],"verified":true,"stats":{"checkinsCount":487,"usersCount":271,"tipCount":9},"url":"http:\/\/doghaus.com","allowMenuUrlEdit":true,"beenHere":{"lastCheckinExpiredAt":0},"specials":{"count":0,"items":[]},"storeId":"BG101","referralId":"v-1483291070","venueChains":[],"hasPerk":false},{"id":"4a2014fcf964a520477c1fe3","name":"Roscoe's House of Chicken and Waffles - Long Beach","contact":{"phone":"5624378355","formattedPhone":"(562) 437-8355","twitter":"roscoesofficial","facebook":"157735184268967","facebookUsername":"roscoesofficial","facebookName":"Roscoes House of Chicken and Waffles"},"location":{"address":"730 E Broadway","lat":33.769155616621795,"lng":-118.18314358592033,"labeledLatLngs":[{"label":"display","lat":33.769155616621795,"lng":-118.18314358592033}],"postalCode":"90802","cc":"US","city":"Long Beach","state":"CA","country":"United States","formattedAddress":["730 E Broadway","Long Beach, CA 90802","United States"]},"categories":[{"id":"4bf58dd8d48988d14f941735","name":"Southern \/ Soul Food Restaurant","pluralName":"Southern \/ Soul Food Restaurants","shortName":"Southern \/ Soul","icon":{"prefix":"https:\/\/ss3.4sqi.net\/img\/categories_v2\/food\/southern_","suffix":".png"},"primary":true}],"verified":true,"stats":{"checkinsCount":13566,"usersCount":9593,"tipCount":120},"url":"http:\/\/www.roscoeschickenandwaffles.com","hasMenu":true,"menu":{"type":"Menu","label":"Menu","anchor":"View Menu","url":"https:\/\/foursquare.com\/v\/roscoes-house-of-chicken-and-waffles--long-beach\/4a2014fcf964a520477c1fe3\/menu","mobileUrl":"https:\/\/foursquare.com\/v\/4a2014fcf964a520477c1fe3\/device_menu"},"allowMenuUrlEdit":true,"beenHere":{"lastCheckinExpiredAt":0},"specials":{"count":0,"items":[]},"storeId":"","referralId":"v-1483291070","venueChains":[{"id":"556f3b57bd6a8104863bd005"}],"hasPerk":false},{"id":"518027a6498ec494a73aceed","name":"Pier 76 Fish Grill","contact":{"phone":"5629831776","formattedPhone":"(562) 983-1776"},"location":{"address":"95 Pine Ave","crossStreet":"1st st","lat":33.76794561497301,"lng":-118.19251332899303,"postalCode":"90802","cc":"US","city":"Long Beach","state":"CA","country":"United States","formattedAddress":["95 Pine Ave (1st st)","Long Beach, CA 90802","United States"]},"categories":[{"id":"4bf58dd8d48988d1ce941735","name":"Seafood Restaurant","pluralName":"Seafood Restaurants","shortName":"Seafood","icon":{"prefix":"https:\/\/ss3.4sqi.net\/img\/categories_v2\/food\/seafood_","suffix":".png"},"primary":true}],"verified":false,"stats":{"checkinsCount":1776,"usersCount":994,"tipCount":39},"url":"http:\/\/pier76fishgrill.com","allowMenuUrlEdit":true,"beenHere":{"lastCheckinExpiredAt":0},"specials":{"count":0,"items":[]},"referralId":"v-1483291070","venueChains":[],"hasPerk":false},{"id":"4d71a459ff6ba35d1417628a","name":"Berlin","contact":{"phone":"5624350600","formattedPhone":"(562) 435-0600","twitter":"berlinlb","facebook":"157352214321612","facebookUsername":"BerlinBistro","facebookName":"Berlin Bistro"},"location":{"address":"420 E 4th St","crossStreet":"Linden & Elm","lat":33.771561,"lng":-118.187089,"labeledLatLngs":[{"label":"display","lat":33.771561,"lng":-118.187089}],"postalCode":"90802","cc":"US","city":"Long Beach","state":"CA","country":"United States","formattedAddress":["420 E 4th St (Linden & Elm)","Long Beach, CA 90802","United States"]},"categories":[{"id":"52e81612bcbc57f1066b79f1","name":"Bistro","pluralName":"Bistros","shortName":"Bistro","icon":{"prefix":"https:\/\/ss3.4sqi.net\/img\/categories_v2\/food\/default_","suffix":".png"},"primary":true}],"verified":true,"stats":{"checkinsCount":3551,"usersCount":1361,"tipCount":43},"url":"http:\/\/www.berlinbistro.com","hasMenu":true,"menu":{"type":"Menu","label":"Menu","anchor":"View Menu","url":"https:\/\/foursquare.com\/v\/berlin\/4d71a459ff6ba35d1417628a\/menu","mobileUrl":"https:\/\/foursquare.com\/v\/4d71a459ff6ba35d1417628a\/device_menu"},"allowMenuUrlEdit":true,"beenHere":{"lastCheckinExpiredAt":0},"specials":{"count":0,"items":[]},"venuePage":{"id":"39683535"},"storeId":"","referralId":"v-1483291070","venueChains":[],"hasPerk":false},{"id":"4ca99863d971b1f760d41fe1","name":"McDonald's","contact":{"phone":"5624376186","formattedPhone":"(562) 437-6186"},"location":{"address":"640 Long Beach Blvd","crossStreet":"at 7th St","lat":33.77499053947069,"lng":-118.18901163095194,"labeledLatLngs":[{"label":"display","lat":33.77499053947069,"lng":-118.18901163095194}],"postalCode":"90802","cc":"US","city":"Long Beach","state":"CA","country":"United States","formattedAddress":["640 Long Beach Blvd (at 7th St)","Long Beach, CA 90802","United States"]},"categories":[{"id":"4bf58dd8d48988d16e941735","name":"Fast Food Restaurant","pluralName":"Fast Food Restaurants","shortName":"Fast Food","icon":{"prefix":"https:\/\/ss3.4sqi.net\/img\/categories_v2\/food\/fastfood_","suffix":".png"},"primary":true}],"verified":true,"stats":{"checkinsCount":1396,"usersCount":471,"tipCount":10},"url":"http:\/\/mcdonalds.com","allowMenuUrlEdit":true,"beenHere":{"lastCheckinExpiredAt":0},"specials":{"count":0,"items":[]},"referralId":"v-1483291070","venueChains":[{"id":"556f7a12bd6a75a9903bddb2"}],"hasPerk":false},{"id":"4b0ca0c4f964a5205b4023e3","name":"Starbucks","contact":{"phone":"5625905996","formattedPhone":"(562) 590-5996","twitter":"starbucks","facebook":"22092443056","facebookUsername":"Starbucks","facebookName":"Starbucks"},"location":{"address":"500 Long Beach Blvd","lat":33.7729140772682,"lng":-118.18897735623217,"labeledLatLngs":[{"label":"display","lat":33.7729140772682,"lng":-118.18897735623217}],"postalCode":"90802","cc":"US","city":"Long Beach","state":"CA","country":"United States","formattedAddress":["500 Long Beach Blvd","Long Beach, CA 90802","United States"]},"categories":[{"id":"4bf58dd8d48988d1e0931735","name":"Coffee Shop","pluralName":"Coffee Shops","shortName":"Coffee Shop","icon":{"prefix":"https:\/\/ss3.4sqi.net\/img\/categories_v2\/food\/coffeeshop_","suffix":".png"},"primary":true}],"verified":true,"stats":{"checkinsCount":3807,"usersCount":1101,"tipCount":24},"url":"http:\/\/www.starbucks.com\/","hasMenu":true,"menu":{"type":"Menu","label":"Menu","anchor":"View Menu","url":"https:\/\/foursquare.com\/v\/starbucks\/4b0ca0c4f964a5205b4023e3\/menu","mobileUrl":"https:\/\/foursquare.com\/v\/4b0ca0c4f964a5205b4023e3\/device_menu"},"allowMenuUrlEdit":true,"beenHere":{"lastCheckinExpiredAt":0},"specials":{"count":0,"items":[]},"storeId":"6655","referralId":"v-1483291070","venueChains":[{"id":"556f676fbd6a75a99038d8ec"}],"hasPerk":false},{"id":"5567cea4498e41d1bc30f690","name":"Long Beach Thai","contact":{},"location":{"address":"3109 E Anaheim St","lat":33.782655,"lng":-118.155443,"labeledLatLngs":[{"label":"display","lat":33.782655,"lng":-118.155443}],"postalCode":"90804","cc":"US","city":"Long Beach","state":"CA","country":"United States","formattedAddress":["3109 E Anaheim St","Long Beach, CA 90804","United States"]},"categories":[{"id":"4bf58dd8d48988d149941735","name":"Thai Restaurant","pluralName":"Thai Restaurants","shortName":"Thai","icon":{"prefix":"https:\/\/ss3.4sqi.net\/img\/categories_v2\/food\/thai_","suffix":".png"},"primary":true}],"verified":false,"stats":{"checkinsCount":287,"usersCount":127,"tipCount":3},"allowMenuUrlEdit":true,"beenHere":{"lastCheckinExpiredAt":0},"specials":{"count":0,"items":[]},"referralId":"v-1483291070","venueChains":[],"hasPerk":false},{"id":"4a8860aaf964a5201b0620e3","name":"Bubba Gump Shrimp Co.","contact":{"phone":"5624372434","formattedPhone":"(562) 437-2434","twitter":"bubbagumpco","facebook":"14837382209","facebookUsername":"bubbagumprestaurants","facebookName":"Bubba Gump Shrimp Co."},"location":{"address":"87 Aquarium Way","crossStreet":"at Shoreline Dr W","lat":33.763272412005314,"lng":-118.19576740264893,"labeledLatLngs":[{"label":"display","lat":33.763272412005314,"lng":-118.19576740264893}],"postalCode":"90802","cc":"US","city":"Long Beach","state":"CA","country":"United States","formattedAddress":["87 Aquarium Way (at Shoreline Dr W)","Long Beach, CA 90802","United States"]},"categories":[{"id":"4bf58dd8d48988d1ce941735","name":"Seafood Restaurant","pluralName":"Seafood Restaurants","shortName":"Seafood","icon":{"prefix":"https:\/\/ss3.4sqi.net\/img\/categories_v2\/food\/seafood_","suffix":".png"},"primary":true}],"verified":true,"stats":{"checkinsCount":5365,"usersCount":4596,"tipCount":52},"url":"http:\/\/www.bubbagump.com\/","hasMenu":true,"menu":{"type":"Menu","label":"Menu","anchor":"View Menu","url":"https:\/\/foursquare.com\/v\/bubba-gump-shrimp-co\/4a8860aaf964a5201b0620e3\/menu","mobileUrl":"https:\/\/foursquare.com\/v\/4a8860aaf964a5201b0620e3\/device_menu"},"allowMenuUrlEdit":true,"beenHere":{"lastCheckinExpiredAt":0},"specials":{"count":0,"items":[]},"storeId":"","referralId":"v-1483291070","venueChains":[{"id":"5569f3c6a7c8896abe7c6b93"}],"hasPerk":false},{"id":"4a1eee3cf964a520ea7b1fe3","name":"George's Greek Cafe","contact":{"phone":"5624371184","formattedPhone":"(562) 437-1184","twitter":"georgesgreek"},"location":{"address":"135 Pine Ave","lat":33.76877038587357,"lng":-118.19238765753416,"labeledLatLngs":[{"label":"display","lat":33.76877038587357,"lng":-118.19238765753416}],"postalCode":"90802","cc":"US","city":"Long Beach","state":"CA","country":"United States","formattedAddress":["135 Pine Ave","Long Beach, CA 90802","United States"]},"categories":[{"id":"4bf58dd8d48988d10e941735","name":"Greek Restaurant","pluralName":"Greek Restaurants","shortName":"Greek","icon":{"prefix":"https:\/\/ss3.4sqi.net\/img\/categories_v2\/food\/greek_","suffix":".png"},"primary":true}],"verified":false,"stats":{"checkinsCount":4312,"usersCount":2625,"tipCount":64},"url":"http:\/\/www.georgesgreekcafe.com\/","hasMenu":true,"menu":{"type":"Menu","label":"Menu","anchor":"View Menu","url":"https:\/\/foursquare.com\/v\/georges-greek-cafe\/4a1eee3cf964a520ea7b1fe3\/menu","mobileUrl":"https:\/\/foursquare.com\/v\/4a1eee3cf964a520ea7b1fe3\/device_menu"},"allowMenuUrlEdit":true,"beenHere":{"lastCheckinExpiredAt":0},"specials":{"count":0,"items":[]},"referralId":"v-1483291070","venueChains":[],"hasPerk":false},{"id":"44a8f9fbf964a520f8341fe3","name":"Pike Bar & Fish Grill","contact":{"phone":"5624374453","formattedPhone":"(562) 437-4453"},"location":{"address":"1836 E 4th St","crossStreet":"at Hermosa Ave","lat":33.771573837917664,"lng":-118.16915971887389,"labeledLatLngs":[{"label":"display","lat":33.771573837917664,"lng":-118.16915971887389}],"postalCode":"90802","cc":"US","city":"Long Beach","state":"CA","country":"United States","formattedAddress":["1836 E 4th St (at Hermosa Ave)","Long Beach, CA 90802","United States"]},"categories":[{"id":"4bf58dd8d48988d11b941735","name":"Pub","pluralName":"Pubs","shortName":"Pub","icon":{"prefix":"https:\/\/ss3.4sqi.net\/img\/categories_v2\/nightlife\/pub_","suffix":".png"},"primary":true}],"verified":false,"stats":{"checkinsCount":7304,"usersCount":2543,"tipCount":60},"url":"http:\/\/pikelongbeach.com","hasMenu":true,"menu":{"type":"Menu","label":"Menu","anchor":"View Menu","url":"https:\/\/foursquare.com\/v\/pike-bar--fish-grill\/44a8f9fbf964a520f8341fe3\/menu","mobileUrl":"https:\/\/foursquare.com\/v\/44a8f9fbf964a520f8341fe3\/device_menu"},"allowMenuUrlEdit":true,"beenHere":{"lastCheckinExpiredAt":0},"specials":{"count":0,"items":[]},"referralId":"v-1483291070","venueChains":[],"hasPerk":false}]}}