{"meta":{"code":200,"requestId":"586939b8dd57972f67090f65"},"response":{"venues":[{"id":"4a664ad8f964a52057c81fe3","name":"Mitsuwa Marketplace","contact":{"phone":"3107820335","formattedPhone":"(310) 782-0335"},"location":{"address":"21515 S Western Ave","crossStreet":"at 214th St.","lat":33.83385713552564,"lng":-118.30989029339082,"labeledLatLngs":[{"label":"display","lat":33.83385713552564,"lng":-118.30989029339082}],"postalCode":"90501","cc":"US","city":"Torrance","state":"CA","country":"United States","formattedAddress":["21515 S Western Ave (at 214th St.)","Torrance, CA 90501","United States"]},"categories":[{"id":"4bf58dd8d48988d118951735","name":"Grocery Store","pluralName":"Grocery Stores","shortName":"Grocery Store","icon":{"prefix":"https:\/\/ss3.4sqi.net\/img\/categories_v2\/shops\/food_grocery_","suffix":".png"},"primary":true}],"verified":false,"stats":{"checkinsCount":13564,"usersCount":4795,"tipCount":50},"url":"http:\/\/www.mitsuwa.com\/","allowMenuUrlEdit":true,"beenHere":{"lastCheckinExpiredAt":0},"specials":{"count":0,"items":[]},"referralId":"v-1483291064","venueChains":[],"hasPerk":false},{"id":"4bb26ed9715eef3b743885bb","name":"Starbucks","contact":{"phone":"3106188339","formattedPhone":"(310) 618-8339","twitter":"starbucks","facebook":"22092443056","facebookUsername":"Starbucks","facebookName":"Starbucks"},"location":{"address":"1450 W 190th St","lat":33.858028,"lng":-118.302987,"labeledLatLngs":[{"label":"display","lat":33.858028,"lng":-118.302987}],"postalCode":"90501","cc":"US","city":"Torrance","state":"CA","country":"United States","formattedAddress":["1450 W 190th St","Torrance, CA 90501","United States"]},"categories":[{"id":"4bf58dd8d48988d1e0931735","name":"Coffee Shop","pluralName":"Coffee Shops","shortName":"Coffee Shop","icon":{"prefix":"https:\/\/ss3.4sqi.net\/img\/categories_v2\/food\/coffeeshop_","suffix":".png"},"primary":true}],"verified":true,"stats":{"checkinsCount":6557,"usersCount":1594,"tipCount":14},"url":"http:\/\/www.starbucks.com\/","hasMenu":true,"menu":{"type":"Menu","label":"Menu","anchor":"View Menu","url":"https:\/\/foursquare.com\/v\/starbucks\/4bb26ed9715eef3b743885bb\/menu","mobileUrl":"https:\/\/foursquare.com\/v\/4bb26ed9715eef3b743885bb\/device_menu"},"allowMenuUrlEdit":true,"beenHere":{"lastCheckinExpiredAt":0},"specials":{"count":0,"items":[]},"storeId":"5651","referralId":"v-1483291064","venueChains":[{"id":"556f676fbd6a75a99038d8ec"}],"hasPerk":false},{"id":"4b731a3ef964a5208f9b2de3","name":"Starbucks","contact":{"phone":"3108162972","formattedPhone":"(310) 816-2972","twitter":"starbucks","facebook":"22092443056","facebookUsername":"Starbucks","facebookName":"Starbucks"},"location":{"address":"208 Sepulveda Blvd.","lat":33.80777,"lng":-118.272137,"labeledLatLngs":[{"label":"display","lat":33.80777,"lng":-118.272137}],"postalCode":"90749","cc":"US","city":"Carson","state":"CA","country":"United States","formattedAddress":["208 Sepulveda Blvd.","Carson, CA 90749","United States"]},"categories":[{"id":"4bf58dd8d48988d1e0931735","name":"Coffee Shop","pluralName":"Coffee Shops","shortName":"Coffee Shop","icon":{"prefix":"https:\/\/ss3.4sqi.net\/img\/categories_v2\/food\/coffeeshop_","suffix":".png"},"primary":true}],"verified":true,"stats":{"checkinsCount":4436,"usersCount":773,"tipCount":5},"url":"http:\/\/www.starbucks.com\/","hasMenu":true,"menu":{"type":"Menu","label":"Menu","anchor":"View Menu","url":"https:\/\/foursquare.com\/v\/starbucks\/4b731a3ef964a5208f9b2de3\/menu","mobileUrl":"https:\/\/foursquare.com\/v\/4b731a3ef964a5208f9b2de3\/device_menu"},"allowMenuUrlEdit":true,"beenHere":{"lastCheckinExpiredAt":0},"specials":{"count":0,"items":[]},"storeId":"73524","referralId":"v-1483291064","venueChains":[{"id":"556f676fbd6a75a99038d8ec"}],"hasPerk":false},{"id":"4ad8dacef964a520521521e3","name":"Nijiya Market","contact":{"phone":"3103667200","formattedPhone":"(310) 366-7200"},"location":{"address":"2121 W 182nd St","crossStreet":"at Van Ness Avenue","lat":33.86601844421466,"lng":-118.31687155049647,"labeledLatLngs":[{"label":"display","lat":33.86601844421466,"lng":-118.31687155049647}],"postalCode":"90504","cc":"US","city":"Torrance","state":"CA","country":"United States","formattedAddress":["2121 W 182nd St (at Van Ness Avenue)","Torrance, CA 90504","United States"]},"categories":[{"id":"4bf58dd8d48988d118951735","name":"Grocery Store","pluralName":"Grocery Stores","shortName":"Grocery Store","icon":{"prefix":"https:\/\/ss3.4sqi.net\/img\/categories_v2\/shops\/food_grocery_","suffix":".png"},"primary":true}],"verified":false,"stats":{"checkinsCount":3245,"usersCount":727,"tipCount":15},"url":"http:\/\/www.nijiya.com","allowMenuUrlEdit":true,"beenHere":{"lastCheckinExpiredAt":0},"specials":{"count":0,"items":[]},"referralId":"v-1483291064","venueChains":[],"hasPerk":false},{"id":"4b748f8df964a52024e42de3","name":"Starbucks","contact":{"phone":"3105302034","formattedPhone":"(310) 530-2034","twitter":"starbucks","facebook":"22092443056","facebookUsername":"Starbucks","facebookName":"Starbucks"},"location":{"address":"24325 Crenshaw Blvd","lat":33.804363355054996,"lng":-118.33000558113768,"labeledLatLngs":[{"label":"display","lat":33.804363355054996,"lng":-118.33000558113768}],"postalCode":"90505","cc":"US","city":"Torrance","state":"CA","country":"United States","formattedAddress":["24325 Crenshaw Blvd","Torrance, CA 90505","United States"]},"categories":[{"id":"4bf58dd8d48988d1e0931735","name":"Coffee Shop","pluralName":"Coffee Shops","shortName":"Coffee Shop","icon":{"prefix":"https:\/\/ss3.4sqi.net\/img\/categories_v2\/food\/coffeeshop_","suffix":".png"},"primary":true}],"verified":true,"stats":{"checkinsCount":3924,"usersCount":762,"tipCount":18},"url":"http:\/\/www.starbucks.com\/","allowMenuUrlEdit":true,"beenHere":{"lastCheckinExpiredAt":0},"specials":{"count":0,"items":[]},"storeId":"74511","referralId":"v-1483291064","venueChains":[{"id":"556f676fbd6a75a99038d8ec"}],"hasPerk":false},{"id":"4bb4cb79613fb713213294e6","name":"Starbucks","contact":{"phone":"3108911915","formattedPhone":"(310) 891-1915","twitter":"starbucks","facebook":"22092443056","facebookUsername":"Starbucks","facebookName":"Starbucks"},"location":{"address":"898 Sepulveda Blvd","lat":33.809793,"lng":-118.290023,"labeledLatLngs":[{"label":"display","lat":33.809793,"lng":-118.290023}],"postalCode":"90710","cc":"US","city":"Harbor City","state":"CA","country":"United States","formattedAddress":["898 Sepulveda Blvd","Harbor City, CA 90710","United States"]},"categories":[{"id":"4bf58dd8d48988d1e0931735","name":"Coffee Shop","pluralName":"Coffee Shops","shortName":"Coffee Shop","icon":{"prefix":"https:\/\/ss3.4sqi.net\/img\/categories_v2\/food\/coffeeshop_","suffix":".png"},"primary":true}],"verified":true,"stats":{"checkinsCount":4940,"usersCount":1287,"tipCount":24},"url":"http:\/\/www.starbucks.com\/","hasMenu":true,"menu":{"type":"Menu","label":"Menu","anchor":"View Menu","url":"https:\/\/foursquare.com\/v\/starbucks\/4bb4cb79613fb713213294e6\/menu","mobileUrl":"https:\/\/foursquare.com\/v\/4bb4cb79613fb713213294e6\/device_menu"},"allowMenuUrlEdit":true,"beenHere":{"lastCheckinExpiredAt":0},"specials":{"count":0,"items":[]},"storeId":"5960","referralId":"v-1483291064","venueChains":[{"id":"556f676fbd6a75a99038d8ec"}],"hasPerk":false},{"id":"4ac7a06bf964a52094b820e3","name":"Krispy Kreme Doughnuts","contact":{"phone":"3105325281","formattedPhone":"(310) 532-5281","twitter":"krispykreme"},"location":{"address":"1199 W Artesia Blvd","lat":33.87290979771401,"lng":-118.29297065734863,"labeledLatLngs":[{"label":"display","lat":33.87290979771401,"lng":-118.29297065734863}],"postalCode":"90248","cc":"US","city":"Gardena","state":"CA","country":"United States","formattedAddress":["1199 W Artesia Blvd","Gardena, CA 90248","United States"]},"categories":[{"id":"4bf58dd8d48988d148941735","name":"Donut Shop","pluralName":"Donut Shops","shortName":"Donuts","icon":{"prefix":"https:\/\/ss3.4sqi.net\/img\/categories_v2\/food\/donuts_","suffix":".png"},"primary":true}],"verified":true,"stats":{"checkinsCount":4061,"usersCount":2089,"tipCount":38},"url":"http:\/\/www.krispykreme.com","hasMenu":true,"menu":{"type":"Menu","label":"Menu","anchor":"View Menu","url":"https:\/\/foursquare.com\/v\/krispy-kreme-doughnuts\/4ac7a06bf964a52094b820e3\/menu","mobileUrl":"https:\/\/foursquare.com\/v\/4ac7a06bf964a52094b820e3\/device_menu"},"allowMenuUrlEdit":true,"beenHere":{"lastCheckinExpiredAt":0},"specials":{"count":0,"items":[]},"referralId":"v-1483291064","venueChains":[{"id":"556c96cda7c8a11a36bde31e"}],"hasPerk":false},{"id":"5679824a498e64cc8c41f328","name":"In-N-Out Burger","contact":{"phone":"8007861000","formattedPhone":"(800) 786-1000"},"location":{"address":"1701 W Artesia Blvd","crossStreet":"Western Ave","lat":33.87311751652264,"lng":-118.3075840750312,"labeledLatLngs":[{"label":"display","lat":33.87311751652264,"lng":-118.3075840750312}],"postalCode":"90248","cc":"US","city":"Gardena","state":"CA","country":"United States","formattedAddress":["1701 W Artesia Blvd (Western Ave)","Gardena, CA 90248","United States"]},"categories":[{"id":"4bf58dd8d48988d16c941735","name":"Burger Joint","pluralName":"Burger Joints","shortName":"Burgers","icon":{"prefix":"https:\/\/ss3.4sqi.net\/img\/categories_v2\/food\/burger_","suffix":".png"},"primary":true}],"verified":false,"stats":{"checkinsCount":510,"usersCount":255,"tipCount":1},"url":"http:\/\/www.in-n-out.com","allowMenuUrlEdit":true,"beenHere":{"lastCheckinExpiredAt":0},"specials":{"count":0,"items":[]},"referralId":"v-1483291064","venueChains":[{"id":"556cdd65aceaff43eb03dddb"}],"hasPerk":false},{"id":"4aec7fd8f964a520f1c721e3","name":"King's Hawaiian Bakery & Restaurant","contact":{"phone":"3105300050","formattedPhone":"(310) 530-0050","twitter":"KingsHawaiian"},"location":{"address":"2808 Sepulveda Blvd","lat":33.82289960336259,"lng":-118.33488553762436,"labeledLatLngs":[{"label":"display","lat":33.82289960336259,"lng":-118.33488553762436}],"postalCode":"90505","cc":"US","city":"Torrance","state":"CA","country":"United States","formattedAddress":["2808 Sepulveda Blvd","Torrance, CA 90505","United States"]},"categories":[{"id":"4bf58dd8d48988d16a941735","name":"Bakery","pluralName":"Bakeries","shortName":"Bakery","icon":{"prefix":"https:\/\/ss3.4sqi.net\/img\/categories_v2\/food\/bakery_","suffix":".png"},"primary":true}],"verified":false,"stats":{"checkinsCount":9940,"usersCount":4927,"tipCount":95},"url":"http:\/\/www.kingshawaiian.com","hasMenu":true,"menu":{"type":"Menu","label":"Menu","anchor":"View Menu","url":"https:\/\/foursquare.com\/v\/kings-hawaiian-bakery--restaurant\/4aec7fd8f964a520f1c721e3\/menu","mobileUrl":"https:\/\/foursquare.com\/v\/4aec7fd8f964a520f1c721e3\/device_menu"},"allowMenuUrlEdit":true,"beenHere":{"lastCheckinExpiredAt":0},"specials":{"count":0,"items":[]},"referralId":"v-1483291064","venueChains":[],"hasPerk":false},{"id":"4a5a49b9f964a52013ba1fe3","name":"In-N-Out Burger","contact":{"phone":"8007861000","formattedPhone":"(800) 786-1000","twitter":"innoutburger"},"location":{"address":"24445 Crenshaw Blvd","crossStreet":"at Lomita Blvd","lat":33.80285661,"lng":-118.32854616,"labeledLatLngs":[{"label":"display","lat":33.80285661,"lng":-118.32854616}],"postalCode":"90505","cc":"US","city":"Torrance","state":"CA","country":"United States","formattedAddress":["24445 Crenshaw Blvd (at Lomita Blvd)","Torrance, CA 90505","United States"]},"categories":[{"id":"4bf58dd8d48988d16c941735","name":"Burger Joint","pluralName":"Burger Joints","shortName":"Burgers","icon":{"prefix":"https:\/\/ss3.4sqi.net\/img\/categories_v2\/food\/burger_","suffix":".png"},"primary":true}],"verified":true,"stats":{"checkinsCount":7008,"usersCount":3018,"tipCount":56},"url":"http:\/\/www.in-n-out.com","hasMenu":true,"menu":{"type":"Menu","label":"Menu","anchor":"View Menu","url":"https:\/\/foursquare.com\/v\/innout-burger\/4a5a49b9f964a52013ba1fe3\/menu","mobileUrl":"https:\/\/foursquare.com\/v\/4a5a49b9f964a52013ba1fe3\/device_menu"},"allowMenuUrlEdit":true,"beenHere":{"lastCheckinExpiredAt":0},"specials":{"count":0,"items":[]},"storeId":"75","referralId":"v-1483291064","venueChains":[{"id":"556cdd65aceaff43eb03dddb"}],"hasPerk":false},{"id":"56ec46eb498e574e06650854","name":"The Coffee Bean & Tea Leaf","contact":{"phone":"3102574903","formattedPhone":"(310) 257-4903","twitter":"thecoffeebean"},"location":{"address":"1307 Sepulveda Blvd","lat":33.81419221373086,"lng":-118.29991167767437,"labeledLatLngs":[{"label":"display","lat":33.81419221373086,"lng":-118.29991167767437}],"postalCode":"90501","cc":"US","city":"Torrance","state":"CA","country":"United States","formattedAddress":["1307 Sepulveda Blvd","Torrance, CA 90501","United States"]},"categories":[{"id":"4bf58dd8d48988d1e0931735","name":"Coffee Shop","pluralName":"Coffee Shops","shortName":"Coffee Shop","icon":{"prefix":"https:\/\/ss3.4sqi.net\/img\/categories_v2\/food\/coffeeshop_","suffix":".png"},"primary":true}],"verified":true,"stats":{"checkinsCount":256,"usersCount":68,"tipCount":0},"url":"http:\/\/www.coffeebean.com","allowMenuUrlEdit":true,"beenHere":{"lastCheckinExpiredAt":0},"specials":{"count":0,"items":[]},"storeId":"359","referralId":"v-1483291064","venueChains":[{"id":"556a4e08a7c8957d73d6ce60"}],"hasPerk":false},{"id":"5241aaad11d23fcc6c91ae89","name":"Starbucks","contact":{"phone":"3105344907","formattedPhone":"(310) 534-4907","twitter":"starbucks","facebook":"22092443056","facebookUsername":"Starbucks","facebookName":"Starbucks"},"location":{"address":"1680 Lomita Blvd","lat":33.797512407140474,"lng":-118.30709314331645,"labeledLatLngs":[{"label":"display","lat":33.797512407140474,"lng":-118.30709314331645}],"postalCode":"90710","cc":"US","city":"Harbor City","state":"CA","country":"United States","formattedAddress":["1680 Lomita Blvd","Harbor City, CA 90710","United States"]},"categories":[{"id":"4bf58dd8d48988d1e0931735","name":"Coffee Shop","pluralName":"Coffee Shops","shortName":"Coffee Shop","icon":{"prefix":"https:\/\/ss3.4sqi.net\/img\/categories_v2\/food\/coffeeshop_","suffix":".png"},"primary":true}],"verified":true,"stats":{"checkinsCount":1312,"usersCount":187,"tipCount":3},"url":"http:\/\/www.starbucks.com\/","allowMenuUrlEdit":true,"beenHere":{"lastCheckinExpiredAt":0},"specials":{"count":0,"items":[]},"storeId":"20680","referralId":"v-1483291064","venueChains":[{"id":"556f676fbd6a75a99038d8ec"}],"hasPerk":false},{"id":"4b54ddcaf964a52072d027e3","name":"Vons","contact":{"phone":"3107841020","formattedPhone":"(310) 784-1020","twitter":"vons_pavilions"},"location":{"address":"24325 Crenshaw Blvd","crossStreet":"at Lomita Blvd.","lat":33.8051874199607,"lng":-118.33002269268036,"labeledLatLngs":[{"label":"display","lat":33.8051874199607,"lng":-118.33002269268036}],"postalCode":"90505","cc":"US","city":"Torrance","state":"CA","country":"United States","formattedAddress":["24325 Crenshaw Blvd (at Lomita Blvd.)","Torrance, CA 90505","United States"]},"categories":[{"id":"52f2ab2ebcbc57f1066b8b46","name":"Supermarket","pluralName":"Supermarkets","shortName":"Supermarket","icon":{"prefix":"https:\/\/ss3.4sqi.net\/img\/categories_v2\/shops\/food_grocery_","suffix":".png"},"primary":true}],"verified":true,"stats":{"checkinsCount":4375,"usersCount":923,"tipCount":9},"allowMenuUrlEdit":true,"beenHere":{"lastCheckinExpiredAt":0},"specials":{"count":0,"items":[]},"referralId":"v-1483291064","venueChains":[{"id":"556c9b97a7c87f637869e1a1"}],"hasPerk":false},{"id":"4b29ad23f964a52071a224e3","name":"The Local Place Bakery & Cafe","contact":{"phone":"3105233233","formattedPhone":"(310) 523-3233"},"location":{"address":"18605 S Western Ave","crossStreet":"at 186th Street","lat":33.86172007,"lng":-118.309468,"labeledLatLngs":[{"label":"display","lat":33.86172007,"lng":-118.309468}],"postalCode":"90248","cc":"US","city":"Gardena","state":"CA","country":"United States","formattedAddress":["18605 S Western Ave (at 186th Street)","Gardena, CA 90248","United States"]},"categories":[{"id":"4bf58dd8d48988d16d941735","name":"Café","pluralName":"Cafés","shortName":"Café","icon":{"prefix":"https:\/\/ss3.4sqi.net\/img\/categories_v2\/food\/cafe_","suffix":".png"},"primary":true}],"verified":false,"stats":{"checkinsCount":4751,"usersCount":1989,"tipCount":38},"url":"http:\/\/www.kingshawaiianrestaurants.com","hasMenu":true,"menu":{"type":"Menu","label":"Menu","anchor":"View Menu","url":"https:\/\/foursquare.com\/v\/the-local-place-bakery--cafe\/4b29ad23f964a52071a224e3\/menu","mobileUrl":"https:\/\/foursquare.com\/v\/4b29ad23f964a52071a224e3\/device_menu"},"allowMenuUrlEdit":true,"beenHere":{"lastCheckinExpiredAt":0},"specials":{"count":0,"items":[]},"referralId":"v-1483291064","venueChains":[],"hasPerk":false},{"id":"4b5d0e4df964a520ab5029e3","name":"Starbucks","contact":{"phone":"3107695849","formattedPhone":"(310) 769-5849","twitter":"starbucks","facebook":"22092443056","facebookUsername":"Starbucks","facebookName":"Starbucks"},"location":{"address":"20810 Avalon Blvd","lat":33.841631,"lng":-118.262325,"labeledLatLngs":[{"label":"display","lat":33.841631,"lng":-118.262325}],"postalCode":"90746","cc":"US","city":"Carson","state":"CA","country":"United States","formattedAddress":["20810 Avalon Blvd","Carson, CA 90746","United States"]},"categories":[{"id":"4bf58dd8d48988d1e0931735","name":"Coffee Shop","pluralName":"Coffee Shops","shortName":"Coffee Shop","icon":{"prefix":"https:\/\/ss3.4sqi.net\/img\/categories_v2\/food\/coffeeshop_","suffix":".png"},"primary":true}],"verified":true,"stats":{"checkinsCount":3804,"usersCount":1271,"tipCount":22},"url":"http:\/\/www.starbucks.com\/","hasMenu":true,"menu":{"type":"Menu","label":"Menu","anchor":"View Menu","url":"https:\/\/foursquare.com\/v\/starbucks\/4b5d0e4df964a520ab5029e3\/menu","mobileUrl":"https:\/\/foursquare.com\/v\/4b5d0e4df964a520ab5029e3\/device_menu"},"allowMenuUrlEdit":true,"beenHere":{"lastCheckinExpiredAt":0},"specials":{"count":0,"items":[]},"storeId":"5928","referralId":"v-1483291064","venueChains":[{"id":"556f676fbd6a75a99038d8ec"}],"hasPerk":false},{"id":"53f156a2498e96ff1055ce29","name":"Gen Korean BBQ","contact":{"phone":"4243280388","formattedPhone":"(424) 328-0388"},"location":{"address":"24301 Crenshaw Blvd","crossStreet":"Lomita Blvd","lat":33.80549614676662,"lng":-118.32835603478604,"labeledLatLngs":[{"label":"display","lat":33.80549614676662,"lng":-118.32835603478604}],"postalCode":"90505","cc":"US","city":"Torrance","state":"CA","country":"United States","formattedAddress":["24301 Crenshaw Blvd (Lomita Blvd)","Torrance, CA 90505","United States"]},"categories":[{"id":"4bf58dd8d48988d113941735","name":"Korean Restaurant","pluralName":"Korean Restaurants","shortName":"Korean","icon":{"prefix":"https:\/\/ss3.4sqi.net\/img\/categories_v2\/food\/korean_","suffix":".png"},"primary":true}],"verified":true,"stats":{"checkinsCount":1780,"usersCount":974,"tipCount":24},"allowMenuUrlEdit":true,"beenHere":{"lastCheckinExpiredAt":0},"specials":{"count":0,"items":[]},"venuePage":{"id":"147135222"},"referralId":"v-1483291064","venueChains":[],"hasPerk":false},{"id":"4b23d46af964a520a85a24e3","name":"Starbucks","contact":{"phone":"3107710524","formattedPhone":"(310) 771-0524","twitter":"starbucks","facebook":"22092443056","facebookUsername":"Starbucks","facebookName":"Starbucks"},"location":{"address":"1759 W. Artesia Blvd.","lat":33.873155,"lng":-118.308849,"labeledLatLngs":[{"label":"display","lat":33.873155,"lng":-118.308849}],"postalCode":"90248","cc":"US","city":"Gardena","state":"CA","country":"United States","formattedAddress":["1759 W. Artesia Blvd.","Gardena, CA 90248","United States"]},"categories":[{"id":"4bf58dd8d48988d1e0931735","name":"Coffee Shop","pluralName":"Coffee Shops","shortName":"Coffee Shop","icon":{"prefix":"https:\/\/ss3.4sqi.net\/img\/categories_v2\/food\/coffeeshop_","suffix":".png"},"primary":true}],"verified":true,"stats":{"checkinsCount":5089,"usersCount":1173,"tipCount":12},"url":"http:\/\/www.starbucks.com\/","hasMenu":true,"menu":{"type":"Menu","label":"Menu","anchor":"View Menu","url":"https:\/\/foursquare.com\/v\/starbucks\/4b23d46af964a520a85a24e3\/menu","mobileUrl":"https:\/\/foursquare.com\/v\/4b23d46af964a520a85a24e3\/device_menu"},"allowMenuUrlEdit":true,"beenHere":{"lastCheckinExpiredAt":0},"specials":{"count":0,"items":[]},"storeId":"5645","referralId":"v-1483291064","venueChains":[{"id":"556f676fbd6a75a99038d8ec"}],"hasPerk":false},{"id":"4b55db5af964a5202af327e3","name":"Starbucks","contact":{"phone":"3103244012","formattedPhone":"(310) 324-4012","twitter":"starbucks","facebook":"22092443056","facebookUsername":"Starbucks","facebookName":"Starbucks"},"location":{"address":"20240 Avalon Blvd","lat":33.847785,"lng":-118.264379,"labeledLatLngs":[{"label":"display","lat":33.847785,"lng":-118.264379}],"postalCode":"90746","cc":"US","city":"Carson","state":"CA","country":"United States","formattedAddress":["20240 Avalon Blvd","Carson, CA 90746","United States"]},"categories":[{"id":"4bf58dd8d48988d1e0931735","name":"Coffee Shop","pluralName":"Coffee Shops","shortName":"Coffee Shop","icon":{"prefix":"https:\/\/ss3.4sqi.net\/img\/categories_v2\/food\/coffeeshop_","suffix":".png"},"primary":true}],"verified":true,"stats":{"checkinsCount":1957,"usersCount":675,"tipCount":10},"url":"http:\/\/www.starbucks.com\/","hasMenu":true,"menu":{"type":"Menu","label":"Menu","anchor":"View Menu","url":"https:\/\/foursquare.com\/v\/starbucks\/4b55db5af964a5202af327e3\/menu","mobileUrl":"https:\/\/foursquare.com\/v\/4b55db5af964a5202af327e3\/device_menu"},"allowMenuUrlEdit":true,"beenHere":{"lastCheckinExpiredAt":0},"specials":{"count":0,"items":[]},"storeId":"9788","referralId":"v-1483291064","venueChains":[{"id":"556f676fbd6a75a99038d8ec"}],"hasPerk":false},{"id":"4b550fc3f964a520bad927e3","name":"Starbucks","contact":{"phone":"3105166449","formattedPhone":"(310) 516-6449","twitter":"starbucks","facebook":"22092443056","facebookUsername":"Starbucks","facebookName":"Starbucks"},"location":{"address":"335 E Albertoni St","lat":33.871835,"lng":-118.270445,"labeledLatLngs":[{"label":"display","lat":33.871835,"lng":-118.270445}],"postalCode":"90746","cc":"US","city":"Carson","state":"CA","country":"United States","formattedAddress":["335 E Albertoni St","Carson, CA 90746","United States"]},"categories":[{"id":"4bf58dd8d48988d1e0931735","name":"Coffee Shop","pluralName":"Coffee Shops","shortName":"Coffee Shop","icon":{"prefix":"https:\/\/ss3.4sqi.net\/img\/categories_v2\/food\/coffeeshop_","suffix":".png"},"primary":true}],"verified":true,"stats":{"checkinsCount":2772,"usersCount":690,"tipCount":9},"url":"http:\/\/www.starbucks.com\/","allowMenuUrlEdit":true,"beenHere":{"lastCheckinExpiredAt":0},"specials":{"count":0,"items":[]},"storeId":"9411","referralId":"v-1483291064","venueChains":[{"id":"556f676fbd6a75a99038d8ec"}],"hasPerk":false},{"id":"4af0e0d5f964a520dddf21e3","name":"Starbucks","contact":{"phone":"3102123150","formattedPhone":"(310) 212-3150","twitter":"starbucks","facebook":"22092443056","facebookUsername":"Starbucks","facebookName":"Starbucks"},"location":{"address":"2370 Crenshaw Blvd","lat":33.823617,"lng":-118.328233,"labeledLatLngs":[{"label":"display","lat":33.823617,"lng":-118.328233}],"postalCode":"90501","cc":"US","city":"Torrance","state":"CA","country":"United States","formattedAddress":["2370 Crenshaw Blvd","Torrance, CA 90501","United States"]},"categories":[{"id":"4bf58dd8d48988d1e0931735","name":"Coffee Shop","pluralName":"Coffee Shops","shortName":"Coffee Shop","icon":{"prefix":"https:\/\/ss3.4sqi.net\/img\/categories_v2\/food\/coffeeshop_","suffix":".png"},"primary":true}],"verified":true,"stats":{"checkinsCount":3926,"usersCount":971,"tipCount":9},"url":"http:\/\/www.starbucks.com\/","hasMenu":true,"menu":{"type":"Menu","label":"Menu","anchor":"View Menu","url":"https:\/\/foursquare.com\/v\/starbucks\/4af0e0d5f964a520dddf21e3\/menu","mobileUrl":"https:\/\/foursquare.com\/v\/4af0e0d5f964a520dddf21e3\/device_menu"},"allowMenuUrlEdit":true,"beenHere":{"lastCheckinExpiredAt":0},"specials":{"count":0,"items":[]},"storeId":"6656","referralId":"v-1483291064","venueChains":[{"id":"556f676fbd6a75a99038d8ec"}],"hasPerk":false},{"id":"4bcb8047511f9521b1a2b1c7","name":"Food 4 Less","contact":{"phone":"3107683095","formattedPhone":"(310) 768-3095"},"location":{"address":"1299 W Artesia Blvd","crossStreet":"btw Normandie & Vermont","lat":33.873449801330885,"lng":-118.29444259968189,"labeledLatLngs":[{"label":"display","lat":33.873449801330885,"lng":-118.29444259968189}],"postalCode":"90248","cc":"US","city":"Gardena","state":"CA","country":"United States","formattedAddress":["1299 W Artesia Blvd (btw Normandie & Vermont)","Gardena, CA 90248","United States"]},"categories":[{"id":"4bf58dd8d48988d118951735","name":"Grocery Store","pluralName":"Grocery Stores","shortName":"Grocery Store","icon":{"prefix":"https:\/\/ss3.4sqi.net\/img\/categories_v2\/shops\/food_grocery_","suffix":".png"},"primary":true}],"verified":true,"stats":{"checkinsCount":1350,"usersCount":484,"tipCount":12},"url":"http:\/\/www.food4less.com\/","allowMenuUrlEdit":true,"beenHere":{"lastCheckinExpiredAt":0},"specials":{"count":0,"items":[]},"storeId":"350","referralId":"v-1483291064","venueChains":[{"id":"556a3a90a7c8957d73d563db"}],"hasPerk":false},{"id":"4b50d345f964a520d93327e3","name":"McDonald's","contact":{"phone":"3105384977","formattedPhone":"(310) 538-4977","twitter":"mcdonalds"},"location":{"address":"1398 W Artesia Blvd","lat":33.87254366683973,"lng":-118.29847877341071,"labeledLatLngs":[{"label":"display","lat":33.87254366683973,"lng":-118.29847877341071}],"postalCode":"90248","cc":"US","city":"Gardena","state":"CA","country":"United States","formattedAddress":["1398 W Artesia Blvd","Gardena, CA 90248","United States"]},"categories":[{"id":"4bf58dd8d48988d16e941735","name":"Fast Food Restaurant","pluralName":"Fast Food Restaurants","shortName":"Fast Food","icon":{"prefix":"https:\/\/ss3.4sqi.net\/img\/categories_v2\/food\/fastfood_","suffix":".png"},"primary":true}],"verified":true,"stats":{"checkinsCount":1368,"usersCount":540,"tipCount":5},"url":"http:\/\/mcdonalds.com","hasMenu":true,"menu":{"type":"Menu","label":"Menu","anchor":"View Menu","url":"https:\/\/foursquare.com\/v\/mcdonalds\/4b50d345f964a520d93327e3\/menu","mobileUrl":"https:\/\/foursquare.com\/v\/4b50d345f964a520d93327e3\/device_menu"},"allowMenuUrlEdit":true,"beenHere":{"lastCheckinExpiredAt":0},"specials":{"count":0,"items":[]},"referralId":"v-1483291064","venueChains":[{"id":"556f7a12bd6a75a9903bddb2"}],"hasPerk":false},{"id":"4be4644b910020a1dba5d114","name":"McDonalds","contact":{"phone":"3105393102","formattedPhone":"(310) 539-3102","twitter":"mcdonalds"},"location":{"address":"931 Sepulveda Blvd","lat":33.81093845685956,"lng":-118.29126268957049,"labeledLatLngs":[{"label":"display","lat":33.81093845685956,"lng":-118.29126268957049}],"postalCode":"90502","cc":"US","city":"Torrance","state":"CA","country":"United States","formattedAddress":["931 Sepulveda Blvd","Torrance, CA 90502","United States"]},"categories":[{"id":"4bf58dd8d48988d16e941735","name":"Fast Food Restaurant","pluralName":"Fast Food Restaurants","shortName":"Fast Food","icon":{"prefix":"https:\/\/ss3.4sqi.net\/img\/categories_v2\/food\/fastfood_","suffix":".png"},"primary":true}],"verified":true,"stats":{"checkinsCount":1160,"usersCount":377,"tipCount":6},"url":"http:\/\/mcdonalds.com","hasMenu":true,"menu":{"type":"Menu","label":"Menu","anchor":"View Menu","url":"https:\/\/foursquare.com\/v\/mcdonalds\/4be4644b910020a1dba5d114\/menu","mobileUrl":"https:\/\/foursquare.com\/v\/4be4644b910020a1dba5d114\/device_menu"},"allowMenuUrlEdit":true,"beenHere":{"lastCheckinExpiredAt":0},"specials":{"count":0,"items":[]},"referralId":"v-1483291064","venueChains":[{"id":"556f7a12bd6a75a9903bddb2"}],"hasPerk":false},{"id":"4b800f7bf964a5208d4e30e3","name":"Giuliano's Delicatessen & Bakery","contact":{"phone":"3103236990","formattedPhone":"(310) 323-6990","twitter":"Real_Giulianos","facebook":"212134838820417","facebookName":"Giuliano's in Gardena"},"location":{"address":"1138 W Gardena Blvd","crossStreet":"btw Budlong Ave & Berendo Ave","lat":33.881407339903085,"lng":-118.29471091971924,"labeledLatLngs":[{"label":"display","lat":33.881407339903085,"lng":-118.29471091971924}],"postalCode":"90247","cc":"US","city":"Gardena","state":"CA","country":"United States","formattedAddress":["1138 W Gardena Blvd (btw Budlong Ave & Berendo Ave)","Gardena, CA 90247","United States"]},"categories":[{"id":"4bf58dd8d48988d146941735","name":"Deli \/ Bodega","pluralName":"Delis \/ Bodegas","shortName":"Deli \/ Bodega","icon":{"prefix":"https:\/\/ss3.4sqi.net\/img\/categories_v2\/food\/deli_","suffix":".png"},"primary":true}],"verified":true,"stats":{"checkinsCount":2723,"usersCount":829,"tipCount":29},"url":"http:\/\/www.giulianosgardena.com","hasMenu":true,"menu":{"type":"Menu","label":"Menu","anchor":"View Menu","url":"https:\/\/foursquare.com\/v\/giulianos-delicatessen--bakery\/4b800f7bf964a5208d4e30e3\/menu","mobileUrl":"https:\/\/foursquare.com\/v\/4b800f7bf964a5208d4e30e3\/device_menu"},"allowMenuUrlEdit":true,"beenHere":{"lastCheckinExpiredAt":0},"specials":{"count":0,"items":[]},"venuePage":{"id":"70901325"},"referralId":"v-1483291064","venueChains":[],"hasPerk":false},{"id":"4b6da3aef964a5206f822ce3","name":"California Fish Grill","contact":{"phone":"3102252777","formattedPhone":"(310) 225-2777","twitter":"cafishgrill","facebook":"353293936583","facebookUsername":"CaliforniaFishGrill","facebookName":"California FISH GRILL"},"location":{"address":"1425 Artesia Blvd","lat":33.87291,"lng":-118.29987,"labeledLatLngs":[{"label":"display","lat":33.87291,"lng":-118.29987}],"postalCode":"90248","cc":"US","city":"Gardena","state":"CA","country":"United States","formattedAddress":["1425 Artesia Blvd","Gardena, CA 90248","United States"]},"categories":[{"id":"4bf58dd8d48988d1ce941735","name":"Seafood Restaurant","pluralName":"Seafood Restaurants","shortName":"Seafood","icon":{"prefix":"https:\/\/ss3.4sqi.net\/img\/categories_v2\/food\/seafood_","suffix":".png"},"primary":true}],"verified":true,"stats":{"checkinsCount":3349,"usersCount":1317,"tipCount":42},"url":"http:\/\/www.cafishgrill.com","hasMenu":true,"menu":{"type":"Menu","label":"Menu","anchor":"View Menu","url":"https:\/\/foursquare.com\/v\/california-fish-grill\/4b6da3aef964a5206f822ce3\/menu","mobileUrl":"https:\/\/foursquare.com\/v\/4b6da3aef964a5206f822ce3\/device_menu","externalUrl":"http:\/\/cafishgrill.com\/menu\/"},"allowMenuUrlEdit":true,"beenHere":{"lastCheckinExpiredAt":0},"specials":{"count":0,"items":[]},"storeId":"1","referralId":"v-1483291064","venueChains":[{"id":"5568f05fa7c8a9cf8ec40cb4"}],"hasPerk":false},{"id":"5740af19498eb87fd2d8dfcb","name":"Green Door Powered by Intelligentsia","contact":{"phone":"4245700095","formattedPhone":"(424) 570-0095"},"location":{"address":"714 E Carson St","crossStreet":"Avalon Blvd.","lat":33.831482497517136,"lng":-118.26319545507431,"labeledLatLngs":[{"label":"display","lat":33.831482497517136,"lng":-118.26319545507431}],"postalCode":"90745","cc":"US","city":"Carson","state":"CA","country":"United States","formattedAddress":["714 E Carson St (Avalon Blvd.)","Carson, CA 90745","United States"]},"categories":[{"id":"4bf58dd8d48988d1e0931735","name":"Coffee Shop","pluralName":"Coffee Shops","shortName":"Coffee Shop","icon":{"prefix":"https:\/\/ss3.4sqi.net\/img\/categories_v2\/food\/coffeeshop_","suffix":".png"},"primary":true}],"verified":false,"stats":{"checkinsCount":258,"usersCount":76,"tipCount":0},"allowMenuUrlEdit":true,"beenHere":{"lastCheckinExpiredAt":0},"specials":{"count":0,"items":[]},"referralId":"v-1483291064","venueChains":[],"hasPerk":false},{"id":"4cfd536bdccef04d7bf0c49c","name":"Rascals Teriyaki Grill","contact":{"phone":"3105168814","formattedPhone":"(310) 516-8814"},"location":{"address":"1540 W Artesia Blvd","crossStreet":"Dalton","lat":33.872675,"lng":-118.30397,"labeledLatLngs":[{"label":"display","lat":33.872675,"lng":-118.30397}],"postalCode":"90248","cc":"US","city":"Gardena","state":"CA","country":"United States","formattedAddress":["1540 W Artesia Blvd (Dalton)","Gardena, CA 90248","United States"]},"categories":[{"id":"4bf58dd8d48988d16e941735","name":"Fast Food Restaurant","pluralName":"Fast Food Restaurants","shortName":"Fast Food","icon":{"prefix":"https:\/\/ss3.4sqi.net\/img\/categories_v2\/food\/fastfood_","suffix":".png"},"primary":true}],"verified":false,"stats":{"checkinsCount":2994,"usersCount":1136,"tipCount":29},"url":"http:\/\/rascalsteriyaki.com","hasMenu":true,"menu":{"type":"Menu","label":"Menu","anchor":"View Menu","url":"https:\/\/foursquare.com\/v\/rascals-teriyaki-grill\/4cfd536bdccef04d7bf0c49c\/menu","mobileUrl":"https:\/\/foursquare.com\/v\/4cfd536bdccef04d7bf0c49c\/device_menu"},"allowMenuUrlEdit":true,"beenHere":{"lastCheckinExpiredAt":0},"specials":{"count":0,"items":[]},"referralId":"v-1483291064","venueChains":[],"hasPerk":false},{"id":"4b7c5641f964a5202e8d2fe3","name":"Starbucks","contact":{"phone":"3106181899","formattedPhone":"(310) 618-1899","twitter":"starbucks","facebook":"22092443056","facebookUsername":"Starbucks","facebookName":"Starbucks"},"location":{"address":"20806 Figeroa Street","lat":33.841313,"lng":-118.285423,"labeledLatLngs":[{"label":"display","lat":33.841313,"lng":-118.285423}],"postalCode":"90745","cc":"US","city":"Carson","state":"CA","country":"United States","formattedAddress":["20806 Figeroa Street","Carson, CA 90745","United States"]},"categories":[{"id":"4bf58dd8d48988d1e0931735","name":"Coffee Shop","pluralName":"Coffee Shops","shortName":"Coffee Shop","icon":{"prefix":"https:\/\/ss3.4sqi.net\/img\/categories_v2\/food\/coffeeshop_","suffix":".png"},"primary":true}],"verified":true,"stats":{"checkinsCount":3970,"usersCount":911,"tipCount":16},"url":"http:\/\/www.starbucks.com\/","hasMenu":true,"menu":{"type":"Menu","label":"Menu","anchor":"View Menu","url":"https:\/\/foursquare.com\/v\/starbucks\/4b7c5641f964a5202e8d2fe3\/menu","mobileUrl":"https:\/\/foursquare.com\/v\/4b7c5641f964a5202e8d2fe3\/device_menu"},"allowMenuUrlEdit":true,"beenHere":{"lastCheckinExpiredAt":0},"specials":{"count":0,"items":[]},"storeId":"6705","referralId":"v-1483291064","venueChains":[{"id":"556f676fbd6a75a99038d8ec"}],"hasPerk":false},{"id":"57981c41498e04a35ca350f0","name":"Kang Ho-Dong Baekjeong","contact":{},"location":{"address":"1725 W Carson St Ste A","crossStreet":"Western Avenue","lat":33.83196,"lng":-118.310061,"labeledLatLngs":[{"label":"display","lat":33.83196,"lng":-118.310061}],"postalCode":"90501","cc":"US","city":"Torrance","state":"CA","country":"United States","formattedAddress":["1725 W Carson St Ste A (Western Avenue)","Torrance, CA 90501","United States"]},"categories":[{"id":"4bf58dd8d48988d113941735","name":"Korean Restaurant","pluralName":"Korean Restaurants","shortName":"Korean","icon":{"prefix":"https:\/\/ss3.4sqi.net\/img\/categories_v2\/food\/korean_","suffix":".png"},"primary":true}],"verified":false,"stats":{"checkinsCount":179,"usersCount":148,"tipCount":3},"allowMenuUrlEdit":true,"beenHere":{"lastCheckinExpiredAt":0},"specials":{"count":0,"items":[]},"referralId":"v-1483291064","venueChains":[],"hasPerk":false},{"id":"4b9aacbef964a520e4cb35e3","name":"McDonald's","contact":{"phone":"3103202097","formattedPhone":"(310) 320-2097"},"location":{"address":"1452 W Carson St","crossStreet":"Denker","lat":33.83116932,"lng":-118.30344,"labeledLatLngs":[{"label":"display","lat":33.83116932,"lng":-118.30344}],"postalCode":"90501","cc":"US","city":"Torrance","state":"CA","country":"United States","formattedAddress":["1452 W Carson St (Denker)","Torrance, CA 90501","United States"]},"categories":[{"id":"4bf58dd8d48988d16e941735","name":"Fast Food Restaurant","pluralName":"Fast Food Restaurants","shortName":"Fast Food","icon":{"prefix":"https:\/\/ss3.4sqi.net\/img\/categories_v2\/food\/fastfood_","suffix":".png"},"primary":true}],"verified":true,"stats":{"checkinsCount":1018,"usersCount":429,"tipCount":9},"url":"http:\/\/mcdonalds.com","hasMenu":true,"menu":{"type":"Menu","label":"Menu","anchor":"View Menu","url":"https:\/\/foursquare.com\/v\/mcdonalds\/4b9aacbef964a520e4cb35e3\/menu","mobileUrl":"https:\/\/foursquare.com\/v\/4b9aacbef964a520e4cb35e3\/device_menu"},"allowMenuUrlEdit":true,"beenHere":{"lastCheckinExpiredAt":0},"specials":{"count":0,"items":[]},"referralId":"v-1483291064","venueChains":[{"id":"556f7a12bd6a75a9903bddb2"}],"hasPerk":false}]}}