{"meta":{"code":200,"requestId":"586939b7f594df18d718733e"},"response":{"venues":[{"id":"4ea7a753dab48494d885e545","name":"In-N-Out Burger","contact":{"phone":"8007861000","formattedPhone":"(800) 786-1000","twitter":"innoutburger"},"location":{"address":"799 E Spring St","crossStreet":"at Atlantic Ave","lat":33.81206285976984,"lng":-118.18344189983299,"labeledLatLngs":[{"label":"display","lat":33.81206285976984,"lng":-118.18344189983299}],"postalCode":"90755","cc":"US","city":"Signal Hill","state":"CA","country":"United States","formattedAddress":["799 E Spring St (at Atlantic Ave)","Signal Hill, CA 90755","United States"]},"categories":[{"id":"4bf58dd8d48988d16c941735","name":"Burger Joint","pluralName":"Burger Joints","shortName":"Burgers","icon":{"prefix":"https:\/\/ss3.4sqi.net\/img\/categories_v2\/food\/burger_","suffix":".png"},"primary":true}],"verified":true,"stats":{"checkinsCount":6808,"usersCount":2996,"tipCount":47},"url":"http:\/\/www.in-n-out.com","menu":{"type":"Menu","label":"Menu","anchor":"View Menu","url":"http:\/\/in-n-out.com\/menu.aspx","mobileUrl":"http:\/\/in-n-out.com\/menu.aspx","externalUrl":"http:\/\/in-n-out.com\/menu.aspx"},"allowMenuUrlEdit":true,"beenHere":{"lastCheckinExpiredAt":0},"specials":{"count":0,"items":[]},"storeId":"265","referralId":"v-1483291063","venueChains":[{"id":"556cdd65aceaff43eb03dddb"}],"hasPerk":false},{"id":"4b645b19f964a520e7ac2ae3","name":"Starbucks","contact":{"phone":"5625959336","formattedPhone":"(562) 595-9336","twitter":"starbucks","facebook":"22092443056","facebookUsername":"Starbucks","facebookName":"Starbucks"},"location":{"address":"1788 E Willow St","lat":33.804118,"lng":-118.169935,"labeledLatLngs":[{"label":"display","lat":33.804118,"lng":-118.169935}],"postalCode":"90755","cc":"US","city":"Signal Hill","state":"CA","country":"United States","formattedAddress":["1788 E Willow St","Signal Hill, CA 90755","United States"]},"categories":[{"id":"4bf58dd8d48988d1e0931735","name":"Coffee Shop","pluralName":"Coffee Shops","shortName":"Coffee Shop","icon":{"prefix":"https:\/\/ss3.4sqi.net\/img\/categories_v2\/food\/coffeeshop_","suffix":".png"},"primary":true}],"verified":true,"stats":{"checkinsCount":7661,"usersCount":1582,"tipCount":29},"url":"http:\/\/www.starbucks.com\/","hasMenu":true,"menu":{"type":"Menu","label":"Menu","anchor":"View Menu","url":"https:\/\/foursquare.com\/v\/starbucks\/4b645b19f964a520e7ac2ae3\/menu","mobileUrl":"https:\/\/foursquare.com\/v\/4b645b19f964a520e7ac2ae3\/device_menu"},"allowMenuUrlEdit":true,"beenHere":{"lastCheckinExpiredAt":0},"specials":{"count":0,"items":[]},"storeId":"5787","referralId":"v-1483291063","venueChains":[{"id":"556f676fbd6a75a99038d8ec"}],"hasPerk":false},{"id":"54667f0b498e762c1d972631","name":"Starbucks","contact":{"phone":"5629889304","formattedPhone":"(562) 988-9304","twitter":"starbucks","facebook":"22092443056","facebookUsername":"Starbucks","facebookName":"Starbucks"},"location":{"address":"999 Spring Street","lat":33.811996,"lng":-118.18111,"labeledLatLngs":[{"label":"display","lat":33.811996,"lng":-118.18111}],"postalCode":"90755","cc":"US","city":"Signal Hill","state":"CA","country":"United States","formattedAddress":["999 Spring Street","Signal Hill, CA 90755","United States"]},"categories":[{"id":"4bf58dd8d48988d1e0931735","name":"Coffee Shop","pluralName":"Coffee Shops","shortName":"Coffee Shop","icon":{"prefix":"https:\/\/ss3.4sqi.net\/img\/categories_v2\/food\/coffeeshop_","suffix":".png"},"primary":true}],"verified":true,"stats":{"checkinsCount":833,"usersCount":239,"tipCount":6},"url":"http:\/\/www.starbucks.com","allowMenuUrlEdit":true,"beenHere":{"lastCheckinExpiredAt":0},"specials":{"count":0,"items":[]},"storeId":"23315","referralId":"v-1483291063","venueChains":[{"id":"556f676fbd6a75a99038d8ec"}],"hasPerk":false},{"id":"4a58f43cf964a52049b81fe3","name":"Jongewaard's Bake N Broil","contact":{"phone":"5625950396","formattedPhone":"(562) 595-0396","twitter":"bakenbroil"},"location":{"address":"3697 Atlantic Ave","crossStreet":"at 37th St.","lat":33.82416480513968,"lng":-118.18518424525976,"labeledLatLngs":[{"label":"display","lat":33.82416480513968,"lng":-118.18518424525976}],"postalCode":"90807","cc":"US","city":"Long Beach","state":"CA","country":"United States","formattedAddress":["3697 Atlantic Ave (at 37th St.)","Long Beach, CA 90807","United States"]},"categories":[{"id":"4bf58dd8d48988d16a941735","name":"Bakery","pluralName":"Bakeries","shortName":"Bakery","icon":{"prefix":"https:\/\/ss3.4sqi.net\/img\/categories_v2\/food\/bakery_","suffix":".png"},"primary":true}],"verified":false,"stats":{"checkinsCount":4538,"usersCount":1697,"tipCount":95},"url":"http:\/\/www.bakenbroil.com\/","hasMenu":true,"menu":{"type":"Menu","label":"Menu","anchor":"View Menu","url":"https:\/\/foursquare.com\/v\/jongewaards-bake-n-broil\/4a58f43cf964a52049b81fe3\/menu","mobileUrl":"https:\/\/foursquare.com\/v\/4a58f43cf964a52049b81fe3\/device_menu"},"allowMenuUrlEdit":true,"beenHere":{"lastCheckinExpiredAt":0},"specials":{"count":0,"items":[]},"referralId":"v-1483291063","venueChains":[],"hasPerk":false},{"id":"4ac7f20df964a520c4ba20e3","name":"Starbucks","contact":{"phone":"5622900711","formattedPhone":"(562) 290-0711","twitter":"starbucks","facebook":"22092443056","facebookUsername":"Starbucks","facebookName":"Starbucks"},"location":{"address":"141 E Willow St","lat":33.805423,"lng":-118.190654,"labeledLatLngs":[{"label":"display","lat":33.805423,"lng":-118.190654}],"postalCode":"90806","cc":"US","city":"Long Beach","state":"CA","country":"United States","formattedAddress":["141 E Willow St","Long Beach, CA 90806","United States"]},"categories":[{"id":"4bf58dd8d48988d1e0931735","name":"Coffee Shop","pluralName":"Coffee Shops","shortName":"Coffee Shop","icon":{"prefix":"https:\/\/ss3.4sqi.net\/img\/categories_v2\/food\/coffeeshop_","suffix":".png"},"primary":true}],"verified":true,"stats":{"checkinsCount":3462,"usersCount":980,"tipCount":19},"url":"http:\/\/www.starbucks.com\/","hasMenu":true,"menu":{"type":"Menu","label":"Menu","anchor":"View Menu","url":"https:\/\/foursquare.com\/v\/starbucks\/4ac7f20df964a520c4ba20e3\/menu","mobileUrl":"https:\/\/foursquare.com\/v\/4ac7f20df964a520c4ba20e3\/device_menu"},"allowMenuUrlEdit":true,"beenHere":{"lastCheckinExpiredAt":0},"specials":{"count":0,"items":[]},"storeId":"5721","referralId":"v-1483291063","venueChains":[{"id":"556f676fbd6a75a99038d8ec"}],"hasPerk":false},{"id":"4b72dd63f964a520468c2de3","name":"Starbucks","contact":{"phone":"5624237900","formattedPhone":"(562) 423-7900","twitter":"starbucks","facebook":"22092443056","facebookUsername":"Starbucks","facebookName":"Starbucks"},"location":{"address":"4406 Atlantic Ave","lat":33.837239,"lng":-118.184724,"labeledLatLngs":[{"label":"display","lat":33.837239,"lng":-118.184724}],"postalCode":"90807","cc":"US","city":"Long Beach","state":"CA","country":"United States","formattedAddress":["4406 Atlantic Ave","Long Beach, CA 90807","United States"]},"categories":[{"id":"4bf58dd8d48988d1e0931735","name":"Coffee Shop","pluralName":"Coffee Shops","shortName":"Coffee Shop","icon":{"prefix":"https:\/\/ss3.4sqi.net\/img\/categories_v2\/food\/coffeeshop_","suffix":".png"},"primary":true}],"verified":true,"stats":{"checkinsCount":3515,"usersCount":832,"tipCount":13},"url":"http:\/\/www.starbucks.com\/","hasMenu":true,"menu":{"type":"Menu","label":"Menu","anchor":"View Menu","url":"https:\/\/foursquare.com\/v\/starbucks\/4b72dd63f964a520468c2de3\/menu","mobileUrl":"https:\/\/foursquare.com\/v\/4b72dd63f964a520468c2de3\/device_menu"},"allowMenuUrlEdit":true,"beenHere":{"lastCheckinExpiredAt":0},"specials":{"count":0,"items":[]},"storeId":"5774","referralId":"v-1483291063","venueChains":[{"id":"556f676fbd6a75a99038d8ec"}],"hasPerk":false},{"id":"4b57c1eef964a520923f28e3","name":"McDonald's","contact":{"phone":"5624268440","formattedPhone":"(562) 426-8440"},"location":{"address":"2599 Long Beach Blvd","crossStreet":"at Willow St","lat":33.804141025167674,"lng":-118.18982279733503,"labeledLatLngs":[{"label":"display","lat":33.804141025167674,"lng":-118.18982279733503}],"postalCode":"90806","cc":"US","city":"Long Beach","state":"CA","country":"United States","formattedAddress":["2599 Long Beach Blvd (at Willow St)","Long Beach, CA 90806","United States"]},"categories":[{"id":"4bf58dd8d48988d16e941735","name":"Fast Food Restaurant","pluralName":"Fast Food Restaurants","shortName":"Fast Food","icon":{"prefix":"https:\/\/ss3.4sqi.net\/img\/categories_v2\/food\/fastfood_","suffix":".png"},"primary":true}],"verified":true,"stats":{"checkinsCount":1374,"usersCount":426,"tipCount":9},"url":"http:\/\/mcdonalds.com","hasMenu":true,"menu":{"type":"Menu","label":"Menu","anchor":"View Menu","url":"https:\/\/foursquare.com\/v\/mcdonalds\/4b57c1eef964a520923f28e3\/menu","mobileUrl":"https:\/\/foursquare.com\/v\/4b57c1eef964a520923f28e3\/device_menu"},"allowMenuUrlEdit":true,"beenHere":{"lastCheckinExpiredAt":0},"specials":{"count":0,"items":[]},"referralId":"v-1483291063","venueChains":[{"id":"556f7a12bd6a75a9903bddb2"}],"hasPerk":false},{"id":"4baa3b6df964a520e1553ae3","name":"McDonald's","contact":{"phone":"5624215526","formattedPhone":"(562) 421-5526"},"location":{"address":"2727 Carson St","crossStreet":"Paramount","lat":33.83270346229577,"lng":-118.15961122512817,"labeledLatLngs":[{"label":"display","lat":33.83270346229577,"lng":-118.15961122512817}],"postalCode":"90712","cc":"US","city":"Long Beach-Lakewood","state":"CA","country":"United States","formattedAddress":["2727 Carson St (Paramount)","Long Beach-Lakewood, CA 90712","United States"]},"categories":[{"id":"4bf58dd8d48988d16e941735","name":"Fast Food Restaurant","pluralName":"Fast Food Restaurants","shortName":"Fast Food","icon":{"prefix":"https:\/\/ss3.4sqi.net\/img\/categories_v2\/food\/fastfood_","suffix":".png"},"primary":true}],"verified":true,"stats":{"checkinsCount":985,"usersCount":358,"tipCount":7},"url":"http:\/\/mcdonalds.com","hasMenu":true,"menu":{"type":"Menu","label":"Menu","anchor":"View Menu","url":"https:\/\/foursquare.com\/v\/mcdonalds\/4baa3b6df964a520e1553ae3\/menu","mobileUrl":"https:\/\/foursquare.com\/v\/4baa3b6df964a520e1553ae3\/device_menu"},"allowMenuUrlEdit":true,"beenHere":{"lastCheckinExpiredAt":0},"specials":{"count":0,"items":[]},"referralId":"v-1483291063","venueChains":[{"id":"556f7a12bd6a75a9903bddb2"}],"hasPerk":false},{"id":"4cb27fe33f0676b07472fd0c","name":"Northgate Gonzalez Markets","contact":{"phone":"5625995075","formattedPhone":"(562) 599-5075"},"location":{"address":"2120 Pacific Ave","lat":33.79579534873348,"lng":-118.19315882186368,"labeledLatLngs":[{"label":"display","lat":33.79579534873348,"lng":-118.19315882186368}],"postalCode":"90806","cc":"US","city":"Long Beach","state":"CA","country":"United States","formattedAddress":["2120 Pacific Ave","Long Beach, CA 90806","United States"]},"categories":[{"id":"4bf58dd8d48988d118951735","name":"Grocery Store","pluralName":"Grocery Stores","shortName":"Grocery Store","icon":{"prefix":"https:\/\/ss3.4sqi.net\/img\/categories_v2\/shops\/food_grocery_","suffix":".png"},"primary":true}],"verified":true,"stats":{"checkinsCount":848,"usersCount":210,"tipCount":6},"url":"http:\/\/www.northgatemarkets.com","hasMenu":true,"menu":{"type":"Products","label":"Products","anchor":"View Products","url":"https:\/\/foursquare.com\/v\/northgate-gonzalez-markets\/4cb27fe33f0676b07472fd0c\/menu","mobileUrl":"https:\/\/foursquare.com\/v\/4cb27fe33f0676b07472fd0c\/device_menu"},"allowMenuUrlEdit":true,"beenHere":{"lastCheckinExpiredAt":0},"specials":{"count":0,"items":[]},"storeId":"12","referralId":"v-1483291063","venueChains":[{"id":"5569f9e0a7c8896abe7d31e9"}],"hasPerk":false},{"id":"4bd888e151170f472c9033e4","name":"7-Eleven","contact":{"phone":"5626340424","formattedPhone":"(562) 634-0424","twitter":"7eleven","facebook":"185734434829194","facebookUsername":"7ElevenLakewood20314","facebookName":"7-Eleven"},"location":{"address":"5315 Paramount Blvd","lat":33.85405619650126,"lng":-118.16057893033776,"labeledLatLngs":[{"label":"display","lat":33.85405619650126,"lng":-118.16057893033776}],"postalCode":"90712","cc":"US","city":"Lakewood","state":"CA","country":"United States","formattedAddress":["5315 Paramount Blvd","Lakewood, CA 90712","United States"]},"categories":[{"id":"4d954b0ea243a5684a65b473","name":"Convenience Store","pluralName":"Convenience Stores","shortName":"Convenience Store","icon":{"prefix":"https:\/\/ss3.4sqi.net\/img\/categories_v2\/shops\/conveniencestore_","suffix":".png"},"primary":true}],"verified":true,"stats":{"checkinsCount":738,"usersCount":212,"tipCount":5},"url":"http:\/\/www.7-eleven.com","allowMenuUrlEdit":true,"beenHere":{"lastCheckinExpiredAt":0},"specials":{"count":0,"items":[]},"storeId":"20314","referralId":"v-1483291063","venueChains":[{"id":"556f676fbd6a75a99038d8e9"}],"hasPerk":false},{"id":"551f89d8498ee3db6d0dedb0","name":"Weiland Brewery Restaurant","contact":{"phone":"5625955700","formattedPhone":"(562) 595-5700","twitter":"breweryweiland"},"location":{"address":"4354 Atlantic Ave","lat":33.835700539197006,"lng":-118.1848243523968,"labeledLatLngs":[{"label":"display","lat":33.835700539197006,"lng":-118.1848243523968}],"postalCode":"90807","cc":"US","city":"Long Beach","state":"CA","country":"United States","formattedAddress":["4354 Atlantic Ave","Long Beach, CA 90807","United States"]},"categories":[{"id":"4bf58dd8d48988d14e941735","name":"American Restaurant","pluralName":"American Restaurants","shortName":"American","icon":{"prefix":"https:\/\/ss3.4sqi.net\/img\/categories_v2\/food\/default_","suffix":".png"},"primary":true}],"verified":true,"stats":{"checkinsCount":279,"usersCount":135,"tipCount":6},"url":"http:\/\/weilandbrewery-hub.com","allowMenuUrlEdit":true,"beenHere":{"lastCheckinExpiredAt":0},"specials":{"count":0,"items":[]},"venuePage":{"id":"340318737"},"storeId":"","referralId":"v-1483291063","venueChains":[],"hasPerk":false},{"id":"4c40bbd7ff711b8d35da1005","name":"Pho Long Beach","contact":{"twitter":"phofever"},"location":{"address":"511 W Willow St","lat":33.80445638912144,"lng":-118.19848833009237,"labeledLatLngs":[{"label":"display","lat":33.80445638912144,"lng":-118.19848833009237}],"postalCode":"90806","cc":"US","city":"Long Beach","state":"CA","country":"United States","formattedAddress":["511 W Willow St","Long Beach, CA 90806","United States"]},"categories":[{"id":"4bf58dd8d48988d14a941735","name":"Vietnamese Restaurant","pluralName":"Vietnamese Restaurants","shortName":"Vietnamese","icon":{"prefix":"https:\/\/ss3.4sqi.net\/img\/categories_v2\/food\/vietnamese_","suffix":".png"},"primary":true}],"verified":false,"stats":{"checkinsCount":1216,"usersCount":314,"tipCount":17},"allowMenuUrlEdit":true,"beenHere":{"lastCheckinExpiredAt":0},"specials":{"count":0,"items":[]},"referralId":"v-1483291063","venueChains":[],"hasPerk":false},{"id":"53219c27498ea23c1b3ccf4e","name":"7-Eleven","contact":{"phone":"3109338570","formattedPhone":"(310) 933-8570","twitter":"7eleven","facebook":"204210446400218","facebookUsername":"7ElevenCompton39627","facebookName":"7-Eleven"},"location":{"address":"1560 S Long Beach Blvd","lat":33.88155861909786,"lng":-118.20445155904231,"labeledLatLngs":[{"label":"display","lat":33.88155861909786,"lng":-118.20445155904231}],"postalCode":"90221","cc":"US","city":"Compton","state":"CA","country":"United States","formattedAddress":["1560 S Long Beach Blvd","Compton, CA 90221","United States"]},"categories":[{"id":"4d954b0ea243a5684a65b473","name":"Convenience Store","pluralName":"Convenience Stores","shortName":"Convenience Store","icon":{"prefix":"https:\/\/ss3.4sqi.net\/img\/categories_v2\/shops\/conveniencestore_","suffix":".png"},"primary":true}],"verified":true,"stats":{"checkinsCount":106,"usersCount":28,"tipCount":0},"url":"http:\/\/www.7-eleven.com","allowMenuUrlEdit":true,"beenHere":{"lastCheckinExpiredAt":0},"specials":{"count":0,"items":[]},"storeId":"39627","referralId":"v-1483291063","venueChains":[{"id":"556f676fbd6a75a99038d8e9"}],"hasPerk":false},{"id":"4bf74774c07c9c74579dbbef","name":"7-Eleven","contact":{"phone":"5625959113","formattedPhone":"(562) 595-9113","twitter":"7eleven","facebook":"143373055752500","facebookUsername":"7ElevenLongBeach21932","facebookName":"7-Eleven"},"location":{"address":"4550 Orange Ave","crossStreet":"San Antonio","lat":33.84155789853087,"lng":-118.17618669910277,"labeledLatLngs":[{"label":"display","lat":33.84155789853087,"lng":-118.17618669910277}],"postalCode":"90807","cc":"US","city":"Long Beach","state":"CA","country":"United States","formattedAddress":["4550 Orange Ave (San Antonio)","Long Beach, CA 90807","United States"]},"categories":[{"id":"4d954b0ea243a5684a65b473","name":"Convenience Store","pluralName":"Convenience Stores","shortName":"Convenience Store","icon":{"prefix":"https:\/\/ss3.4sqi.net\/img\/categories_v2\/shops\/conveniencestore_","suffix":".png"},"primary":true}],"verified":true,"stats":{"checkinsCount":413,"usersCount":150,"tipCount":4},"url":"http:\/\/www.7-eleven.com","allowMenuUrlEdit":true,"beenHere":{"lastCheckinExpiredAt":0},"specials":{"count":0,"items":[]},"storeId":"21932","referralId":"v-1483291063","venueChains":[{"id":"556f676fbd6a75a99038d8e9"}],"hasPerk":false},{"id":"4bf1cda33fa220a114bc1820","name":"Del Taco","contact":{"phone":"5629979454","formattedPhone":"(562) 997-9454"},"location":{"address":"1801 E Willow St","lat":33.80489768340872,"lng":-118.16958904266357,"labeledLatLngs":[{"label":"display","lat":33.80489768340872,"lng":-118.16958904266357}],"postalCode":"90755","cc":"US","city":"Signal Hill","state":"CA","country":"United States","formattedAddress":["1801 E Willow St","Signal Hill, CA 90755","United States"]},"categories":[{"id":"4bf58dd8d48988d16e941735","name":"Fast Food Restaurant","pluralName":"Fast Food Restaurants","shortName":"Fast Food","icon":{"prefix":"https:\/\/ss3.4sqi.net\/img\/categories_v2\/food\/fastfood_","suffix":".png"},"primary":true}],"verified":false,"stats":{"checkinsCount":1355,"usersCount":463,"tipCount":11},"url":"http:\/\/www.deltaco.net\/","hasMenu":true,"menu":{"type":"Menu","label":"Menu","anchor":"View Menu","url":"https:\/\/foursquare.com\/v\/del-taco\/4bf1cda33fa220a114bc1820\/menu","mobileUrl":"https:\/\/foursquare.com\/v\/4bf1cda33fa220a114bc1820\/device_menu"},"allowMenuUrlEdit":true,"beenHere":{"lastCheckinExpiredAt":0},"specials":{"count":0,"items":[]},"referralId":"v-1483291063","venueChains":[{"id":"563bdac5498eeb86d4b61e72"}],"hasPerk":false},{"id":"4c7c09a0df08a1cd7f44e25d","name":"Del Taco","contact":{"phone":"5629972968","formattedPhone":"(562) 997-2968","twitter":"DelTaco"},"location":{"address":"2120 E Carson St","crossStreet":"at Cherry Ave","lat":33.83217987552095,"lng":-118.16586345434189,"labeledLatLngs":[{"label":"display","lat":33.83217987552095,"lng":-118.16586345434189}],"postalCode":"90807","cc":"US","city":"Long Beach","state":"CA","country":"United States","formattedAddress":["2120 E Carson St (at Cherry Ave)","Long Beach, CA 90807","United States"]},"categories":[{"id":"4bf58dd8d48988d151941735","name":"Taco Place","pluralName":"Taco Places","shortName":"Tacos","icon":{"prefix":"https:\/\/ss3.4sqi.net\/img\/categories_v2\/food\/taco_","suffix":".png"},"primary":true}],"verified":false,"stats":{"checkinsCount":794,"usersCount":287,"tipCount":8},"url":"http:\/\/www.deltaco.com","hasMenu":true,"menu":{"type":"Menu","label":"Menu","anchor":"View Menu","url":"https:\/\/foursquare.com\/v\/del-taco\/4c7c09a0df08a1cd7f44e25d\/menu","mobileUrl":"https:\/\/foursquare.com\/v\/4c7c09a0df08a1cd7f44e25d\/device_menu"},"allowMenuUrlEdit":true,"beenHere":{"lastCheckinExpiredAt":0},"specials":{"count":0,"items":[]},"referralId":"v-1483291063","venueChains":[{"id":"563bdac5498eeb86d4b61e72"}],"hasPerk":false},{"id":"4ae4d70bf964a520a99e21e3","name":"I Luv Sushi","contact":{"phone":"5624218917","formattedPhone":"(562) 421-8917"},"location":{"address":"3215 Carson St","crossStreet":"at Clubhouse Dr.","lat":33.8326988377285,"lng":-118.15564769254084,"labeledLatLngs":[{"label":"display","lat":33.8326988377285,"lng":-118.15564769254084}],"postalCode":"90712","cc":"US","city":"Lakewood","state":"CA","country":"United States","formattedAddress":["3215 Carson St (at Clubhouse Dr.)","Lakewood, CA 90712","United States"]},"categories":[{"id":"4bf58dd8d48988d1d2941735","name":"Sushi Restaurant","pluralName":"Sushi Restaurants","shortName":"Sushi","icon":{"prefix":"https:\/\/ss3.4sqi.net\/img\/categories_v2\/food\/sushi_","suffix":".png"},"primary":true}],"verified":false,"stats":{"checkinsCount":3175,"usersCount":1265,"tipCount":46},"url":"http:\/\/iluvsushi.com","hasMenu":true,"menu":{"type":"Menu","label":"Menu","anchor":"View Menu","url":"https:\/\/foursquare.com\/v\/i-luv-sushi\/4ae4d70bf964a520a99e21e3\/menu","mobileUrl":"https:\/\/foursquare.com\/v\/4ae4d70bf964a520a99e21e3\/device_menu"},"allowMenuUrlEdit":true,"beenHere":{"lastCheckinExpiredAt":0},"specials":{"count":0,"items":[]},"referralId":"v-1483291063","venueChains":[],"hasPerk":false},{"id":"552adc5b498e7628b33c2d09","name":"steelhead coffee","contact":{},"location":{"address":"1208 E Wardlow Rd","crossStreet":"Orange Ave","lat":33.818823,"lng":-118.175984,"labeledLatLngs":[{"label":"display","lat":33.818823,"lng":-118.175984}],"postalCode":"90807","cc":"US","city":"Signal Hill","state":"CA","country":"United States","formattedAddress":["1208 E Wardlow Rd (Orange Ave)","Signal Hill, CA 90807","United States"]},"categories":[{"id":"4bf58dd8d48988d1e0931735","name":"Coffee Shop","pluralName":"Coffee Shops","shortName":"Coffee Shop","icon":{"prefix":"https:\/\/ss3.4sqi.net\/img\/categories_v2\/food\/coffeeshop_","suffix":".png"},"primary":true}],"verified":false,"stats":{"checkinsCount":480,"usersCount":159,"tipCount":7},"allowMenuUrlEdit":true,"beenHere":{"lastCheckinExpiredAt":0},"specials":{"count":0,"items":[]},"referralId":"v-1483291063","venueChains":[],"hasPerk":false},{"id":"4c112660ce640f4792173b52","name":"7-Eleven","contact":{"phone":"5624238874","formattedPhone":"(562) 423-8874","twitter":"7eleven","facebook":"203720086358770","facebookUsername":"7ElevenLongBeach18881","facebookName":"7-Eleven"},"location":{"address":"5000 Long Beach Blvd","lat":33.84715291947512,"lng":-118.19343066582564,"labeledLatLngs":[{"label":"display","lat":33.84715291947512,"lng":-118.19343066582564}],"postalCode":"90805","cc":"US","city":"Long Beach","state":"CA","country":"United States","formattedAddress":["5000 Long Beach Blvd","Long Beach, CA 90805","United States"]},"categories":[{"id":"4d954b0ea243a5684a65b473","name":"Convenience Store","pluralName":"Convenience Stores","shortName":"Convenience Store","icon":{"prefix":"https:\/\/ss3.4sqi.net\/img\/categories_v2\/shops\/conveniencestore_","suffix":".png"},"primary":true}],"verified":true,"stats":{"checkinsCount":814,"usersCount":191,"tipCount":3},"url":"http:\/\/www.7-eleven.com","allowMenuUrlEdit":true,"beenHere":{"lastCheckinExpiredAt":0},"specials":{"count":0,"items":[]},"storeId":"18881","referralId":"v-1483291063","venueChains":[{"id":"556f676fbd6a75a99038d8e9"}],"hasPerk":false},{"id":"4d2e98cfb97cb1f780eb9048","name":"Papa John's Pizza","contact":{"phone":"5624246900","formattedPhone":"(562) 424-6900","twitter":"papajohns","facebook":"371362759726019","facebookUsername":"papajohns","facebookName":"Papa John's Pizza"},"location":{"address":"141 E Willow St","lat":33.80520240984309,"lng":-118.19102240261283,"labeledLatLngs":[{"label":"display","lat":33.80520240984309,"lng":-118.19102240261283}],"postalCode":"90806","cc":"US","city":"Long Beach","state":"CA","country":"United States","formattedAddress":["141 E Willow St","Long Beach, CA 90806","United States"]},"categories":[{"id":"4bf58dd8d48988d1ca941735","name":"Pizza Place","pluralName":"Pizza Places","shortName":"Pizza","icon":{"prefix":"https:\/\/ss3.4sqi.net\/img\/categories_v2\/food\/pizza_","suffix":".png"},"primary":true}],"verified":true,"stats":{"checkinsCount":167,"usersCount":53,"tipCount":2},"url":"http:\/\/www.papajohns.com","hasMenu":true,"delivery":{"id":"37532","url":"http:\/\/www.seamless.com\/food-delivery\/restaurant.37532.r?a=1026&utm_source=Foursquare&utm_medium=affiliate&utm_campaign=SeamlessOrderDeliveryLink","provider":{"name":"seamless"}},"menu":{"type":"Menu","label":"Menu","anchor":"View Menu","url":"https:\/\/foursquare.com\/v\/papa-johns-pizza\/4d2e98cfb97cb1f780eb9048\/menu","mobileUrl":"https:\/\/foursquare.com\/v\/4d2e98cfb97cb1f780eb9048\/device_menu"},"allowMenuUrlEdit":true,"beenHere":{"lastCheckinExpiredAt":0},"specials":{"count":0,"items":[]},"storeId":"2477","referralId":"v-1483291063","venueChains":[{"id":"556e23e9a7c82e6b7252ce9f"}],"hasPerk":false},{"id":"555906f0498e63ff8da0af72","name":"Long Beach Creamery","contact":{"phone":"5625133493","formattedPhone":"(562) 513-3493","twitter":"lbcreamery","facebook":"1408190342727113","facebookUsername":"longbeachcreamery","facebookName":"Long Beach Creamery"},"location":{"address":"4141 Long Beach Blvd","crossStreet":"Clairborne","lat":33.83346822527097,"lng":-118.18943435193644,"labeledLatLngs":[{"label":"display","lat":33.83346822527097,"lng":-118.18943435193644}],"postalCode":"90807","cc":"US","city":"Long Beach","state":"CA","country":"United States","formattedAddress":["4141 Long Beach Blvd (Clairborne)","Long Beach, CA 90807","United States"]},"categories":[{"id":"4bf58dd8d48988d1c9941735","name":"Ice Cream Shop","pluralName":"Ice Cream Shops","shortName":"Ice Cream","icon":{"prefix":"https:\/\/ss3.4sqi.net\/img\/categories_v2\/food\/icecream_","suffix":".png"},"primary":true}],"verified":false,"stats":{"checkinsCount":480,"usersCount":177,"tipCount":10},"url":"http:\/\/longbeachcreamery.com","allowMenuUrlEdit":true,"beenHere":{"lastCheckinExpiredAt":0},"specials":{"count":0,"items":[]},"referralId":"v-1483291063","venueChains":[],"hasPerk":false},{"id":"4e551e3322710ebb5a92a025","name":"Blackbird Cafe","contact":{"phone":"5624902473","formattedPhone":"(562) 490-2473"},"location":{"address":"3405 Orange Ave","crossStreet":"Wardlow Road","lat":33.819032,"lng":-118.176323,"labeledLatLngs":[{"label":"display","lat":33.819032,"lng":-118.176323}],"postalCode":"90807","cc":"US","city":"Long Beach","state":"CA","country":"United States","formattedAddress":["3405 Orange Ave (Wardlow Road)","Long Beach, CA 90807","United States"]},"categories":[{"id":"4bf58dd8d48988d14e941735","name":"American Restaurant","pluralName":"American Restaurants","shortName":"American","icon":{"prefix":"https:\/\/ss3.4sqi.net\/img\/categories_v2\/food\/default_","suffix":".png"},"primary":true}],"verified":false,"stats":{"checkinsCount":2055,"usersCount":972,"tipCount":46},"allowMenuUrlEdit":true,"beenHere":{"lastCheckinExpiredAt":0},"specials":{"count":0,"items":[]},"referralId":"v-1483291063","venueChains":[],"hasPerk":false},{"id":"53934f9f498e1437ff564e2a","name":"Starbucks","contact":{"phone":"3106084835","formattedPhone":"(310) 608-4835","twitter":"starbucks","facebook":"22092443056","facebookUsername":"Starbucks","facebookName":"Starbucks"},"location":{"address":"1759 South Alameda","lat":33.87685282,"lng":-118.217886,"labeledLatLngs":[{"label":"display","lat":33.87685282,"lng":-118.217886}],"postalCode":"90220","cc":"US","city":"Compton","state":"CA","country":"United States","formattedAddress":["1759 South Alameda","Compton, CA 90220","United States"]},"categories":[{"id":"4bf58dd8d48988d1e0931735","name":"Coffee Shop","pluralName":"Coffee Shops","shortName":"Coffee Shop","icon":{"prefix":"https:\/\/ss3.4sqi.net\/img\/categories_v2\/food\/coffeeshop_","suffix":".png"},"primary":true}],"verified":true,"stats":{"checkinsCount":352,"usersCount":123,"tipCount":1},"url":"http:\/\/www.starbucks.com","allowMenuUrlEdit":true,"beenHere":{"lastCheckinExpiredAt":0},"specials":{"count":0,"items":[]},"storeId":"21740","referralId":"v-1483291063","venueChains":[{"id":"556f676fbd6a75a99038d8ec"}],"hasPerk":false},{"id":"561970b7498eb6bec1de89cc","name":"Fish-O-Licious","contact":{},"location":{"address":"2594 Cherry Ave","lat":33.80382365820524,"lng":-118.16721725131292,"labeledLatLngs":[{"label":"display","lat":33.80382365820524,"lng":-118.16721725131292}],"postalCode":"90755","cc":"US","city":"Signal Hill","state":"CA","country":"United States","formattedAddress":["2594 Cherry Ave","Signal Hill, CA 90755","United States"]},"categories":[{"id":"4bf58dd8d48988d1ce941735","name":"Seafood Restaurant","pluralName":"Seafood Restaurants","shortName":"Seafood","icon":{"prefix":"https:\/\/ss3.4sqi.net\/img\/categories_v2\/food\/seafood_","suffix":".png"},"primary":true}],"verified":false,"stats":{"checkinsCount":198,"usersCount":71,"tipCount":2},"allowMenuUrlEdit":true,"beenHere":{"lastCheckinExpiredAt":0},"specials":{"count":0,"items":[]},"referralId":"v-1483291063","venueChains":[],"hasPerk":false},{"id":"5490ace6498e12011ad89f53","name":"Black Bear Diner","contact":{"phone":"5625137001","formattedPhone":"(562) 513-7001","twitter":"blackbeardiner","facebook":"112869848740931","facebookUsername":"BlackBearDiner","facebookName":"Black Bear Diner"},"location":{"address":"1898 E Willow St","crossStreet":"at Cherry Ave","lat":33.80404830347894,"lng":-118.16899215092621,"labeledLatLngs":[{"label":"display","lat":33.80404830347894,"lng":-118.16899215092621}],"postalCode":"90755","cc":"US","city":"Signal Hill","state":"CA","country":"United States","formattedAddress":["1898 E Willow St (at Cherry Ave)","Signal Hill, CA 90755","United States"]},"categories":[{"id":"4bf58dd8d48988d14e941735","name":"American Restaurant","pluralName":"American Restaurants","shortName":"American","icon":{"prefix":"https:\/\/ss3.4sqi.net\/img\/categories_v2\/food\/default_","suffix":".png"},"primary":true}],"verified":true,"stats":{"checkinsCount":2246,"usersCount":1025,"tipCount":42},"url":"http:\/\/t.co\/IB9EDAf8xZ","hasMenu":true,"menu":{"type":"Menu","label":"Menu","anchor":"View Menu","url":"https:\/\/foursquare.com\/v\/black-bear-diner\/5490ace6498e12011ad89f53\/menu","mobileUrl":"https:\/\/foursquare.com\/v\/5490ace6498e12011ad89f53\/device_menu"},"allowMenuUrlEdit":true,"beenHere":{"lastCheckinExpiredAt":0},"specials":{"count":0,"items":[]},"storeId":"22","referralId":"v-1483291063","venueChains":[{"id":"556a2453a7c8957d73d301a9"}],"hasPerk":false},{"id":"4bafb726f964a520571a3ce3","name":"Polly's Pies - Long Beach, Atlantic Blvd.","contact":{"phone":"5625955651","formattedPhone":"(562) 595-5651","twitter":"pollyspiescafe","facebook":"143093873514","facebookUsername":"PollysPiesRestaurant","facebookName":"Polly's Pies Restaurant"},"location":{"address":"3490 Atlantic Ave.","crossStreet":"E. Wardlow Rd.","lat":33.8199852,"lng":-118.1846913,"labeledLatLngs":[{"label":"display","lat":33.8199852,"lng":-118.1846913}],"postalCode":"90807","cc":"US","city":"Long Beach","state":"CA","country":"United States","formattedAddress":["3490 Atlantic Ave. (E. Wardlow Rd.)","Long Beach, CA 90807","United States"]},"categories":[{"id":"4bf58dd8d48988d14e941735","name":"American Restaurant","pluralName":"American Restaurants","shortName":"American","icon":{"prefix":"https:\/\/ss3.4sqi.net\/img\/categories_v2\/food\/default_","suffix":".png"},"primary":true}],"verified":true,"stats":{"checkinsCount":1646,"usersCount":589,"tipCount":22},"url":"http:\/\/www.pollyspies.com","hasMenu":true,"menu":{"type":"Menu","label":"Menu","anchor":"View Menu","url":"https:\/\/foursquare.com\/v\/pollys-pies--long-beach-atlantic-blvd\/4bafb726f964a520571a3ce3\/menu","mobileUrl":"https:\/\/foursquare.com\/v\/4bafb726f964a520571a3ce3\/device_menu"},"allowMenuUrlEdit":true,"beenHere":{"lastCheckinExpiredAt":0},"specials":{"count":0,"items":[]},"storeId":"203","referralId":"v-1483291063","venueChains":[{"id":"5568f3f8a7c8a9cf8ec47ef6"}],"hasPerk":false},{"id":"58031c75d67c4ebf6901e651","name":"Rasselbock","contact":{"phone":"5629124949","formattedPhone":"(562) 912-4949"},"location":{"address":"4020 Atlantic Ave","lat":33.83132207749095,"lng":-118.18482533097267,"labeledLatLngs":[{"label":"display","lat":33.83132207749095,"lng":-118.18482533097267}],"postalCode":"90807","cc":"US","city":"Long Beach","state":"CA","country":"United States","formattedAddress":["4020 Atlantic Ave","Long Beach, CA 90807","United States"]},"categories":[{"id":"4bf58dd8d48988d10d941735","name":"German Restaurant","pluralName":"German Restaurants","shortName":"German","icon":{"prefix":"https:\/\/ss3.4sqi.net\/img\/categories_v2\/food\/german_","suffix":".png"},"primary":true}],"verified":false,"stats":{"checkinsCount":50,"usersCount":35,"tipCount":0},"allowMenuUrlEdit":true,"beenHere":{"lastCheckinExpiredAt":0},"specials":{"count":0,"items":[]},"referralId":"v-1483291063","venueChains":[],"hasPerk":false},{"id":"4b730521f964a5203e962de3","name":"Carl's Jr.","contact":{"phone":"5629819192","formattedPhone":"(562) 981-9192","twitter":"carlsjr_clk"},"location":{"address":"271 E Willow St","crossStreet":"at Long Beach Blvd.","lat":33.80468166612612,"lng":-118.18966856176655,"labeledLatLngs":[{"label":"display","lat":33.80468166612612,"lng":-118.18966856176655}],"postalCode":"90806","cc":"US","city":"Long Beach","state":"CA","country":"United States","formattedAddress":["271 E Willow St (at Long Beach Blvd.)","Long Beach, CA 90806","United States"]},"categories":[{"id":"4bf58dd8d48988d16e941735","name":"Fast Food Restaurant","pluralName":"Fast Food Restaurants","shortName":"Fast Food","icon":{"prefix":"https:\/\/ss3.4sqi.net\/img\/categories_v2\/food\/fastfood_","suffix":".png"},"primary":true}],"verified":true,"stats":{"checkinsCount":773,"usersCount":327,"tipCount":4},"url":"http:\/\/carlsjr.com","hasMenu":true,"menu":{"type":"Menu","label":"Menu","anchor":"View Menu","url":"https:\/\/foursquare.com\/v\/carls-jr\/4b730521f964a5203e962de3\/menu","mobileUrl":"https:\/\/foursquare.com\/v\/4b730521f964a5203e962de3\/device_menu"},"allowMenuUrlEdit":true,"beenHere":{"lastCheckinExpiredAt":0},"specials":{"count":0,"items":[]},"referralId":"v-1483291063","venueChains":[{"id":"556d1612aceaff43eb0990d0"}],"hasPerk":false},{"id":"4b369f8cf964a520533925e3","name":"Heritage Family Pantry","contact":{"phone":"5624211442","formattedPhone":"(562) 421-1442"},"location":{"address":"2601 Carson St","crossStreet":"at Paramount Blvd","lat":33.83261656939338,"lng":-118.16085040569305,"labeledLatLngs":[{"label":"display","lat":33.83261656939338,"lng":-118.16085040569305}],"postalCode":"90712","cc":"US","city":"Lakewood","state":"CA","country":"United States","formattedAddress":["2601 Carson St (at Paramount Blvd)","Lakewood, CA 90712","United States"]},"categories":[{"id":"4bf58dd8d48988d147941735","name":"Diner","pluralName":"Diners","shortName":"Diner","icon":{"prefix":"https:\/\/ss3.4sqi.net\/img\/categories_v2\/food\/diner_","suffix":".png"},"primary":true}],"verified":false,"stats":{"checkinsCount":2188,"usersCount":910,"tipCount":40},"allowMenuUrlEdit":true,"beenHere":{"lastCheckinExpiredAt":0},"specials":{"count":0,"items":[]},"referralId":"v-1483291063","venueChains":[],"hasPerk":false},{"id":"4bb0a3b1f964a52059513ce3","name":"McDonald's","contact":{"phone":"5624248500","formattedPhone":"(562) 424-8500"},"location":{"address":"2599 Cherry Ave","crossStreet":"at Willow St","lat":33.80395191367731,"lng":-118.16821705351065,"labeledLatLngs":[{"label":"display","lat":33.80395191367731,"lng":-118.16821705351065}],"postalCode":"90755","cc":"US","city":"Signal Hill","state":"CA","country":"United States","formattedAddress":["2599 Cherry Ave (at Willow St)","Signal Hill, CA 90755","United States"]},"categories":[{"id":"4bf58dd8d48988d16e941735","name":"Fast Food Restaurant","pluralName":"Fast Food Restaurants","shortName":"Fast Food","icon":{"prefix":"https:\/\/ss3.4sqi.net\/img\/categories_v2\/food\/fastfood_","suffix":".png"},"primary":true}],"verified":true,"stats":{"checkinsCount":1038,"usersCount":456,"tipCount":11},"url":"http:\/\/mcdonalds.com","hasMenu":true,"menu":{"type":"Menu","label":"Menu","anchor":"View Menu","url":"https:\/\/foursquare.com\/v\/mcdonalds\/4bb0a3b1f964a52059513ce3\/menu","mobileUrl":"https:\/\/foursquare.com\/v\/4bb0a3b1f964a52059513ce3\/device_menu"},"allowMenuUrlEdit":true,"beenHere":{"lastCheckinExpiredAt":0},"specials":{"count":0,"items":[]},"referralId":"v-1483291063","venueChains":[{"id":"556f7a12bd6a75a9903bddb2"}],"hasPerk":false}]}}