{"meta":{"code":200,"requestId":"586939b39fb6b73bd0efaeaa"},"response":{"venues":[{"id":"3fd66200f964a52092ee1ee3","name":"In-N-Out Burger","contact":{"phone":"8007861000","formattedPhone":"(800) 786-1000","twitter":"innoutburger"},"location":{"address":"9149 S Sepulveda Blvd","crossStreet":"at W 92nd St","lat":33.953693952548974,"lng":-118.39676812291145,"postalCode":"90045","cc":"US","city":"Los Angeles","state":"CA","country":"United States","formattedAddress":["9149 S Sepulveda Blvd (at W 92nd St)","Los Angeles, CA 90045","United States"]},"categories":[{"id":"4bf58dd8d48988d16c941735","name":"Burger Joint","pluralName":"Burger Joints","shortName":"Burgers","icon":{"prefix":"https:\/\/ss3.4sqi.net\/img\/categories_v2\/food\/burger_","suffix":".png"},"primary":true}],"verified":true,"stats":{"checkinsCount":41635,"usersCount":27145,"tipCount":314},"url":"http:\/\/www.in-n-out.com","allowMenuUrlEdit":true,"beenHere":{"lastCheckinExpiredAt":0},"specials":{"count":0,"items":[]},"storeId":"117","referralId":"v-1483291059","venueChains":[{"id":"556cdd65aceaff43eb03dddb"}],"hasPerk":false},{"id":"49d02698f964a520035b1fe3","name":"Whole Foods Market","contact":{"phone":"3103331900","formattedPhone":"(310) 333-1900","twitter":"wfmlosangeles","facebook":"74268937765","facebookUsername":"WFMLosAngeles","facebookName":"Whole Foods Market Los Angeles"},"location":{"address":"760 South Sepulveda Blvd.","crossStreet":"at Park Pl","lat":33.906539376724574,"lng":-118.39275419712067,"labeledLatLngs":[{"label":"display","lat":33.906539376724574,"lng":-118.39275419712067}],"postalCode":"90245","cc":"US","city":"El Segundo","state":"CA","country":"United States","formattedAddress":["760 South Sepulveda Blvd. (at Park Pl)","El Segundo, CA 90245","United States"]},"categories":[{"id":"4bf58dd8d48988d118951735","name":"Grocery Store","pluralName":"Grocery Stores","shortName":"Grocery Store","icon":{"prefix":"https:\/\/ss3.4sqi.net\/img\/categories_v2\/shops\/food_grocery_","suffix":".png"},"primary":true}],"verified":true,"stats":{"checkinsCount":21548,"usersCount":5720,"tipCount":106},"url":"http:\/\/www.wholefoodsmarket.com\/stores\/elsegundo","allowMenuUrlEdit":true,"beenHere":{"lastCheckinExpiredAt":0},"specials":{"count":0,"items":[]},"storeId":"PCH","referralId":"v-1483291059","venueChains":[{"id":"556cdf5baceaff43eb042df6"}],"hasPerk":false},{"id":"55d631df498ed45ed4a11721","name":"In-N-Out Burger","contact":{"phone":"8007861000","formattedPhone":"(800) 786-1000","twitter":"innoutburger"},"location":{"address":"600 N. Sepulveda Blvd","lat":33.92396198285907,"lng":-118.39540936557377,"labeledLatLngs":[{"label":"display","lat":33.92396198285907,"lng":-118.39540936557377}],"postalCode":"90245","cc":"US","city":"El Segundo","state":"CA","country":"United States","formattedAddress":["600 N. Sepulveda Blvd","El Segundo, CA 90245","United States"]},"categories":[{"id":"4bf58dd8d48988d16c941735","name":"Burger Joint","pluralName":"Burger Joints","shortName":"Burgers","icon":{"prefix":"https:\/\/ss3.4sqi.net\/img\/categories_v2\/food\/burger_","suffix":".png"},"primary":true}],"verified":true,"stats":{"checkinsCount":1259,"usersCount":874,"tipCount":6},"url":"http:\/\/www.in-n-out.com","allowMenuUrlEdit":true,"beenHere":{"lastCheckinExpiredAt":0},"specials":{"count":0,"items":[]},"storeId":"527","referralId":"v-1483291059","venueChains":[{"id":"556cdd65aceaff43eb03dddb"}],"hasPerk":false},{"id":"4bafd591f964a52088243ce3","name":"Randy's Donuts","contact":{"phone":"3106454607","formattedPhone":"(310) 645-4607","twitter":"randysdonuts"},"location":{"address":"805 W Manchester Blvd","crossStreet":"at La Cienega Blvd","lat":33.961763149857376,"lng":-118.3703202009201,"labeledLatLngs":[{"label":"display","lat":33.961763149857376,"lng":-118.3703202009201}],"postalCode":"90301","cc":"US","city":"Inglewood","state":"CA","country":"United States","formattedAddress":["805 W Manchester Blvd (at La Cienega Blvd)","Inglewood, CA 90301","United States"]},"categories":[{"id":"4bf58dd8d48988d148941735","name":"Donut Shop","pluralName":"Donut Shops","shortName":"Donuts","icon":{"prefix":"https:\/\/ss3.4sqi.net\/img\/categories_v2\/food\/donuts_","suffix":".png"},"primary":true}],"verified":false,"stats":{"checkinsCount":12423,"usersCount":7754,"tipCount":190},"url":"http:\/\/randys-donuts.com","allowMenuUrlEdit":true,"beenHere":{"lastCheckinExpiredAt":0},"specials":{"count":0,"items":[]},"referralId":"v-1483291059","venueChains":[],"hasPerk":false},{"id":"4b744b13f964a52023d32de3","name":"Denny's","contact":{"phone":"3104101712","formattedPhone":"(310) 410-1712","twitter":"dennysdiner","facebook":"418953601458622","facebookUsername":"DennysLosAngelesWCentury","facebookName":"Denny's"},"location":{"address":"5535 W Century Blvd","crossStreet":"at Aviation","lat":33.94582869658686,"lng":-118.37756618857384,"labeledLatLngs":[{"label":"display","lat":33.94582869658686,"lng":-118.37756618857384}],"postalCode":"90045","cc":"US","city":"Los Angeles","state":"CA","country":"United States","formattedAddress":["5535 W Century Blvd (at Aviation)","Los Angeles, CA 90045","United States"]},"categories":[{"id":"4bf58dd8d48988d147941735","name":"Diner","pluralName":"Diners","shortName":"Diner","icon":{"prefix":"https:\/\/ss3.4sqi.net\/img\/categories_v2\/food\/diner_","suffix":".png"},"primary":true}],"verified":true,"stats":{"checkinsCount":4759,"usersCount":3713,"tipCount":36},"url":"http:\/\/locations.dennys.com\/CA\/LOS-ANGELES\/201918","hasMenu":true,"menu":{"type":"Menu","label":"Menu","anchor":"View Menu","url":"https:\/\/foursquare.com\/v\/dennys\/4b744b13f964a52023d32de3\/menu","mobileUrl":"https:\/\/foursquare.com\/v\/4b744b13f964a52023d32de3\/device_menu","externalUrl":"http:\/\/www.listingextensions.com\/f43115baa3\/570437093\/menu"},"allowMenuUrlEdit":true,"beenHere":{"lastCheckinExpiredAt":0},"specials":{"count":0,"items":[]},"referralId":"v-1483291059","venueChains":[{"id":"556e0690a7c82e6b724e70a8"}],"hasPerk":false},{"id":"4b355f52f964a520922c25e3","name":"Starbucks","contact":{"phone":"3103420152","formattedPhone":"(310) 342-0152","twitter":"starbucks","facebook":"22092443056","facebookUsername":"Starbucks","facebookName":"Starbucks"},"location":{"address":"8817 S Sepulveda Blvd","lat":33.95672817161495,"lng":-118.3969213238842,"labeledLatLngs":[{"label":"display","lat":33.95672817161495,"lng":-118.3969213238842}],"postalCode":"90045","cc":"US","city":"Los Angeles","state":"CA","country":"United States","formattedAddress":["8817 S Sepulveda Blvd","Los Angeles, CA 90045","United States"]},"categories":[{"id":"4bf58dd8d48988d1e0931735","name":"Coffee Shop","pluralName":"Coffee Shops","shortName":"Coffee Shop","icon":{"prefix":"https:\/\/ss3.4sqi.net\/img\/categories_v2\/food\/coffeeshop_","suffix":".png"},"primary":true}],"verified":true,"stats":{"checkinsCount":6715,"usersCount":2986,"tipCount":41},"url":"http:\/\/www.starbucks.com\/","hasMenu":true,"menu":{"type":"Menu","label":"Menu","anchor":"View Menu","url":"https:\/\/foursquare.com\/v\/starbucks\/4b355f52f964a520922c25e3\/menu","mobileUrl":"https:\/\/foursquare.com\/v\/4b355f52f964a520922c25e3\/device_menu"},"allowMenuUrlEdit":true,"beenHere":{"lastCheckinExpiredAt":0},"specials":{"count":0,"items":[]},"storeId":"5244","referralId":"v-1483291059","venueChains":[{"id":"556f676fbd6a75a99038d8ec"}],"hasPerk":false},{"id":"4af0e085f964a520d9df21e3","name":"Starbucks","contact":{"phone":"3106471697","formattedPhone":"(310) 647-1697","twitter":"starbucks","facebook":"22092443056","facebookUsername":"Starbucks","facebookName":"Starbucks"},"location":{"address":"530 N Sepulveda Blvd","lat":33.922874,"lng":-118.395938,"labeledLatLngs":[{"label":"display","lat":33.922874,"lng":-118.395938}],"postalCode":"90245","cc":"US","city":"El Segundo","state":"CA","country":"United States","formattedAddress":["530 N Sepulveda Blvd","El Segundo, CA 90245","United States"]},"categories":[{"id":"4bf58dd8d48988d1e0931735","name":"Coffee Shop","pluralName":"Coffee Shops","shortName":"Coffee Shop","icon":{"prefix":"https:\/\/ss3.4sqi.net\/img\/categories_v2\/food\/coffeeshop_","suffix":".png"},"primary":true}],"verified":true,"stats":{"checkinsCount":8319,"usersCount":3016,"tipCount":38},"url":"http:\/\/www.starbucks.com\/","hasMenu":true,"menu":{"type":"Menu","label":"Menu","anchor":"View Menu","url":"https:\/\/foursquare.com\/v\/starbucks\/4af0e085f964a520d9df21e3\/menu","mobileUrl":"https:\/\/foursquare.com\/v\/4af0e085f964a520d9df21e3\/device_menu"},"allowMenuUrlEdit":true,"beenHere":{"lastCheckinExpiredAt":0},"specials":{"count":0,"items":[]},"storeId":"5502","referralId":"v-1483291059","venueChains":[{"id":"556f676fbd6a75a99038d8ec"}],"hasPerk":false},{"id":"4aadb3eaf964a5204e6120e3","name":"In-N-Out Burger","contact":{"phone":"8007861000","formattedPhone":"(800) 786-1000","twitter":"innoutburger"},"location":{"address":"3801 Inglewood Ave","lat":33.89222067011763,"lng":-118.3618004369468,"labeledLatLngs":[{"label":"display","lat":33.89222067011763,"lng":-118.3618004369468}],"postalCode":"90278","cc":"US","city":"Redondo Beach","state":"CA","country":"United States","formattedAddress":["3801 Inglewood Ave","Redondo Beach, CA 90278","United States"]},"categories":[{"id":"4bf58dd8d48988d16c941735","name":"Burger Joint","pluralName":"Burger Joints","shortName":"Burgers","icon":{"prefix":"https:\/\/ss3.4sqi.net\/img\/categories_v2\/food\/burger_","suffix":".png"},"primary":true}],"verified":true,"stats":{"checkinsCount":10417,"usersCount":5883,"tipCount":74},"url":"http:\/\/www.in-n-out.com","hasMenu":true,"menu":{"type":"Menu","label":"Menu","anchor":"View Menu","url":"https:\/\/foursquare.com\/v\/innout-burger\/4aadb3eaf964a5204e6120e3\/menu","mobileUrl":"https:\/\/foursquare.com\/v\/4aadb3eaf964a5204e6120e3\/device_menu"},"allowMenuUrlEdit":true,"beenHere":{"lastCheckinExpiredAt":0},"specials":{"count":0,"items":[]},"storeId":"92","referralId":"v-1483291059","venueChains":[{"id":"556cdd65aceaff43eb03dddb"}],"hasPerk":false},{"id":"56a0407d498ecd292ada6c96","name":"SOL Mexican Cocina","contact":{"phone":"4242890066","formattedPhone":"(424) 289-0066","twitter":"solcocinala"},"location":{"address":"12775 Millennium #160","lat":33.976049,"lng":-118.416804,"labeledLatLngs":[{"label":"display","lat":33.976049,"lng":-118.416804}],"postalCode":"90094","cc":"US","city":"Los Angeles","state":"CA","country":"United States","formattedAddress":["12775 Millennium #160","Los Angeles, CA 90094","United States"]},"categories":[{"id":"4bf58dd8d48988d1c1941735","name":"Mexican Restaurant","pluralName":"Mexican Restaurants","shortName":"Mexican","icon":{"prefix":"https:\/\/ss3.4sqi.net\/img\/categories_v2\/food\/mexican_","suffix":".png"},"primary":true}],"verified":false,"stats":{"checkinsCount":978,"usersCount":501,"tipCount":11},"url":"http:\/\/solcicina.com\/playa-vista\/","allowMenuUrlEdit":true,"beenHere":{"lastCheckinExpiredAt":0},"specials":{"count":0,"items":[]},"referralId":"v-1483291059","venueChains":[],"hasPerk":false},{"id":"4b4d022af964a52095c726e3","name":"Starbucks","contact":{"phone":"3107259110","formattedPhone":"(310) 725-9110","twitter":"starbucks","facebook":"22092443056","facebookUsername":"Starbucks","facebookName":"Starbucks"},"location":{"address":"2231 Rosecrans Ave","lat":33.902274,"lng":-118.383552,"labeledLatLngs":[{"label":"display","lat":33.902274,"lng":-118.383552}],"postalCode":"90245","cc":"US","city":"El Segundo","state":"CA","country":"United States","formattedAddress":["2231 Rosecrans Ave","El Segundo, CA 90245","United States"]},"categories":[{"id":"4bf58dd8d48988d1e0931735","name":"Coffee Shop","pluralName":"Coffee Shops","shortName":"Coffee Shop","icon":{"prefix":"https:\/\/ss3.4sqi.net\/img\/categories_v2\/food\/coffeeshop_","suffix":".png"},"primary":true}],"verified":true,"stats":{"checkinsCount":8453,"usersCount":1947,"tipCount":21},"url":"http:\/\/www.starbucks.com\/","hasMenu":true,"menu":{"type":"Menu","label":"Menu","anchor":"View Menu","url":"https:\/\/foursquare.com\/v\/starbucks\/4b4d022af964a52095c726e3\/menu","mobileUrl":"https:\/\/foursquare.com\/v\/4b4d022af964a52095c726e3\/device_menu"},"allowMenuUrlEdit":true,"beenHere":{"lastCheckinExpiredAt":0},"specials":{"count":0,"items":[]},"storeId":"5349","referralId":"v-1483291059","venueChains":[{"id":"556f676fbd6a75a99038d8ec"}],"hasPerk":false},{"id":"49cd269af964a520c1591fe3","name":"The Coffee Bean & Tea Leaf","contact":{"phone":"3108625725","formattedPhone":"(310) 862-5725","twitter":"thecoffeebean"},"location":{"address":"13020 Pacific Promenade Ste 9","crossStreet":"South Seabluff Drive","lat":33.97294694,"lng":-118.422733,"labeledLatLngs":[{"label":"display","lat":33.97294694,"lng":-118.422733}],"postalCode":"90094","cc":"US","city":"Playa Vista","state":"CA","country":"United States","formattedAddress":["13020 Pacific Promenade Ste 9 (South Seabluff Drive)","Playa Vista, CA 90094","United States"]},"categories":[{"id":"4bf58dd8d48988d1e0931735","name":"Coffee Shop","pluralName":"Coffee Shops","shortName":"Coffee Shop","icon":{"prefix":"https:\/\/ss3.4sqi.net\/img\/categories_v2\/food\/coffeeshop_","suffix":".png"},"primary":true}],"verified":true,"stats":{"checkinsCount":5831,"usersCount":1186,"tipCount":19},"url":"http:\/\/www.coffeebean.com","allowMenuUrlEdit":true,"beenHere":{"lastCheckinExpiredAt":0},"specials":{"count":0,"items":[]},"storeId":"176","referralId":"v-1483291059","venueChains":[{"id":"556a4e08a7c8957d73d6ce60"}],"hasPerk":false},{"id":"4abd60d0f964a520fa8920e3","name":"The Habit Burger Grill","contact":{"phone":"3105249016","formattedPhone":"(310) 524-9016","twitter":"habitburger"},"location":{"address":"311 N. Sepulveda Blvd.","crossStreet":"at E Grand Ave","lat":33.91999171,"lng":-118.3964234,"labeledLatLngs":[{"label":"display","lat":33.91999171,"lng":-118.3964234}],"postalCode":"90245","cc":"US","city":"El Segundo","state":"CA","country":"United States","formattedAddress":["311 N. Sepulveda Blvd. (at E Grand Ave)","El Segundo, CA 90245","United States"]},"categories":[{"id":"4bf58dd8d48988d16c941735","name":"Burger Joint","pluralName":"Burger Joints","shortName":"Burgers","icon":{"prefix":"https:\/\/ss3.4sqi.net\/img\/categories_v2\/food\/burger_","suffix":".png"},"primary":true}],"verified":true,"stats":{"checkinsCount":6921,"usersCount":3135,"tipCount":63},"url":"http:\/\/t.co\/PuJauMBn4S","menu":{"type":"Menu","label":"Menu","anchor":"View Menu","url":"http:\/\/habitburger.com\/charburger\/","mobileUrl":"http:\/\/habitburger.com\/charburger\/","externalUrl":"http:\/\/habitburger.com\/charburger\/"},"allowMenuUrlEdit":true,"beenHere":{"lastCheckinExpiredAt":0},"specials":{"count":0,"items":[]},"storeId":"23","referralId":"v-1483291059","venueChains":[{"id":"556a341fa7c8957d73d4cad4"}],"hasPerk":false},{"id":"4b576075f964a5208e3428e3","name":"Burger King","contact":{"phone":"3108686056","formattedPhone":"(310) 868-6056","twitter":"burgerking"},"location":{"address":"9601 Airport Boulevard","crossStreet":"at 96th St.","lat":33.94904188956351,"lng":-118.38631690697854,"labeledLatLngs":[{"label":"display","lat":33.94904188956351,"lng":-118.38631690697854}],"postalCode":"90045","cc":"US","city":"Los Angeles","state":"CA","country":"United States","formattedAddress":["9601 Airport Boulevard (at 96th St.)","Los Angeles, CA 90045","United States"]},"categories":[{"id":"4bf58dd8d48988d16e941735","name":"Fast Food Restaurant","pluralName":"Fast Food Restaurants","shortName":"Fast Food","icon":{"prefix":"https:\/\/ss3.4sqi.net\/img\/categories_v2\/food\/fastfood_","suffix":".png"},"primary":true}],"verified":true,"stats":{"checkinsCount":1733,"usersCount":1222,"tipCount":22},"url":"http:\/\/www.bk.com","allowMenuUrlEdit":true,"beenHere":{"lastCheckinExpiredAt":0},"specials":{"count":0,"items":[]},"storeId":"6941","referralId":"v-1483291059","venueChains":[{"id":"556d12d9aceaff43eb090cdb"}],"hasPerk":false},{"id":"4a87474ef964a520960320e3","name":"Starbucks","contact":{"phone":"3106450416","formattedPhone":"(310) 645-0416","twitter":"starbucks","facebook":"22092443056","facebookUsername":"Starbucks","facebookName":"Starbucks"},"location":{"address":"8844 S Sepulveda Blvd","lat":33.95597037593637,"lng":-118.39613396616438,"labeledLatLngs":[{"label":"display","lat":33.95597037593637,"lng":-118.39613396616438}],"postalCode":"90045","cc":"US","city":"Westchester","state":"CA","country":"United States","formattedAddress":["8844 S Sepulveda Blvd","Westchester, CA 90045","United States"]},"categories":[{"id":"4bf58dd8d48988d1e0931735","name":"Coffee Shop","pluralName":"Coffee Shops","shortName":"Coffee Shop","icon":{"prefix":"https:\/\/ss3.4sqi.net\/img\/categories_v2\/food\/coffeeshop_","suffix":".png"},"primary":true}],"verified":true,"stats":{"checkinsCount":4789,"usersCount":1930,"tipCount":25},"url":"http:\/\/www.starbucks.com\/","hasMenu":true,"menu":{"type":"Menu","label":"Menu","anchor":"View Menu","url":"https:\/\/foursquare.com\/v\/starbucks\/4a87474ef964a520960320e3\/menu","mobileUrl":"https:\/\/foursquare.com\/v\/4a87474ef964a520960320e3\/device_menu"},"allowMenuUrlEdit":true,"beenHere":{"lastCheckinExpiredAt":0},"specials":{"count":0,"items":[]},"storeId":"14211","referralId":"v-1483291059","venueChains":[{"id":"556f676fbd6a75a99038d8ec"}],"hasPerk":false},{"id":"4a808d4ff964a52096f51fe3","name":"Bristol Farms Westchester","contact":{"phone":"3104100593","formattedPhone":"(310) 410-0593","twitter":"bristolfarms","facebook":"160456427332752","facebookUsername":"bristolfarmsfood","facebookName":"Bristol Farms"},"location":{"address":"8448 Lincoln Blvd","crossStreet":"at 85th St.","lat":33.96123896,"lng":-118.4194217,"labeledLatLngs":[{"label":"display","lat":33.96123896,"lng":-118.4194217}],"postalCode":"90045","cc":"US","city":"Westchester","state":"CA","country":"United States","formattedAddress":["8448 Lincoln Blvd (at 85th St.)","Westchester, CA 90045","United States"]},"categories":[{"id":"4bf58dd8d48988d118951735","name":"Grocery Store","pluralName":"Grocery Stores","shortName":"Grocery Store","icon":{"prefix":"https:\/\/ss3.4sqi.net\/img\/categories_v2\/shops\/food_grocery_","suffix":".png"},"primary":true}],"verified":true,"stats":{"checkinsCount":4333,"usersCount":1252,"tipCount":22},"url":"http:\/\/www.bristolfarms.com","allowMenuUrlEdit":true,"beenHere":{"lastCheckinExpiredAt":0},"specials":{"count":0,"items":[]},"storeId":"4","referralId":"v-1483291059","venueChains":[{"id":"5568f295a7c8a9cf8ec45902"}],"hasPerk":false},{"id":"4b3997c5f964a520005e25e3","name":"Carl's Jr.","contact":{"phone":"3102169306","formattedPhone":"(310) 216-9306","twitter":"carlsjr_clk"},"location":{"address":"5625 W Century Blvd","crossStreet":"Bellanca Ave","lat":33.9458954821548,"lng":-118.37963283651655,"labeledLatLngs":[{"label":"display","lat":33.9458954821548,"lng":-118.37963283651655}],"postalCode":"90045","cc":"US","city":"Los Angeles","state":"CA","country":"United States","formattedAddress":["5625 W Century Blvd (Bellanca Ave)","Los Angeles, CA 90045","United States"]},"categories":[{"id":"4bf58dd8d48988d16e941735","name":"Fast Food Restaurant","pluralName":"Fast Food Restaurants","shortName":"Fast Food","icon":{"prefix":"https:\/\/ss3.4sqi.net\/img\/categories_v2\/food\/fastfood_","suffix":".png"},"primary":true}],"verified":true,"stats":{"checkinsCount":3806,"usersCount":2696,"tipCount":18},"url":"http:\/\/www.carlsjr.com","hasMenu":true,"menu":{"type":"Menu","label":"Menu","anchor":"View Menu","url":"https:\/\/foursquare.com\/v\/carls-jr\/4b3997c5f964a520005e25e3\/menu","mobileUrl":"https:\/\/foursquare.com\/v\/4b3997c5f964a520005e25e3\/device_menu"},"allowMenuUrlEdit":true,"beenHere":{"lastCheckinExpiredAt":0},"specials":{"count":0,"items":[]},"referralId":"v-1483291059","venueChains":[{"id":"556d1612aceaff43eb0990d0"}],"hasPerk":false},{"id":"5344ac90498e9887e0cf9d61","name":"Mcdonald's","contact":{"phone":"3104103200","formattedPhone":"(310) 410-3200"},"location":{"address":"5908 W Manchester Ave","crossStreet":"Airport Blvd","lat":33.959638836955385,"lng":-118.38597786123002,"labeledLatLngs":[{"label":"display","lat":33.959638836955385,"lng":-118.38597786123002}],"postalCode":"90045","cc":"US","city":"Los Angeles","state":"CA","country":"United States","formattedAddress":["5908 W Manchester Ave (Airport Blvd)","Los Angeles, CA 90045","United States"]},"categories":[{"id":"4bf58dd8d48988d16e941735","name":"Fast Food Restaurant","pluralName":"Fast Food Restaurants","shortName":"Fast Food","icon":{"prefix":"https:\/\/ss3.4sqi.net\/img\/categories_v2\/food\/fastfood_","suffix":".png"},"primary":true}],"verified":false,"stats":{"checkinsCount":396,"usersCount":239,"tipCount":5},"allowMenuUrlEdit":true,"beenHere":{"lastCheckinExpiredAt":0},"specials":{"count":0,"items":[]},"referralId":"v-1483291059","venueChains":[{"id":"556f7a12bd6a75a9903bddb2"}],"hasPerk":false},{"id":"4a98d392f964a520462d20e3","name":"IHOP","contact":{"phone":"3104104457","formattedPhone":"(310) 410-4457","twitter":"IHOP","facebook":"10036618151","facebookUsername":"IHOP","facebookName":"IHOP"},"location":{"address":"8600 S Sepulveda Blvd","crossStreet":"Manchester Blvd","lat":33.95965,"lng":-118.3961,"labeledLatLngs":[{"label":"display","lat":33.95965,"lng":-118.3961}],"postalCode":"90045","cc":"US","city":"Los Angeles","state":"CA","country":"United States","formattedAddress":["8600 S Sepulveda Blvd (Manchester Blvd)","Los Angeles, CA 90045","United States"]},"categories":[{"id":"4bf58dd8d48988d143941735","name":"Breakfast Spot","pluralName":"Breakfast Spots","shortName":"Breakfast","icon":{"prefix":"https:\/\/ss3.4sqi.net\/img\/categories_v2\/food\/breakfast_","suffix":".png"},"primary":true}],"verified":true,"stats":{"checkinsCount":4303,"usersCount":2937,"tipCount":38},"url":"http:\/\/restaurants.ihop.com\/ca\/los-angeles\/782\/","menu":{"type":"Menu","label":"Menu","anchor":"View Menu","url":"http:\/\/www.ihop.com\/menus\/main-menu","mobileUrl":"http:\/\/www.ihop.com\/menus\/main-menu","externalUrl":"http:\/\/www.ihop.com\/menus\/main-menu"},"allowMenuUrlEdit":true,"beenHere":{"lastCheckinExpiredAt":0},"specials":{"count":0,"items":[]},"storeId":"782","referralId":"v-1483291059","venueChains":[{"id":"556e0f6fa7c82e6b724f8c84"}],"hasPerk":false},{"id":"4be17982d4c362b55605f9ec","name":"Starbucks","contact":{"phone":"3104122370","formattedPhone":"(310) 412-2370","twitter":"starbucks","facebook":"22092443056","facebookUsername":"Starbucks","facebookName":"Starbucks"},"location":{"address":"941 N. La Brea Avenue","lat":33.97548481192485,"lng":-118.35790157318115,"labeledLatLngs":[{"label":"display","lat":33.97548481192485,"lng":-118.35790157318115}],"postalCode":"90302","cc":"US","city":"Inglewood","state":"CA","country":"United States","formattedAddress":["941 N. La Brea Avenue","Inglewood, CA 90302","United States"]},"categories":[{"id":"4bf58dd8d48988d1e0931735","name":"Coffee Shop","pluralName":"Coffee Shops","shortName":"Coffee Shop","icon":{"prefix":"https:\/\/ss3.4sqi.net\/img\/categories_v2\/food\/coffeeshop_","suffix":".png"},"primary":true}],"verified":true,"stats":{"checkinsCount":2851,"usersCount":692,"tipCount":15},"url":"http:\/\/www.starbucks.com\/","hasMenu":true,"menu":{"type":"Menu","label":"Menu","anchor":"View Menu","url":"https:\/\/foursquare.com\/v\/starbucks\/4be17982d4c362b55605f9ec\/menu","mobileUrl":"https:\/\/foursquare.com\/v\/4be17982d4c362b55605f9ec\/device_menu"},"allowMenuUrlEdit":true,"beenHere":{"lastCheckinExpiredAt":0},"specials":{"count":0,"items":[]},"storeId":"2820","referralId":"v-1483291059","venueChains":[{"id":"556f676fbd6a75a99038d8ec"}],"hasPerk":false},{"id":"4a8f0135f964a5208b1320e3","name":"Blue Butterfly","contact":{"phone":"3106407687","formattedPhone":"(310) 640-7687"},"location":{"address":"351 Main St","lat":33.92057,"lng":-118.41608262,"labeledLatLngs":[{"label":"display","lat":33.92057,"lng":-118.41608262}],"postalCode":"90245","cc":"US","city":"El Segundo","state":"CA","country":"United States","formattedAddress":["351 Main St","El Segundo, CA 90245","United States"]},"categories":[{"id":"4bf58dd8d48988d1e0931735","name":"Coffee Shop","pluralName":"Coffee Shops","shortName":"Coffee Shop","icon":{"prefix":"https:\/\/ss3.4sqi.net\/img\/categories_v2\/food\/coffeeshop_","suffix":".png"},"primary":true}],"verified":false,"stats":{"checkinsCount":2080,"usersCount":579,"tipCount":26},"hasMenu":true,"menu":{"type":"Menu","label":"Menu","anchor":"View Menu","url":"https:\/\/foursquare.com\/v\/blue-butterfly\/4a8f0135f964a5208b1320e3\/menu","mobileUrl":"https:\/\/foursquare.com\/v\/4a8f0135f964a5208b1320e3\/device_menu"},"allowMenuUrlEdit":true,"beenHere":{"lastCheckinExpiredAt":0},"specials":{"count":0,"items":[]},"referralId":"v-1483291059","venueChains":[],"hasPerk":false},{"id":"56e845ff498e0e8c63d46895","name":"Starbucks","contact":{"phone":"3105601760","formattedPhone":"(310) 560-1760","twitter":"starbucks","facebook":"22092443056","facebookUsername":"Starbucks","facebookName":"Starbucks"},"location":{"address":"8400 Lincoln Blvd.","lat":33.96167805172305,"lng":-118.42006114025124,"labeledLatLngs":[{"label":"display","lat":33.96167805172305,"lng":-118.42006114025124}],"postalCode":"90045","cc":"US","city":"Los Angeles","state":"CA","country":"United States","formattedAddress":["8400 Lincoln Blvd.","Los Angeles, CA 90045","United States"]},"categories":[{"id":"4bf58dd8d48988d1e0931735","name":"Coffee Shop","pluralName":"Coffee Shops","shortName":"Coffee Shop","icon":{"prefix":"https:\/\/ss3.4sqi.net\/img\/categories_v2\/food\/coffeeshop_","suffix":".png"},"primary":true}],"verified":true,"stats":{"checkinsCount":365,"usersCount":135,"tipCount":0},"url":"http:\/\/www.starbucks.com\/store\/1014074","allowMenuUrlEdit":true,"beenHere":{"lastCheckinExpiredAt":0},"specials":{"count":0,"items":[]},"storeId":"1014074","referralId":"v-1483291059","venueChains":[{"id":"556f676fbd6a75a99038d8ec"}],"hasPerk":false},{"id":"49fc6ec7f964a520a26e1fe3","name":"Starbucks","contact":{"phone":"3107257001","formattedPhone":"(310) 725-7001","twitter":"starbucks","facebook":"22092443056","facebookUsername":"Starbucks","facebookName":"Starbucks"},"location":{"address":"5378 W Rosecrans Ave","lat":33.901363,"lng":-118.374074,"labeledLatLngs":[{"label":"display","lat":33.901363,"lng":-118.374074}],"postalCode":"90250","cc":"US","city":"Hawthorne","state":"CA","country":"United States","formattedAddress":["5378 W Rosecrans Ave","Hawthorne, CA 90250","United States"]},"categories":[{"id":"4bf58dd8d48988d1e0931735","name":"Coffee Shop","pluralName":"Coffee Shops","shortName":"Coffee Shop","icon":{"prefix":"https:\/\/ss3.4sqi.net\/img\/categories_v2\/food\/coffeeshop_","suffix":".png"},"primary":true}],"verified":true,"stats":{"checkinsCount":5067,"usersCount":1763,"tipCount":10},"url":"http:\/\/www.starbucks.com\/","hasMenu":true,"menu":{"type":"Menu","label":"Menu","anchor":"View Menu","url":"https:\/\/foursquare.com\/v\/starbucks\/49fc6ec7f964a520a26e1fe3\/menu","mobileUrl":"https:\/\/foursquare.com\/v\/49fc6ec7f964a520a26e1fe3\/device_menu"},"allowMenuUrlEdit":true,"beenHere":{"lastCheckinExpiredAt":0},"specials":{"count":0,"items":[]},"storeId":"5840","referralId":"v-1483291059","venueChains":[{"id":"556f676fbd6a75a99038d8ec"}],"hasPerk":false},{"id":"51f6be66498ebb946170243b","name":"DIRECTV Plaza Caf√©","contact":{},"location":{"address":"2250 E Imperial Hwy","crossStreet":"at Douglas St","lat":33.93044425224819,"lng":-118.38391803686656,"labeledLatLngs":[{"label":"display","lat":33.93044425224819,"lng":-118.38391803686656}],"postalCode":"90245","cc":"US","city":"El Segundo","state":"CA","country":"United States","formattedAddress":["2250 E Imperial Hwy (at Douglas St)","El Segundo, CA 90245","United States"]},"categories":[{"id":"4bf58dd8d48988d128941735","name":"Cafeteria","pluralName":"Cafeterias","shortName":"Cafeteria","icon":{"prefix":"https:\/\/ss3.4sqi.net\/img\/categories_v2\/education\/cafeteria_","suffix":".png"},"primary":true}],"verified":false,"stats":{"checkinsCount":1629,"usersCount":86,"tipCount":5},"url":"https:\/\/directv.catertrax.com","venueRatingBlacklisted":true,"allowMenuUrlEdit":true,"beenHere":{"lastCheckinExpiredAt":0},"specials":{"count":0,"items":[]},"referralId":"v-1483291059","venueChains":[],"hasPerk":false},{"id":"4e27010062e14d5da1540a34","name":"Roscoe's House of Chicken and Waffles","contact":{"phone":"3109814141","formattedPhone":"(310) 981-4141","twitter":"roscoesofficial","facebook":"157735184268967","facebookUsername":"roscoesofficial","facebookName":"Roscoes House of Chicken and Waffles"},"location":{"address":"621 W Manchester Blvd","crossStreet":"btwn S Ash Ave. & S Oak St.","lat":33.96184972201554,"lng":-118.36728445771817,"labeledLatLngs":[{"label":"display","lat":33.96184972201554,"lng":-118.36728445771817}],"postalCode":"90301","cc":"US","city":"Inglewood","state":"CA","country":"United States","formattedAddress":["621 W Manchester Blvd (btwn S Ash Ave. & S Oak St.)","Inglewood, CA 90301","United States"]},"categories":[{"id":"4bf58dd8d48988d14f941735","name":"Southern \/ Soul Food Restaurant","pluralName":"Southern \/ Soul Food Restaurants","shortName":"Southern \/ Soul","icon":{"prefix":"https:\/\/ss3.4sqi.net\/img\/categories_v2\/food\/southern_","suffix":".png"},"primary":true}],"verified":true,"stats":{"checkinsCount":7309,"usersCount":5085,"tipCount":99},"url":"http:\/\/www.roscoeschickenandwaffles.com","hasMenu":true,"menu":{"type":"Menu","label":"Menu","anchor":"View Menu","url":"https:\/\/foursquare.com\/v\/roscoes-house-of-chicken-and-waffles\/4e27010062e14d5da1540a34\/menu","mobileUrl":"https:\/\/foursquare.com\/v\/4e27010062e14d5da1540a34\/device_menu"},"allowMenuUrlEdit":true,"beenHere":{"lastCheckinExpiredAt":0},"specials":{"count":0,"items":[]},"storeId":"","referralId":"v-1483291059","venueChains":[{"id":"556f3b57bd6a8104863bd005"}],"hasPerk":false},{"id":"4a5e3c29f964a52035be1fe3","name":"Starbucks","contact":{"phone":"3106487671","formattedPhone":"(310) 648-7671","twitter":"starbucks","facebook":"22092443056","facebookUsername":"Starbucks","facebookName":"Starbucks"},"location":{"address":"2263 E. Maple Avenue","lat":33.92737583433388,"lng":-118.38373544733778,"labeledLatLngs":[{"label":"display","lat":33.92737583433388,"lng":-118.38373544733778}],"postalCode":"90245","cc":"US","city":"El Segundo","state":"CA","country":"United States","formattedAddress":["2263 E. Maple Avenue","El Segundo, CA 90245","United States"]},"categories":[{"id":"4bf58dd8d48988d1e0931735","name":"Coffee Shop","pluralName":"Coffee Shops","shortName":"Coffee Shop","icon":{"prefix":"https:\/\/ss3.4sqi.net\/img\/categories_v2\/food\/coffeeshop_","suffix":".png"},"primary":true}],"verified":true,"stats":{"checkinsCount":5567,"usersCount":940,"tipCount":10},"url":"http:\/\/www.starbucks.com\/","hasMenu":true,"menu":{"type":"Menu","label":"Menu","anchor":"View Menu","url":"https:\/\/foursquare.com\/v\/starbucks\/4a5e3c29f964a52035be1fe3\/menu","mobileUrl":"https:\/\/foursquare.com\/v\/4a5e3c29f964a52035be1fe3\/device_menu"},"allowMenuUrlEdit":true,"beenHere":{"lastCheckinExpiredAt":0},"specials":{"count":0,"items":[]},"storeId":"14627","referralId":"v-1483291059","venueChains":[{"id":"556f676fbd6a75a99038d8ec"}],"hasPerk":false},{"id":"49ebc697f964a5202a671fe3","name":"Ayara Thai Cuisine","contact":{"phone":"3104108848","formattedPhone":"(310) 410-8848","twitter":"ayarathai"},"location":{"address":"6245 W 87th St","crossStreet":"at Sepulveda Eastway","lat":33.958741,"lng":-118.39452981948853,"labeledLatLngs":[{"label":"display","lat":33.958741,"lng":-118.39452981948853}],"postalCode":"90045","cc":"US","city":"Westchester","state":"CA","country":"United States","formattedAddress":["6245 W 87th St (at Sepulveda Eastway)","Westchester, CA 90045","United States"]},"categories":[{"id":"4bf58dd8d48988d149941735","name":"Thai Restaurant","pluralName":"Thai Restaurants","shortName":"Thai","icon":{"prefix":"https:\/\/ss3.4sqi.net\/img\/categories_v2\/food\/thai_","suffix":".png"},"primary":true}],"verified":true,"stats":{"checkinsCount":5002,"usersCount":2767,"tipCount":67},"url":"http:\/\/www.ayarathaicuisine.com","hasMenu":true,"menu":{"type":"Menu","label":"Menu","anchor":"View Menu","url":"https:\/\/foursquare.com\/v\/ayara-thai-cuisine\/49ebc697f964a5202a671fe3\/menu","mobileUrl":"https:\/\/foursquare.com\/v\/49ebc697f964a5202a671fe3\/device_menu"},"allowMenuUrlEdit":true,"beenHere":{"lastCheckinExpiredAt":0},"specials":{"count":0,"items":[]},"venuePage":{"id":"45324923"},"storeId":"","referralId":"v-1483291059","venueChains":[],"hasPerk":false},{"id":"4b970b60f964a52004f534e3","name":"Popeyes Louisiana Kitchen","contact":{"phone":"3104197987","formattedPhone":"(310) 419-7987","twitter":"PopeyesChicken"},"location":{"address":"957 N LA Brea Ave","crossStreet":"at Centinela Ave.","lat":33.976096,"lng":-118.35792701666666,"labeledLatLngs":[{"label":"display","lat":33.976096,"lng":-118.35792701666666}],"postalCode":"90302","cc":"US","city":"Inglewood","state":"CA","country":"United States","formattedAddress":["957 N LA Brea Ave (at Centinela Ave.)","Inglewood, CA 90302","United States"]},"categories":[{"id":"4d4ae6fc7a7b7dea34424761","name":"Fried Chicken Joint","pluralName":"Fried Chicken Joints","shortName":"Fried Chicken","icon":{"prefix":"https:\/\/ss3.4sqi.net\/img\/categories_v2\/food\/friedchicken_","suffix":".png"},"primary":true}],"verified":false,"stats":{"checkinsCount":1025,"usersCount":470,"tipCount":17},"url":"http:\/\/popeyes.com","hasMenu":true,"menu":{"type":"Menu","label":"Menu","anchor":"View Menu","url":"https:\/\/foursquare.com\/v\/popeyes-louisiana-kitchen\/4b970b60f964a52004f534e3\/menu","mobileUrl":"https:\/\/foursquare.com\/v\/4b970b60f964a52004f534e3\/device_menu"},"allowMenuUrlEdit":true,"beenHere":{"lastCheckinExpiredAt":0},"specials":{"count":0,"items":[]},"referralId":"v-1483291059","venueChains":[{"id":"561e8768498ea6bc69a4a287"}],"hasPerk":false},{"id":"4bce6e64fb84c9b6ddeb233e","name":"7-Eleven","contact":{"phone":"3106450348","formattedPhone":"(310) 645-0348","twitter":"7eleven","facebook":"240455799331498","facebookUsername":"7ElevenLosAngeles18867","facebookName":"7-Eleven"},"location":{"address":"5880 W Manchester Ave","crossStreet":"at Airport Blvd.","lat":33.95947346030502,"lng":-118.3851175262484,"labeledLatLngs":[{"label":"display","lat":33.95947346030502,"lng":-118.3851175262484}],"postalCode":"90045","cc":"US","city":"Los Angeles","state":"CA","country":"United States","formattedAddress":["5880 W Manchester Ave (at Airport Blvd.)","Los Angeles, CA 90045","United States"]},"categories":[{"id":"4d954b0ea243a5684a65b473","name":"Convenience Store","pluralName":"Convenience Stores","shortName":"Convenience Store","icon":{"prefix":"https:\/\/ss3.4sqi.net\/img\/categories_v2\/shops\/conveniencestore_","suffix":".png"},"primary":true}],"verified":true,"stats":{"checkinsCount":1515,"usersCount":673,"tipCount":10},"url":"http:\/\/www.7-eleven.com","allowMenuUrlEdit":true,"beenHere":{"lastCheckinExpiredAt":0},"specials":{"count":0,"items":[]},"storeId":"18867","referralId":"v-1483291059","venueChains":[{"id":"556f676fbd6a75a99038d8e9"}],"hasPerk":false},{"id":"50315424e4b01042a45f8956","name":"Banadir Somali Restaurant","contact":{"phone":"3104199900","formattedPhone":"(310) 419-9900"},"location":{"address":"137 Arbor Vitae","lat":33.95282,"lng":-118.356558,"labeledLatLngs":[{"label":"display","lat":33.95282,"lng":-118.356558}],"postalCode":"90301","cc":"US","city":"Inglewood","state":"CA","country":"United States","formattedAddress":["137 Arbor Vitae","Inglewood, CA 90301","United States"]},"categories":[{"id":"4bf58dd8d48988d1c8941735","name":"African Restaurant","pluralName":"African Restaurants","shortName":"African","icon":{"prefix":"https:\/\/ss3.4sqi.net\/img\/categories_v2\/food\/african_","suffix":".png"},"primary":true}],"verified":false,"stats":{"checkinsCount":348,"usersCount":195,"tipCount":7},"allowMenuUrlEdit":true,"beenHere":{"lastCheckinExpiredAt":0},"specials":{"count":0,"items":[]},"referralId":"v-1483291059","venueChains":[],"hasPerk":false},{"id":"4b6f8312f964a520c0f32ce3","name":"McDonald's","contact":{"phone":"3106495617","formattedPhone":"(310) 649-5617"},"location":{"address":"6904 LA Tijera Blvd","crossStreet":"Knowlton St","lat":33.97554048978698,"lng":-118.37330469098238,"labeledLatLngs":[{"label":"display","lat":33.97554048978698,"lng":-118.37330469098238}],"postalCode":"90045","cc":"US","city":"Los Angeles","state":"CA","country":"United States","formattedAddress":["6904 LA Tijera Blvd (Knowlton St)","Los Angeles, CA 90045","United States"]},"categories":[{"id":"4bf58dd8d48988d16e941735","name":"Fast Food Restaurant","pluralName":"Fast Food Restaurants","shortName":"Fast Food","icon":{"prefix":"https:\/\/ss3.4sqi.net\/img\/categories_v2\/food\/fastfood_","suffix":".png"},"primary":true}],"verified":true,"stats":{"checkinsCount":1550,"usersCount":614,"tipCount":8},"url":"http:\/\/mcdonalds.com","hasMenu":true,"menu":{"type":"Menu","label":"Menu","anchor":"View Menu","url":"https:\/\/foursquare.com\/v\/mcdonalds\/4b6f8312f964a520c0f32ce3\/menu","mobileUrl":"https:\/\/foursquare.com\/v\/4b6f8312f964a520c0f32ce3\/device_menu"},"allowMenuUrlEdit":true,"beenHere":{"lastCheckinExpiredAt":0},"specials":{"count":0,"items":[]},"referralId":"v-1483291059","venueChains":[{"id":"556f7a12bd6a75a9903bddb2"}],"hasPerk":false}]}}