{"meta":{"code":200,"requestId":"586939a89fb6b73c3b1a1b6d"},"response":{"venues":[{"id":"49b064dcf964a520bc521fe3","name":"Wurstküche","contact":{"phone":"2136874444","formattedPhone":"(213) 687-4444","twitter":"wurstkuche","facebook":"316568296956","facebookUsername":"wurstkucherestaurant","facebookName":"Wurstküche"},"location":{"address":"800 E 3rd St","crossStreet":"at Traction Ave","lat":34.04562341435375,"lng":-118.23610246181488,"postalCode":"90013","cc":"US","city":"Los Angeles","state":"CA","country":"United States","formattedAddress":["800 E 3rd St (at Traction Ave)","Los Angeles, CA 90013","United States"]},"categories":[{"id":"4bf58dd8d48988d10d941735","name":"German Restaurant","pluralName":"German Restaurants","shortName":"German","icon":{"prefix":"https:\/\/ss3.4sqi.net\/img\/categories_v2\/food\/german_","suffix":".png"},"primary":true}],"verified":false,"stats":{"checkinsCount":31429,"usersCount":17374,"tipCount":360},"url":"http:\/\/www.wurstkuche.com","hasMenu":true,"menu":{"type":"Menu","label":"Menu","anchor":"View Menu","url":"https:\/\/foursquare.com\/v\/wurstk%C3%BCche\/49b064dcf964a520bc521fe3\/menu","mobileUrl":"https:\/\/foursquare.com\/v\/49b064dcf964a520bc521fe3\/device_menu"},"allowMenuUrlEdit":true,"beenHere":{"lastCheckinExpiredAt":0},"specials":{"count":0,"items":[]},"referralId":"v-1483291048","venueChains":[],"hasPerk":false},{"id":"4a33da8ef964a520559b1fe3","name":"Urth Caffé","contact":{"phone":"2137974534","formattedPhone":"(213) 797-4534","twitter":"UrthCaffeLA"},"location":{"address":"451 S Hewitt St","crossStreet":"at 5th St.","lat":34.04194415861958,"lng":-118.23521347103639,"postalCode":"90013","cc":"US","city":"Los Angeles","state":"CA","country":"United States","formattedAddress":["451 S Hewitt St (at 5th St.)","Los Angeles, CA 90013","United States"]},"categories":[{"id":"4bf58dd8d48988d1e0931735","name":"Coffee Shop","pluralName":"Coffee Shops","shortName":"Coffee Shop","icon":{"prefix":"https:\/\/ss3.4sqi.net\/img\/categories_v2\/food\/coffeeshop_","suffix":".png"},"primary":true}],"verified":false,"stats":{"checkinsCount":28046,"usersCount":11486,"tipCount":265},"url":"http:\/\/www.urthcaffe.com","hasMenu":true,"menu":{"type":"Menu","label":"Menu","anchor":"View Menu","url":"https:\/\/foursquare.com\/v\/urth-caff%C3%A9\/4a33da8ef964a520559b1fe3\/menu","mobileUrl":"https:\/\/foursquare.com\/v\/4a33da8ef964a520559b1fe3\/device_menu"},"allowMenuUrlEdit":true,"beenHere":{"lastCheckinExpiredAt":0},"specials":{"count":0,"items":[]},"referralId":"v-1483291048","venueChains":[],"hasPerk":false},{"id":"4470358df964a52089331fe3","name":"Philippe The Original","contact":{"phone":"2136173781","formattedPhone":"(213) 617-3781","twitter":"philippetheog","facebook":"294891686121","facebookUsername":"PhilippetheOG","facebookName":"Philippe the Original *Official Page"},"location":{"address":"1001 N Alameda St","crossStreet":"at Ord St","lat":34.05971039910925,"lng":-118.23699295520782,"labeledLatLngs":[{"label":"display","lat":34.05971039910925,"lng":-118.23699295520782}],"postalCode":"90012","cc":"US","city":"Los Angeles","state":"CA","country":"United States","formattedAddress":["1001 N Alameda St (at Ord St)","Los Angeles, CA 90012","United States"]},"categories":[{"id":"4bf58dd8d48988d1c5941735","name":"Sandwich Place","pluralName":"Sandwich Places","shortName":"Sandwiches","icon":{"prefix":"https:\/\/ss3.4sqi.net\/img\/categories_v2\/food\/deli_","suffix":".png"},"primary":true}],"verified":false,"stats":{"checkinsCount":24103,"usersCount":15775,"tipCount":399},"url":"http:\/\/www.philippes.com","hasMenu":true,"menu":{"type":"Menu","label":"Menu","anchor":"View Menu","url":"https:\/\/foursquare.com\/v\/philippe-the-original\/4470358df964a52089331fe3\/menu","mobileUrl":"https:\/\/foursquare.com\/v\/4470358df964a52089331fe3\/device_menu"},"allowMenuUrlEdit":true,"beenHere":{"lastCheckinExpiredAt":0},"specials":{"count":0,"items":[]},"referralId":"v-1483291048","venueChains":[],"hasPerk":false},{"id":"4da117b2bf22a143f96894f8","name":"Café Dulcé","contact":{"phone":"2133469910","formattedPhone":"(213) 346-9910"},"location":{"address":"134 Japanese Village Plaza Mall Bldg E","lat":34.04892970392951,"lng":-118.24050170203188,"labeledLatLngs":[{"label":"display","lat":34.04892970392951,"lng":-118.24050170203188}],"postalCode":"90012","cc":"US","city":"Los Angeles","state":"CA","country":"United States","formattedAddress":["134 Japanese Village Plaza Mall Bldg E","Los Angeles, CA 90012","United States"]},"categories":[{"id":"4bf58dd8d48988d16a941735","name":"Bakery","pluralName":"Bakeries","shortName":"Bakery","icon":{"prefix":"https:\/\/ss3.4sqi.net\/img\/categories_v2\/food\/bakery_","suffix":".png"},"primary":true}],"verified":true,"stats":{"checkinsCount":9703,"usersCount":4136,"tipCount":88},"url":"http:\/\/www.cafedulce.co","menu":{"type":"Menu","label":"Menu","anchor":"View Menu","url":"http:\/\/www.cafedulce.co\/files\/cafedulce_menu.pdf","mobileUrl":"http:\/\/www.cafedulce.co\/files\/cafedulce_menu.pdf","externalUrl":"http:\/\/www.cafedulce.co\/files\/cafedulce_menu.pdf"},"allowMenuUrlEdit":true,"beenHere":{"lastCheckinExpiredAt":0},"specials":{"count":0,"items":[]},"venuePage":{"id":"56132189"},"referralId":"v-1483291048","venueChains":[],"hasPerk":false},{"id":"4e5b046a227188671508b714","name":"Shin-Sen-Gumi","contact":{"phone":"2136877108","formattedPhone":"(213) 687-7108"},"location":{"address":"132 S Central Ave","crossStreet":"btwn E 1st & E 2nd St","lat":34.0482829669958,"lng":-118.23938239244038,"labeledLatLngs":[{"label":"display","lat":34.0482829669958,"lng":-118.23938239244038}],"postalCode":"90012","cc":"US","city":"Los Angeles","state":"CA","country":"United States","formattedAddress":["132 S Central Ave (btwn E 1st & E 2nd St)","Los Angeles, CA 90012","United States"]},"categories":[{"id":"55a59bace4b013909087cb24","name":"Ramen Restaurant","pluralName":"Ramen Restaurants","shortName":"Ramen","icon":{"prefix":"https:\/\/ss3.4sqi.net\/img\/categories_v2\/food\/ramen_","suffix":".png"},"primary":true}],"verified":false,"stats":{"checkinsCount":11554,"usersCount":5742,"tipCount":104},"url":"http:\/\/shinsengumigroup.com","allowMenuUrlEdit":true,"beenHere":{"lastCheckinExpiredAt":0},"specials":{"count":0,"items":[]},"referralId":"v-1483291048","venueChains":[],"hasPerk":false},{"id":"5801612a38fab747a494609b","name":"Salt & Straw","contact":{},"location":{"address":"829 E 3rd St","lat":34.046055,"lng":-118.235495,"labeledLatLngs":[{"label":"display","lat":34.046055,"lng":-118.235495}],"postalCode":"90013","cc":"US","city":"Los Angeles","state":"CA","country":"United States","formattedAddress":["829 E 3rd St","Los Angeles, CA 90013","United States"]},"categories":[{"id":"4bf58dd8d48988d1c9941735","name":"Ice Cream Shop","pluralName":"Ice Cream Shops","shortName":"Ice Cream","icon":{"prefix":"https:\/\/ss3.4sqi.net\/img\/categories_v2\/food\/icecream_","suffix":".png"},"primary":true}],"verified":false,"stats":{"checkinsCount":279,"usersCount":242,"tipCount":6},"allowMenuUrlEdit":true,"beenHere":{"lastCheckinExpiredAt":0},"specials":{"count":0,"items":[]},"referralId":"v-1483291048","venueChains":[],"hasPerk":false},{"id":"506a1177e4b0bafc66607b7d","name":"Bestia","contact":{"phone":"2135145724","formattedPhone":"(213) 514-5724","twitter":"bestiadtla"},"location":{"address":"2121 E 7th Pl","crossStreet":"at Santa Fe Ave","lat":34.033650501826834,"lng":-118.22923403303977,"labeledLatLngs":[{"label":"display","lat":34.033650501826834,"lng":-118.22923403303977}],"postalCode":"90021","cc":"US","city":"Los Angeles","state":"CA","country":"United States","formattedAddress":["2121 E 7th Pl (at Santa Fe Ave)","Los Angeles, CA 90021","United States"]},"categories":[{"id":"4bf58dd8d48988d110941735","name":"Italian Restaurant","pluralName":"Italian Restaurants","shortName":"Italian","icon":{"prefix":"https:\/\/ss3.4sqi.net\/img\/categories_v2\/food\/italian_","suffix":".png"},"primary":true}],"verified":false,"stats":{"checkinsCount":7614,"usersCount":5382,"tipCount":191},"url":"http:\/\/bestiala.com","hasMenu":true,"menu":{"type":"Menu","label":"Menu","anchor":"View Menu","url":"https:\/\/foursquare.com\/v\/bestia\/506a1177e4b0bafc66607b7d\/menu","mobileUrl":"https:\/\/foursquare.com\/v\/506a1177e4b0bafc66607b7d\/device_menu"},"allowMenuUrlEdit":true,"beenHere":{"lastCheckinExpiredAt":0},"specials":{"count":0,"items":[]},"referralId":"v-1483291048","venueChains":[],"hasPerk":false},{"id":"4e992c725c5caa2f44ec6955","name":"The Pie Hole","contact":{"phone":"2135370115","formattedPhone":"(213) 537-0115","twitter":"thepieholela","facebook":"126938200715795","facebookUsername":"ThePieHoleLA","facebookName":"The Pie Hole - Los Angeles"},"location":{"address":"714 Traction Ave","crossStreet":"at Hewitt St","lat":34.0453839,"lng":-118.2362544,"labeledLatLngs":[{"label":"display","lat":34.0453839,"lng":-118.2362544}],"postalCode":"90013","cc":"US","city":"Los Angeles","state":"CA","country":"United States","formattedAddress":["714 Traction Ave (at Hewitt St)","Los Angeles, CA 90013","United States"]},"categories":[{"id":"52e81612bcbc57f1066b7a0a","name":"Pie Shop","pluralName":"Pie Shops","shortName":"Pie Shop","icon":{"prefix":"https:\/\/ss3.4sqi.net\/img\/categories_v2\/food\/pieshop_","suffix":".png"},"primary":true}],"verified":true,"stats":{"checkinsCount":10619,"usersCount":5912,"tipCount":183},"url":"http:\/\/thepieholela.com","hasMenu":true,"menu":{"type":"Menu","label":"Menu","anchor":"View Menu","url":"https:\/\/foursquare.com\/v\/the-pie-hole\/4e992c725c5caa2f44ec6955\/menu","mobileUrl":"https:\/\/foursquare.com\/v\/4e992c725c5caa2f44ec6955\/device_menu"},"allowMenuUrlEdit":true,"beenHere":{"lastCheckinExpiredAt":0},"specials":{"count":0,"items":[]},"venuePage":{"id":"89553618"},"storeId":"","referralId":"v-1483291048","venueChains":[],"hasPerk":false},{"id":"534d64f2498e7cde6b8a9c04","name":"Blacktop Coffee","contact":{},"location":{"address":"826 E 3rd St","crossStreet":"S Garry St","lat":34.04576837847696,"lng":-118.23544190770866,"labeledLatLngs":[{"label":"display","lat":34.04576837847696,"lng":-118.23544190770866}],"postalCode":"90013","cc":"US","city":"Los Angeles","state":"CA","country":"United States","formattedAddress":["826 E 3rd St (S Garry St)","Los Angeles, CA 90013","United States"]},"categories":[{"id":"4bf58dd8d48988d1e0931735","name":"Coffee Shop","pluralName":"Coffee Shops","shortName":"Coffee Shop","icon":{"prefix":"https:\/\/ss3.4sqi.net\/img\/categories_v2\/food\/coffeeshop_","suffix":".png"},"primary":true}],"verified":false,"stats":{"checkinsCount":2629,"usersCount":1158,"tipCount":34},"allowMenuUrlEdit":true,"beenHere":{"lastCheckinExpiredAt":0},"specials":{"count":0,"items":[]},"referralId":"v-1483291048","venueChains":[],"hasPerk":false},{"id":"55fccaa5498ec525f32b644d","name":"Everson Royce Bar","contact":{"phone":"2133356166","formattedPhone":"(213) 335-6166","twitter":"eversonroycebar","facebook":"538137249672950","facebookUsername":"eversonroycebar","facebookName":"Everson Royce Bar"},"location":{"address":"1936 E 7th St","lat":34.03445591698752,"lng":-118.23262640450679,"labeledLatLngs":[{"label":"display","lat":34.03445591698752,"lng":-118.23262640450679}],"postalCode":"90021","cc":"US","city":"Los Angeles","state":"CA","country":"United States","formattedAddress":["1936 E 7th St","Los Angeles, CA 90021","United States"]},"categories":[{"id":"4bf58dd8d48988d11e941735","name":"Cocktail Bar","pluralName":"Cocktail Bars","shortName":"Cocktail","icon":{"prefix":"https:\/\/ss3.4sqi.net\/img\/categories_v2\/nightlife\/cocktails_","suffix":".png"},"primary":true}],"verified":false,"stats":{"checkinsCount":1409,"usersCount":918,"tipCount":24},"url":"http:\/\/www.erbla.com","allowMenuUrlEdit":true,"beenHere":{"lastCheckinExpiredAt":0},"specials":{"count":0,"items":[]},"referralId":"v-1483291048","venueChains":[],"hasPerk":false},{"id":"55773340498ee2c0817e9170","name":"Howlin' Ray's","contact":{"phone":"2139358399","formattedPhone":"(213) 935-8399","twitter":"howlinrays"},"location":{"address":"727 N Broadway #128","lat":34.06139769942063,"lng":-118.23968506361167,"labeledLatLngs":[{"label":"display","lat":34.06139769942063,"lng":-118.23968506361167}],"postalCode":"90012","cc":"US","neighborhood":"Chinatown","city":"Los Angeles","state":"CA","country":"United States","formattedAddress":["727 N Broadway #128","Los Angeles, CA 90012","United States"]},"categories":[{"id":"4d4ae6fc7a7b7dea34424761","name":"Fried Chicken Joint","pluralName":"Fried Chicken Joints","shortName":"Fried Chicken","icon":{"prefix":"https:\/\/ss3.4sqi.net\/img\/categories_v2\/food\/friedchicken_","suffix":".png"},"primary":true}],"verified":false,"stats":{"checkinsCount":777,"usersCount":539,"tipCount":22},"url":"http:\/\/howlinrays.com","menu":{"type":"Menu","label":"Menu","anchor":"View Menu","url":"http:\/\/howlinrays.com\/menu\/","mobileUrl":"http:\/\/howlinrays.com\/menu\/","externalUrl":"http:\/\/howlinrays.com\/menu\/"},"allowMenuUrlEdit":true,"beenHere":{"lastCheckinExpiredAt":0},"specials":{"count":0,"items":[]},"referralId":"v-1483291048","venueChains":[],"hasPerk":false},{"id":"52fcf9ab498e29e90ea6f33b","name":"Zinc Café & Market","contact":{"phone":"3238255449","formattedPhone":"(323) 825-5449"},"location":{"address":"580 Mateo St","crossStreet":"Willow","lat":34.03943953321931,"lng":-118.23264924853194,"labeledLatLngs":[{"label":"display","lat":34.03943953321931,"lng":-118.23264924853194}],"postalCode":"90013","cc":"US","city":"Los Angeles","state":"CA","country":"United States","formattedAddress":["580 Mateo St (Willow)","Los Angeles, CA 90013","United States"]},"categories":[{"id":"4bf58dd8d48988d16d941735","name":"Café","pluralName":"Cafés","shortName":"Café","icon":{"prefix":"https:\/\/ss3.4sqi.net\/img\/categories_v2\/food\/cafe_","suffix":".png"},"primary":true}],"verified":true,"stats":{"checkinsCount":3171,"usersCount":1789,"tipCount":39},"url":"http:\/\/www.zinccafe.com","hasMenu":true,"menu":{"type":"Menu","label":"Menu","anchor":"View Menu","url":"https:\/\/foursquare.com\/v\/zinc-caf%C3%A9--market\/52fcf9ab498e29e90ea6f33b\/menu","mobileUrl":"https:\/\/foursquare.com\/v\/52fcf9ab498e29e90ea6f33b\/device_menu"},"allowMenuUrlEdit":true,"beenHere":{"lastCheckinExpiredAt":0},"specials":{"count":0,"items":[]},"venuePage":{"id":"89726838"},"referralId":"v-1483291048","venueChains":[],"hasPerk":false},{"id":"4e2071738130e92fc6a3f821","name":"Cafe Demitasse","contact":{"phone":"2136139300","formattedPhone":"(213) 613-9300","twitter":"cafedemitasse","facebook":"173223606034177","facebookUsername":"DemitasseRoasters","facebookName":"Demitasse"},"location":{"address":"135 S San Pedro St","crossStreet":"at 2nd St","lat":34.04968596848236,"lng":-118.24171364307404,"labeledLatLngs":[{"label":"display","lat":34.04968596848236,"lng":-118.24171364307404}],"postalCode":"90012","cc":"US","city":"Los Angeles","state":"CA","country":"United States","formattedAddress":["135 S San Pedro St (at 2nd St)","Los Angeles, CA 90012","United States"]},"categories":[{"id":"4bf58dd8d48988d1e0931735","name":"Coffee Shop","pluralName":"Coffee Shops","shortName":"Coffee Shop","icon":{"prefix":"https:\/\/ss3.4sqi.net\/img\/categories_v2\/food\/coffeeshop_","suffix":".png"},"primary":true}],"verified":true,"stats":{"checkinsCount":7576,"usersCount":3009,"tipCount":77},"url":"http:\/\/cafedemitasse.com","hasMenu":true,"menu":{"type":"Menu","label":"Menu","anchor":"View Menu","url":"https:\/\/foursquare.com\/v\/cafe-demitasse\/4e2071738130e92fc6a3f821\/menu","mobileUrl":"https:\/\/foursquare.com\/v\/4e2071738130e92fc6a3f821\/device_menu"},"allowMenuUrlEdit":true,"beenHere":{"lastCheckinExpiredAt":0},"specials":{"count":0,"items":[]},"storeId":"","referralId":"v-1483291048","venueChains":[{"id":"556e520fbd6a82902e2829f2"}],"hasPerk":false},{"id":"522e7d3f11d24521e9d74edf","name":"Stumptown Coffee Roasters","contact":{"phone":"2133370936","formattedPhone":"(213) 337-0936","twitter":"stumptowncoffee","facebook":"187702397782","facebookUsername":"stumptowncoffee","facebookName":"Stumptown Coffee Roasters"},"location":{"address":"806 S Santa Fe Ave","crossStreet":"at E 7th St","lat":34.03335405036941,"lng":-118.2299136549127,"labeledLatLngs":[{"label":"display","lat":34.03335405036941,"lng":-118.2299136549127}],"postalCode":"90021","cc":"US","city":"Los Angeles","state":"CA","country":"United States","formattedAddress":["806 S Santa Fe Ave (at E 7th St)","Los Angeles, CA 90021","United States"]},"categories":[{"id":"4bf58dd8d48988d1e0931735","name":"Coffee Shop","pluralName":"Coffee Shops","shortName":"Coffee Shop","icon":{"prefix":"https:\/\/ss3.4sqi.net\/img\/categories_v2\/food\/coffeeshop_","suffix":".png"},"primary":true}],"verified":true,"stats":{"checkinsCount":5695,"usersCount":2339,"tipCount":75},"url":"http:\/\/t.co\/HP1jMKlOZf","allowMenuUrlEdit":true,"beenHere":{"lastCheckinExpiredAt":0},"specials":{"count":0,"items":[]},"referralId":"v-1483291048","venueChains":[{"id":"556f4246bd6a007c77387d91"}],"hasPerk":false},{"id":"5518423c498edbf62812dbe4","name":"Cafe Gratitude","contact":{"phone":"2139295580","formattedPhone":"(213) 929-5580","facebook":"102759423133347","facebookUsername":"cafegratitudela","facebookName":"Cafe Gratitude L.A."},"location":{"address":"300 S Santa Fe Ave Ste A","crossStreet":"at E 3rd St","lat":34.045684120697786,"lng":-118.23253502837576,"labeledLatLngs":[{"label":"display","lat":34.045684120697786,"lng":-118.23253502837576}],"postalCode":"90013","cc":"US","city":"Los Angeles","state":"CA","country":"United States","formattedAddress":["300 S Santa Fe Ave Ste A (at E 3rd St)","Los Angeles, CA 90013","United States"]},"categories":[{"id":"4bf58dd8d48988d1d3941735","name":"Vegetarian \/ Vegan Restaurant","pluralName":"Vegetarian \/ Vegan Restaurants","shortName":"Vegetarian \/ Vegan","icon":{"prefix":"https:\/\/ss3.4sqi.net\/img\/categories_v2\/food\/vegetarian_","suffix":".png"},"primary":true}],"verified":false,"stats":{"checkinsCount":1129,"usersCount":674,"tipCount":15},"url":"http:\/\/cafegratitude.com","allowMenuUrlEdit":true,"beenHere":{"lastCheckinExpiredAt":0},"specials":{"count":0,"items":[]},"referralId":"v-1483291048","venueChains":[],"hasPerk":false},{"id":"4f321d2419836c91c7b74af1","name":"Groundwork Coffee Co","contact":{"phone":"2136268650","formattedPhone":"(213) 626-8650"},"location":{"address":"811 Traction Ave","lat":34.04519528201452,"lng":-118.23561894592058,"labeledLatLngs":[{"label":"display","lat":34.04519528201452,"lng":-118.23561894592058}],"postalCode":"90013","cc":"US","city":"Los Angeles","state":"CA","country":"United States","formattedAddress":["811 Traction Ave","Los Angeles, CA 90013","United States"]},"categories":[{"id":"4bf58dd8d48988d1e0931735","name":"Coffee Shop","pluralName":"Coffee Shops","shortName":"Coffee Shop","icon":{"prefix":"https:\/\/ss3.4sqi.net\/img\/categories_v2\/food\/coffeeshop_","suffix":".png"},"primary":true}],"verified":false,"stats":{"checkinsCount":1142,"usersCount":496,"tipCount":10},"url":"http:\/\/www.lacoffee.com\/","allowMenuUrlEdit":true,"beenHere":{"lastCheckinExpiredAt":0},"specials":{"count":0,"items":[]},"referralId":"v-1483291048","venueChains":[],"hasPerk":false},{"id":"53c621cb498ecf3134b82684","name":"Blue Bottle Coffee","contact":{"phone":"2136214194","formattedPhone":"(213) 621-4194","twitter":"bluebottle_la"},"location":{"address":"582 Mateo St","crossStreet":"at Willow St.","lat":34.03902246008644,"lng":-118.23258876800536,"labeledLatLngs":[{"label":"display","lat":34.03902246008644,"lng":-118.23258876800536}],"postalCode":"90013","cc":"US","city":"Los Angeles","state":"CA","country":"United States","formattedAddress":["582 Mateo St (at Willow St.)","Los Angeles, CA 90013","United States"]},"categories":[{"id":"4bf58dd8d48988d1e0931735","name":"Coffee Shop","pluralName":"Coffee Shops","shortName":"Coffee Shop","icon":{"prefix":"https:\/\/ss3.4sqi.net\/img\/categories_v2\/food\/coffeeshop_","suffix":".png"},"primary":true}],"verified":false,"stats":{"checkinsCount":2758,"usersCount":1526,"tipCount":30},"url":"http:\/\/www.bluebottlecoffee.com","allowMenuUrlEdit":true,"beenHere":{"lastCheckinExpiredAt":0},"specials":{"count":0,"items":[]},"referralId":"v-1483291048","venueChains":[{"id":"5588c8f2498eb4fced6bebab"}],"hasPerk":false},{"id":"49ed71e7f964a520eb671fe3","name":"Won Kok Restaurant","contact":{"phone":"2136130700","formattedPhone":"(213) 613-0700"},"location":{"address":"210 Alpine St","crossStreet":"Broadway","lat":34.061888580981254,"lng":-118.23752637829712,"labeledLatLngs":[{"label":"display","lat":34.061888580981254,"lng":-118.23752637829712}],"postalCode":"90012","cc":"US","city":"Los Angeles","state":"CA","country":"United States","formattedAddress":["210 Alpine St (Broadway)","Los Angeles, CA 90012","United States"]},"categories":[{"id":"4bf58dd8d48988d145941735","name":"Chinese Restaurant","pluralName":"Chinese Restaurants","shortName":"Chinese","icon":{"prefix":"https:\/\/ss3.4sqi.net\/img\/categories_v2\/food\/asian_","suffix":".png"},"primary":true}],"verified":false,"stats":{"checkinsCount":3806,"usersCount":1987,"tipCount":48},"allowMenuUrlEdit":true,"beenHere":{"lastCheckinExpiredAt":0},"specials":{"count":0,"items":[]},"referralId":"v-1483291048","venueChains":[],"hasPerk":false},{"id":"5143f2d7e4b039102cf9793f","name":"Marugame Monzo","contact":{"phone":"2133469762","formattedPhone":"(213) 346-9762","twitter":"marugamemonzo","facebook":"168481859966061","facebookUsername":"marugamemonzo","facebookName":"Marugame Monzo"},"location":{"address":"329 E 1st St","crossStreet":"btwn San Pedro & Central Ave","lat":34.0498028951894,"lng":-118.24026756134397,"labeledLatLngs":[{"label":"display","lat":34.0498028951894,"lng":-118.24026756134397}],"postalCode":"90012","cc":"US","city":"Los Angeles","state":"CA","country":"United States","formattedAddress":["329 E 1st St (btwn San Pedro & Central Ave)","Los Angeles, CA 90012","United States"]},"categories":[{"id":"4bf58dd8d48988d111941735","name":"Japanese Restaurant","pluralName":"Japanese Restaurants","shortName":"Japanese","icon":{"prefix":"https:\/\/ss3.4sqi.net\/img\/categories_v2\/food\/japanese_","suffix":".png"},"primary":true}],"verified":false,"stats":{"checkinsCount":5054,"usersCount":3080,"tipCount":85},"menu":{"type":"Menu","label":"Menu","anchor":"View Menu","url":"http:\/\/losangeles.menupages.com\/restaurants\/monzo\/menu","mobileUrl":"http:\/\/losangeles.menupages.com\/restaurants\/monzo\/menu","externalUrl":"http:\/\/losangeles.menupages.com\/restaurants\/monzo\/menu"},"allowMenuUrlEdit":true,"beenHere":{"lastCheckinExpiredAt":0},"specials":{"count":0,"items":[]},"referralId":"v-1483291048","venueChains":[],"hasPerk":false},{"id":"54938133498ed65f02e8c4ba","name":"Redbird","contact":{"phone":"2137881191","formattedPhone":"(213) 788-1191","twitter":"redbirdla"},"location":{"address":"114 E 2nd St","lat":34.050486327004094,"lng":-118.24413940774805,"labeledLatLngs":[{"label":"display","lat":34.050486327004094,"lng":-118.24413940774805}],"postalCode":"90012","cc":"US","city":"Los Angeles","state":"CA","country":"United States","formattedAddress":["114 E 2nd St","Los Angeles, CA 90012","United States"]},"categories":[{"id":"4bf58dd8d48988d14e941735","name":"American Restaurant","pluralName":"American Restaurants","shortName":"American","icon":{"prefix":"https:\/\/ss3.4sqi.net\/img\/categories_v2\/food\/default_","suffix":".png"},"primary":true}],"verified":false,"stats":{"checkinsCount":1483,"usersCount":1159,"tipCount":42},"url":"http:\/\/redbird.la","hasMenu":true,"menu":{"type":"Menu","label":"Menu","anchor":"View Menu","url":"https:\/\/foursquare.com\/v\/redbird\/54938133498ed65f02e8c4ba\/menu","mobileUrl":"https:\/\/foursquare.com\/v\/54938133498ed65f02e8c4ba\/device_menu","externalUrl":"http:\/\/losangeles.menupages.com\/restaurants\/redbird\/menu"},"allowMenuUrlEdit":true,"beenHere":{"lastCheckinExpiredAt":0},"specials":{"count":0,"items":[]},"referralId":"v-1483291048","venueChains":[],"hasPerk":false},{"id":"53487060498e5e04e7503d6c","name":"Starbucks","contact":{"phone":"2136807825","formattedPhone":"(213) 680-7825","twitter":"starbucks","facebook":"22092443056","facebookUsername":"Starbucks","facebookName":"Starbucks"},"location":{"address":"639 N Broadway","crossStreet":"W.Cesar Chavez Ave","lat":34.058796,"lng":-118.24035,"labeledLatLngs":[{"label":"display","lat":34.058796,"lng":-118.24035}],"postalCode":"90012","cc":"US","city":"Los Angeles","state":"CA","country":"United States","formattedAddress":["639 N Broadway (W.Cesar Chavez Ave)","Los Angeles, CA 90012","United States"]},"categories":[{"id":"4bf58dd8d48988d1e0931735","name":"Coffee Shop","pluralName":"Coffee Shops","shortName":"Coffee Shop","icon":{"prefix":"https:\/\/ss3.4sqi.net\/img\/categories_v2\/food\/coffeeshop_","suffix":".png"},"primary":true}],"verified":true,"stats":{"checkinsCount":939,"usersCount":457,"tipCount":1},"url":"http:\/\/www.starbucks.com","allowMenuUrlEdit":true,"beenHere":{"lastCheckinExpiredAt":0},"specials":{"count":0,"items":[]},"storeId":"19883","referralId":"v-1483291048","venueChains":[{"id":"556f676fbd6a75a99038d8ec"}],"hasPerk":false},{"id":"4b26bfcef964a520638024e3","name":"Starbucks","contact":{"phone":"2136130393","formattedPhone":"(213) 613-0393","twitter":"starbucks","facebook":"22092443056","facebookUsername":"Starbucks","facebookName":"Starbucks"},"location":{"address":"138 S Central Ave","crossStreet":"at E 2nd St","lat":34.04796585170843,"lng":-118.23926746845245,"labeledLatLngs":[{"label":"display","lat":34.04796585170843,"lng":-118.23926746845245}],"postalCode":"90012","cc":"US","city":"Los Angeles","state":"CA","country":"United States","formattedAddress":["138 S Central Ave (at E 2nd St)","Los Angeles, CA 90012","United States"]},"categories":[{"id":"4bf58dd8d48988d1e0931735","name":"Coffee Shop","pluralName":"Coffee Shops","shortName":"Coffee Shop","icon":{"prefix":"https:\/\/ss3.4sqi.net\/img\/categories_v2\/food\/coffeeshop_","suffix":".png"},"primary":true}],"verified":true,"stats":{"checkinsCount":9347,"usersCount":3686,"tipCount":47},"url":"http:\/\/www.starbucks.com\/","hasMenu":true,"menu":{"type":"Menu","label":"Menu","anchor":"View Menu","url":"https:\/\/foursquare.com\/v\/starbucks\/4b26bfcef964a520638024e3\/menu","mobileUrl":"https:\/\/foursquare.com\/v\/4b26bfcef964a520638024e3\/device_menu"},"allowMenuUrlEdit":true,"beenHere":{"lastCheckinExpiredAt":0},"specials":{"count":0,"items":[]},"storeId":"6557","referralId":"v-1483291048","venueChains":[{"id":"556f676fbd6a75a99038d8ec"}],"hasPerk":false},{"id":"51dccd46498e4f9ac4865270","name":"JiST Cafe","contact":{"phone":"2137922116","formattedPhone":"(213) 792-2116","twitter":"jistcafe"},"location":{"address":"116 Judge John Aiso St","lat":34.05087948406237,"lng":-118.24037606560495,"labeledLatLngs":[{"label":"display","lat":34.05087948406237,"lng":-118.24037606560495}],"postalCode":"90012","cc":"US","city":"Los Angeles","state":"CA","country":"United States","formattedAddress":["116 Judge John Aiso St","Los Angeles, CA 90012","United States"]},"categories":[{"id":"4bf58dd8d48988d143941735","name":"Breakfast Spot","pluralName":"Breakfast Spots","shortName":"Breakfast","icon":{"prefix":"https:\/\/ss3.4sqi.net\/img\/categories_v2\/food\/breakfast_","suffix":".png"},"primary":true}],"verified":false,"stats":{"checkinsCount":1700,"usersCount":1097,"tipCount":32},"url":"http:\/\/jistcafe.com","menu":{"type":"Menu","label":"Menu","anchor":"View Menu","url":"http:\/\/jistcafe.com\/menu\/","mobileUrl":"http:\/\/jistcafe.com\/menu\/","externalUrl":"http:\/\/jistcafe.com\/menu\/"},"allowMenuUrlEdit":true,"beenHere":{"lastCheckinExpiredAt":0},"specials":{"count":0,"items":[]},"referralId":"v-1483291048","venueChains":[],"hasPerk":false},{"id":"518331ad498e578a445e0f2a","name":"Chego!","contact":{"phone":"3233808680","formattedPhone":"(323) 380-8680","twitter":"eatchego"},"location":{"address":"727 N Broadway","lat":34.06145609231936,"lng":-118.23949089726129,"labeledLatLngs":[{"label":"display","lat":34.06145609231936,"lng":-118.23949089726129}],"postalCode":"90012","cc":"US","city":"Los Angeles","state":"CA","country":"United States","formattedAddress":["727 N Broadway","Los Angeles, CA 90012","United States"]},"categories":[{"id":"4bf58dd8d48988d142941735","name":"Asian Restaurant","pluralName":"Asian Restaurants","shortName":"Asian","icon":{"prefix":"https:\/\/ss3.4sqi.net\/img\/categories_v2\/food\/asian_","suffix":".png"},"primary":true}],"verified":false,"stats":{"checkinsCount":3950,"usersCount":2339,"tipCount":84},"url":"http:\/\/eatchego.com","menu":{"type":"Menu","label":"Menu","anchor":"View Menu","url":"http:\/\/eatchego.com","mobileUrl":"http:\/\/eatchego.com","externalUrl":"http:\/\/eatchego.com"},"allowMenuUrlEdit":true,"beenHere":{"lastCheckinExpiredAt":0},"specials":{"count":0,"items":[]},"referralId":"v-1483291048","venueChains":[],"hasPerk":false},{"id":"4f1a5e36e4b0850c83181d5d","name":"Kula Revolving Sushi Bar","contact":{"phone":"2132909631","formattedPhone":"(213) 290-9631"},"location":{"address":"333 E 2nd St","lat":34.048607046064035,"lng":-118.24076439608174,"labeledLatLngs":[{"label":"display","lat":34.048607046064035,"lng":-118.24076439608174}],"postalCode":"90012","cc":"US","city":"Los Angeles","state":"CA","country":"United States","formattedAddress":["333 E 2nd St","Los Angeles, CA 90012","United States"]},"categories":[{"id":"4bf58dd8d48988d1d2941735","name":"Sushi Restaurant","pluralName":"Sushi Restaurants","shortName":"Sushi","icon":{"prefix":"https:\/\/ss3.4sqi.net\/img\/categories_v2\/food\/sushi_","suffix":".png"},"primary":true}],"verified":false,"stats":{"checkinsCount":3683,"usersCount":2117,"tipCount":30},"url":"http:\/\/kulausa.com","allowMenuUrlEdit":true,"beenHere":{"lastCheckinExpiredAt":0},"specials":{"count":0,"items":[]},"referralId":"v-1483291048","venueChains":[],"hasPerk":false},{"id":"4ad6a19ef964a5200f0821e3","name":"In-N-Out Burger","contact":{"phone":"8007861000","formattedPhone":"(800) 786-1000","twitter":"innoutburger"},"location":{"address":"6000 Pacific Blvd","crossStreet":"at Belgrave Ave","lat":33.986999,"lng":-118.2248318195343,"labeledLatLngs":[{"label":"display","lat":33.986999,"lng":-118.2248318195343}],"postalCode":"90255","cc":"US","city":"Huntington Park","state":"CA","country":"United States","formattedAddress":["6000 Pacific Blvd (at Belgrave Ave)","Huntington Park, CA 90255","United States"]},"categories":[{"id":"4bf58dd8d48988d16c941735","name":"Burger Joint","pluralName":"Burger Joints","shortName":"Burgers","icon":{"prefix":"https:\/\/ss3.4sqi.net\/img\/categories_v2\/food\/burger_","suffix":".png"},"primary":true}],"verified":true,"stats":{"checkinsCount":3378,"usersCount":1832,"tipCount":34},"url":"http:\/\/www.in-n-out.com","hasMenu":true,"menu":{"type":"Menu","label":"Menu","anchor":"View Menu","url":"https:\/\/foursquare.com\/v\/innout-burger\/4ad6a19ef964a5200f0821e3\/menu","mobileUrl":"https:\/\/foursquare.com\/v\/4ad6a19ef964a5200f0821e3\/device_menu"},"allowMenuUrlEdit":true,"beenHere":{"lastCheckinExpiredAt":0},"specials":{"count":0,"items":[]},"storeId":"74","referralId":"v-1483291048","venueChains":[{"id":"556cdd65aceaff43eb03dddb"}],"hasPerk":false},{"id":"4e0e69c445ddc2c6d1780ab2","name":"Pizzanista","contact":{"phone":"2136271430","formattedPhone":"(213) 627-1430","twitter":"pizzanista"},"location":{"address":"2019 E 7th St","lat":34.034768,"lng":-118.23157518,"labeledLatLngs":[{"label":"display","lat":34.034768,"lng":-118.23157518}],"postalCode":"90021","cc":"US","city":"Los Angeles","state":"CA","country":"United States","formattedAddress":["2019 E 7th St","Los Angeles, CA 90021","United States"]},"categories":[{"id":"4bf58dd8d48988d1ca941735","name":"Pizza Place","pluralName":"Pizza Places","shortName":"Pizza","icon":{"prefix":"https:\/\/ss3.4sqi.net\/img\/categories_v2\/food\/pizza_","suffix":".png"},"primary":true}],"verified":true,"stats":{"checkinsCount":4079,"usersCount":1717,"tipCount":66},"url":"http:\/\/www.pizzanista.com","hasMenu":true,"menu":{"type":"Menu","label":"Menu","anchor":"View Menu","url":"https:\/\/foursquare.com\/v\/pizzanista\/4e0e69c445ddc2c6d1780ab2\/menu","mobileUrl":"https:\/\/foursquare.com\/v\/4e0e69c445ddc2c6d1780ab2\/device_menu","externalUrl":"http:\/\/pizzanista.com\/menu\/"},"allowMenuUrlEdit":true,"beenHere":{"lastCheckinExpiredAt":0},"specials":{"count":0,"items":[]},"storeId":"","referralId":"v-1483291048","venueChains":[],"hasPerk":false},{"id":"4b79b1a0f964a520b30b2fe3","name":"Burger King","contact":{"phone":"2136260152","formattedPhone":"(213) 626-0152","twitter":"burgerking"},"location":{"address":"700 Cesar Chavez Avenue","crossStreet":"at Grand Ave","lat":34.06063707352772,"lng":-118.24431453230278,"labeledLatLngs":[{"label":"display","lat":34.06063707352772,"lng":-118.24431453230278}],"postalCode":"90012","cc":"US","city":"Los Angeles","state":"CA","country":"United States","formattedAddress":["700 Cesar Chavez Avenue (at Grand Ave)","Los Angeles, CA 90012","United States"]},"categories":[{"id":"4bf58dd8d48988d16e941735","name":"Fast Food Restaurant","pluralName":"Fast Food Restaurants","shortName":"Fast Food","icon":{"prefix":"https:\/\/ss3.4sqi.net\/img\/categories_v2\/food\/fastfood_","suffix":".png"},"primary":true}],"verified":true,"stats":{"checkinsCount":1110,"usersCount":624,"tipCount":3},"url":"http:\/\/www.bk.com","hasMenu":true,"menu":{"type":"Menu","label":"Menu","anchor":"View Menu","url":"https:\/\/foursquare.com\/v\/burger-king\/4b79b1a0f964a520b30b2fe3\/menu","mobileUrl":"https:\/\/foursquare.com\/v\/4b79b1a0f964a520b30b2fe3\/device_menu"},"allowMenuUrlEdit":true,"beenHere":{"lastCheckinExpiredAt":0},"specials":{"count":0,"items":[]},"storeId":"11299","referralId":"v-1483291048","venueChains":[{"id":"556d12d9aceaff43eb090cdb"}],"hasPerk":false},{"id":"4127e200f964a520540c1fe3","name":"Daikokuya","contact":{"phone":"2136261680","formattedPhone":"(213) 626-1680","twitter":"daikokuyaramen"},"location":{"address":"327 E 1st St","crossStreet":"btwn San Pedro St & Central Ave","lat":34.04985068017636,"lng":-118.24031895810771,"labeledLatLngs":[{"label":"display","lat":34.04985068017636,"lng":-118.24031895810771}],"postalCode":"90012","cc":"US","city":"Los Angeles","state":"CA","country":"United States","formattedAddress":["327 E 1st St (btwn San Pedro St & Central Ave)","Los Angeles, CA 90012","United States"]},"categories":[{"id":"55a59bace4b013909087cb24","name":"Ramen Restaurant","pluralName":"Ramen Restaurants","shortName":"Ramen","icon":{"prefix":"https:\/\/ss3.4sqi.net\/img\/categories_v2\/food\/ramen_","suffix":".png"},"primary":true}],"verified":false,"stats":{"checkinsCount":16670,"usersCount":10783,"tipCount":272},"url":"http:\/\/www.daikoku-ten.com","hasMenu":true,"menu":{"type":"Menu","label":"Menu","anchor":"View Menu","url":"https:\/\/foursquare.com\/v\/daikokuya\/4127e200f964a520540c1fe3\/menu","mobileUrl":"https:\/\/foursquare.com\/v\/4127e200f964a520540c1fe3\/device_menu"},"allowMenuUrlEdit":true,"beenHere":{"lastCheckinExpiredAt":0},"specials":{"count":0,"items":[]},"referralId":"v-1483291048","venueChains":[],"hasPerk":false},{"id":"562592db498e50be3afc8a1f","name":"Pok Pok LA","contact":{"phone":"2136131831","formattedPhone":"(213) 613-1831","twitter":"pokpokpdx","facebook":"196974325095","facebookUsername":"pokpoknational","facebookName":"Pok Pok"},"location":{"address":"978 N Broadway","lat":34.06611100882685,"lng":-118.23625856632573,"labeledLatLngs":[{"label":"display","lat":34.06611100882685,"lng":-118.23625856632573}],"postalCode":"90012","cc":"US","city":"Los Angeles","state":"CA","country":"United States","formattedAddress":["978 N Broadway","Los Angeles, CA 90012","United States"]},"categories":[{"id":"4bf58dd8d48988d149941735","name":"Thai Restaurant","pluralName":"Thai Restaurants","shortName":"Thai","icon":{"prefix":"https:\/\/ss3.4sqi.net\/img\/categories_v2\/food\/thai_","suffix":".png"},"primary":true}],"verified":false,"stats":{"checkinsCount":942,"usersCount":728,"tipCount":19},"url":"http:\/\/pokpokla.com\/index.php?id=297","menu":{"type":"Menu","label":"Menu","anchor":"View Menu","url":"http:\/\/pokpokla.com\/index.php?id=menu0","mobileUrl":"http:\/\/pokpokla.com\/index.php?id=menu0","externalUrl":"http:\/\/pokpokla.com\/index.php?id=menu0"},"allowMenuUrlEdit":true,"beenHere":{"lastCheckinExpiredAt":0},"specials":{"count":0,"items":[]},"referralId":"v-1483291048","venueChains":[],"hasPerk":false}]}}