{"meta":{"code":200,"requestId":"586939aff594df187286946c"},"response":{"venues":[{"id":"501186f8e4b0f164322a22ae","name":"Nobu","contact":{"phone":"3103179140","formattedPhone":"(310) 317-9140"},"location":{"address":"22706 Pacific Coast Hwy","lat":34.03895769727759,"lng":-118.66969759163665,"labeledLatLngs":[{"label":"display","lat":34.03895769727759,"lng":-118.66969759163665}],"postalCode":"90265","cc":"US","city":"Malibu","state":"CA","country":"United States","formattedAddress":["22706 Pacific Coast Hwy","Malibu, CA 90265","United States"]},"categories":[{"id":"4bf58dd8d48988d1d2941735","name":"Sushi Restaurant","pluralName":"Sushi Restaurants","shortName":"Sushi","icon":{"prefix":"https:\/\/ss3.4sqi.net\/img\/categories_v2\/food\/sushi_","suffix":".png"},"primary":true}],"verified":false,"stats":{"checkinsCount":7731,"usersCount":5737,"tipCount":181},"url":"http:\/\/www.noburestaurants.com\/malibu\/experience\/introduction\/","hasMenu":true,"menu":{"type":"Menu","label":"Menu","anchor":"View Menu","url":"https:\/\/foursquare.com\/v\/nobu\/501186f8e4b0f164322a22ae\/menu","mobileUrl":"https:\/\/foursquare.com\/v\/501186f8e4b0f164322a22ae\/device_menu"},"allowMenuUrlEdit":true,"beenHere":{"lastCheckinExpiredAt":0},"specials":{"count":0,"items":[]},"referralId":"v-1483291055","venueChains":[],"hasPerk":false},{"id":"5227b18b11d2ae884a20faef","name":"Malibu Farm Cafe","contact":{"phone":"3104561112","formattedPhone":"(310) 456-1112"},"location":{"address":"23000 Pacific Coast Hwy","crossStreet":"Malibu Pier","lat":34.037156906885336,"lng":-118.6764586148971,"labeledLatLngs":[{"label":"display","lat":34.037156906885336,"lng":-118.6764586148971}],"postalCode":"90265","cc":"US","city":"Malibu","state":"CA","country":"United States","formattedAddress":["23000 Pacific Coast Hwy (Malibu Pier)","Malibu, CA 90265","United States"]},"categories":[{"id":"4bf58dd8d48988d16d941735","name":"Café","pluralName":"Cafés","shortName":"Café","icon":{"prefix":"https:\/\/ss3.4sqi.net\/img\/categories_v2\/food\/cafe_","suffix":".png"},"primary":true}],"verified":false,"stats":{"checkinsCount":2874,"usersCount":2402,"tipCount":41},"url":"http:\/\/malibu-farm.com","menu":{"type":"Menu","label":"Menu","anchor":"View Menu","url":"http:\/\/malibu-farm.com\/pier-cafe\/menu\/","mobileUrl":"http:\/\/malibu-farm.com\/pier-cafe\/menu\/","externalUrl":"http:\/\/malibu-farm.com\/pier-cafe\/menu\/"},"allowMenuUrlEdit":true,"beenHere":{"lastCheckinExpiredAt":0},"specials":{"count":0,"items":[]},"referralId":"v-1483291055","venueChains":[],"hasPerk":false},{"id":"49d92523f964a520075e1fe3","name":"Starbucks","contact":{"phone":"3103174515","formattedPhone":"(310) 317-4515","twitter":"starbucks","facebook":"22092443056","facebookUsername":"Starbucks","facebookName":"Starbucks"},"location":{"address":"3900 Cross Creek Rd","crossStreet":"in Malibu Country Mart","lat":34.035196,"lng":-118.685088,"labeledLatLngs":[{"label":"display","lat":34.035196,"lng":-118.685088}],"postalCode":"90265","cc":"US","city":"Malibu","state":"CA","country":"United States","formattedAddress":["3900 Cross Creek Rd (in Malibu Country Mart)","Malibu, CA 90265","United States"]},"categories":[{"id":"4bf58dd8d48988d1e0931735","name":"Coffee Shop","pluralName":"Coffee Shops","shortName":"Coffee Shop","icon":{"prefix":"https:\/\/ss3.4sqi.net\/img\/categories_v2\/food\/coffeeshop_","suffix":".png"},"primary":true}],"verified":true,"stats":{"checkinsCount":4591,"usersCount":2113,"tipCount":20},"url":"http:\/\/www.starbucks.com\/","hasMenu":true,"menu":{"type":"Menu","label":"Menu","anchor":"View Menu","url":"https:\/\/foursquare.com\/v\/starbucks\/49d92523f964a520075e1fe3\/menu","mobileUrl":"https:\/\/foursquare.com\/v\/49d92523f964a520075e1fe3\/device_menu"},"allowMenuUrlEdit":true,"beenHere":{"lastCheckinExpiredAt":0},"specials":{"count":0,"items":[]},"storeId":"561","referralId":"v-1483291055","venueChains":[{"id":"556f676fbd6a75a99038d8ec"}],"hasPerk":false},{"id":"4a1a1f8ef964a520837a1fe3","name":"Taverna Tony","contact":{"phone":"3103179667","formattedPhone":"(310) 317-9667"},"location":{"address":"23410 Civic Center Way","crossStreet":"in Malibu Country Mart","lat":34.03655442152991,"lng":-118.68578579,"labeledLatLngs":[{"label":"display","lat":34.03655442152991,"lng":-118.68578579}],"postalCode":"90265","cc":"US","city":"Malibu","state":"CA","country":"United States","formattedAddress":["23410 Civic Center Way (in Malibu Country Mart)","Malibu, CA 90265","United States"]},"categories":[{"id":"4bf58dd8d48988d10e941735","name":"Greek Restaurant","pluralName":"Greek Restaurants","shortName":"Greek","icon":{"prefix":"https:\/\/ss3.4sqi.net\/img\/categories_v2\/food\/greek_","suffix":".png"},"primary":true}],"verified":false,"stats":{"checkinsCount":3602,"usersCount":2432,"tipCount":53},"url":"http:\/\/tavernatony.com","hasMenu":true,"menu":{"type":"Menu","label":"Menu","anchor":"View Menu","url":"https:\/\/foursquare.com\/v\/taverna-tony\/4a1a1f8ef964a520837a1fe3\/menu","mobileUrl":"https:\/\/foursquare.com\/v\/4a1a1f8ef964a520837a1fe3\/device_menu"},"allowMenuUrlEdit":true,"beenHere":{"lastCheckinExpiredAt":0},"specials":{"count":0,"items":[]},"referralId":"v-1483291055","venueChains":[],"hasPerk":false},{"id":"3fd66200f964a520e1ef1ee3","name":"Duke's Malibu","contact":{"phone":"3103170777","formattedPhone":"(310) 317-0777","twitter":"dukesmalibu","facebook":"165769206811396","facebookUsername":"DukesMalibu","facebookName":"Duke's Malibu"},"location":{"address":"21150 Pacific Coast Hwy","crossStreet":"at Las Flores Canyon Rd.","lat":34.036339736385045,"lng":-118.6356603357456,"labeledLatLngs":[{"label":"display","lat":34.036339736385045,"lng":-118.6356603357456}],"postalCode":"90265","cc":"US","city":"Malibu","state":"CA","country":"United States","formattedAddress":["21150 Pacific Coast Hwy (at Las Flores Canyon Rd.)","Malibu, CA 90265","United States"]},"categories":[{"id":"4bf58dd8d48988d1ce941735","name":"Seafood Restaurant","pluralName":"Seafood Restaurants","shortName":"Seafood","icon":{"prefix":"https:\/\/ss3.4sqi.net\/img\/categories_v2\/food\/seafood_","suffix":".png"},"primary":true}],"verified":true,"stats":{"checkinsCount":12266,"usersCount":8993,"tipCount":178},"url":"http:\/\/dukesmalibu.com","hasMenu":true,"menu":{"type":"Menu","label":"Menu","anchor":"View Menu","url":"https:\/\/foursquare.com\/v\/dukes-malibu\/3fd66200f964a520e1ef1ee3\/menu","mobileUrl":"https:\/\/foursquare.com\/v\/3fd66200f964a520e1ef1ee3\/device_menu"},"allowMenuUrlEdit":true,"beenHere":{"lastCheckinExpiredAt":0},"specials":{"count":0,"items":[]},"venuePage":{"id":"33315653"},"storeId":"","referralId":"v-1483291055","venueChains":[],"hasPerk":false},{"id":"4b1d5637f964a520fd0e24e3","name":"Starbucks","contact":{"phone":"3103171436","formattedPhone":"(310) 317-1436","twitter":"starbucks","facebook":"22092443056","facebookUsername":"Starbucks","facebookName":"Starbucks"},"location":{"address":"23755 Malibu Rd","lat":34.034241,"lng":-118.693557,"labeledLatLngs":[{"label":"display","lat":34.034241,"lng":-118.693557}],"postalCode":"90265","cc":"US","city":"Malibu","state":"CA","country":"United States","formattedAddress":["23755 Malibu Rd","Malibu, CA 90265","United States"]},"categories":[{"id":"4bf58dd8d48988d1e0931735","name":"Coffee Shop","pluralName":"Coffee Shops","shortName":"Coffee Shop","icon":{"prefix":"https:\/\/ss3.4sqi.net\/img\/categories_v2\/food\/coffeeshop_","suffix":".png"},"primary":true}],"verified":true,"stats":{"checkinsCount":4483,"usersCount":1748,"tipCount":21},"url":"http:\/\/www.starbucks.com\/","hasMenu":true,"menu":{"type":"Menu","label":"Menu","anchor":"View Menu","url":"https:\/\/foursquare.com\/v\/starbucks\/4b1d5637f964a520fd0e24e3\/menu","mobileUrl":"https:\/\/foursquare.com\/v\/4b1d5637f964a520fd0e24e3\/device_menu"},"allowMenuUrlEdit":true,"beenHere":{"lastCheckinExpiredAt":0},"specials":{"count":0,"items":[]},"storeId":"14014","referralId":"v-1483291055","venueChains":[{"id":"556f676fbd6a75a99038d8ec"}],"hasPerk":false},{"id":"43655e80f964a52067291fe3","name":"Moonshadows","contact":{"phone":"3104563010","formattedPhone":"(310) 456-3010","twitter":"moonshadowspch"},"location":{"address":"20356 Pacific Coast Hwy","lat":34.03753773024098,"lng":-118.61832529306412,"labeledLatLngs":[{"label":"display","lat":34.03753773024098,"lng":-118.61832529306412}],"postalCode":"90265","cc":"US","city":"Malibu","state":"CA","country":"United States","formattedAddress":["20356 Pacific Coast Hwy","Malibu, CA 90265","United States"]},"categories":[{"id":"4bf58dd8d48988d157941735","name":"New American Restaurant","pluralName":"New American Restaurants","shortName":"New American","icon":{"prefix":"https:\/\/ss3.4sqi.net\/img\/categories_v2\/food\/newamerican_","suffix":".png"},"primary":true}],"verified":false,"stats":{"checkinsCount":6572,"usersCount":5140,"tipCount":116},"url":"http:\/\/www.moonshadowsmalibu.com","hasMenu":true,"menu":{"type":"Menu","label":"Menu","anchor":"View Menu","url":"https:\/\/foursquare.com\/v\/moonshadows\/43655e80f964a52067291fe3\/menu","mobileUrl":"https:\/\/foursquare.com\/v\/43655e80f964a52067291fe3\/device_menu"},"allowMenuUrlEdit":true,"beenHere":{"lastCheckinExpiredAt":0},"specials":{"count":0,"items":[]},"referralId":"v-1483291055","venueChains":[],"hasPerk":false},{"id":"4bfd7723ee20ef3bee603c5e","name":"Café Habana","contact":{"phone":"3103170300","formattedPhone":"(310) 317-0300","twitter":"habanamalibu"},"location":{"address":"3939 Cross Creek Rd","crossStreet":"Pacific Coast Highway","lat":34.03468722126182,"lng":-118.68562854639704,"labeledLatLngs":[{"label":"display","lat":34.03468722126182,"lng":-118.68562854639704}],"postalCode":"90265","cc":"US","city":"Malibu","state":"CA","country":"United States","formattedAddress":["3939 Cross Creek Rd (Pacific Coast Highway)","Malibu, CA 90265","United States"]},"categories":[{"id":"4bf58dd8d48988d154941735","name":"Cuban Restaurant","pluralName":"Cuban Restaurants","shortName":"Cuban","icon":{"prefix":"https:\/\/ss3.4sqi.net\/img\/categories_v2\/food\/cuban_","suffix":".png"},"primary":true}],"verified":true,"stats":{"checkinsCount":4119,"usersCount":2518,"tipCount":63},"url":"http:\/\/habana-malibu.com","hasMenu":true,"menu":{"type":"Menu","label":"Menu","anchor":"View Menu","url":"https:\/\/foursquare.com\/v\/caf%C3%A9-habana\/4bfd7723ee20ef3bee603c5e\/menu","mobileUrl":"https:\/\/foursquare.com\/v\/4bfd7723ee20ef3bee603c5e\/device_menu"},"allowMenuUrlEdit":true,"beenHere":{"lastCheckinExpiredAt":0},"specials":{"count":0,"items":[]},"referralId":"v-1483291055","venueChains":[],"hasPerk":false},{"id":"4c3e79cf0596c928e0708478","name":"Pacific Coast Greens","contact":{"phone":"3104560353","formattedPhone":"(310) 456-0353","twitter":"pcgreens"},"location":{"address":"22601 Pacific Coast Hwy","lat":34.03959845016918,"lng":-118.66695209089552,"labeledLatLngs":[{"label":"display","lat":34.03959845016918,"lng":-118.66695209089552}],"postalCode":"90265","cc":"US","city":"Malibu","state":"CA","country":"United States","formattedAddress":["22601 Pacific Coast Hwy","Malibu, CA 90265","United States"]},"categories":[{"id":"4bf58dd8d48988d118951735","name":"Grocery Store","pluralName":"Grocery Stores","shortName":"Grocery Store","icon":{"prefix":"https:\/\/ss3.4sqi.net\/img\/categories_v2\/shops\/food_grocery_","suffix":".png"},"primary":true}],"verified":true,"stats":{"checkinsCount":2547,"usersCount":293,"tipCount":3},"url":"http:\/\/pcgreens-hub.com","allowMenuUrlEdit":true,"beenHere":{"lastCheckinExpiredAt":0},"specials":{"count":0,"items":[]},"venuePage":{"id":"83874135"},"storeId":"","referralId":"v-1483291055","venueChains":[],"hasPerk":false},{"id":"4a5ea56af964a520f7be1fe3","name":"Marmalade Cafe Malibu","contact":{"phone":"3103174242","formattedPhone":"(310) 317-4242"},"location":{"address":"3894 Cross Creek Rd","lat":34.03521830197499,"lng":-118.68414202779401,"labeledLatLngs":[{"label":"display","lat":34.03521830197499,"lng":-118.68414202779401}],"postalCode":"90265","cc":"US","city":"Malibu","state":"CA","country":"United States","formattedAddress":["3894 Cross Creek Rd","Malibu, CA 90265","United States"]},"categories":[{"id":"4bf58dd8d48988d14e941735","name":"American Restaurant","pluralName":"American Restaurants","shortName":"American","icon":{"prefix":"https:\/\/ss3.4sqi.net\/img\/categories_v2\/food\/default_","suffix":".png"},"primary":true}],"verified":true,"stats":{"checkinsCount":2801,"usersCount":2060,"tipCount":45},"url":"http:\/\/marmaladecafe.com","hasMenu":true,"menu":{"type":"Menu","label":"Menu","anchor":"View Menu","url":"https:\/\/foursquare.com\/v\/marmalade-cafe-malibu\/4a5ea56af964a520f7be1fe3\/menu","mobileUrl":"https:\/\/foursquare.com\/v\/4a5ea56af964a520f7be1fe3\/device_menu"},"allowMenuUrlEdit":true,"beenHere":{"lastCheckinExpiredAt":0},"specials":{"count":0,"items":[]},"venuePage":{"id":"90913720"},"referralId":"v-1483291055","venueChains":[],"hasPerk":false},{"id":"5593477f498e6710d3f1d2a4","name":"OLLO Restaurant and Bar","contact":{"phone":"3103171444","formattedPhone":"(310) 317-1444"},"location":{"address":"23750 Pacific Coast Hwy","lat":34.034177,"lng":-118.693261,"labeledLatLngs":[{"label":"display","lat":34.034177,"lng":-118.693261}],"postalCode":"90265","cc":"US","city":"Malibu","state":"CA","country":"United States","formattedAddress":["23750 Pacific Coast Hwy","Malibu, CA 90265","United States"]},"categories":[{"id":"4bf58dd8d48988d1c0941735","name":"Mediterranean Restaurant","pluralName":"Mediterranean Restaurants","shortName":"Mediterranean","icon":{"prefix":"https:\/\/ss3.4sqi.net\/img\/categories_v2\/food\/mediterranean_","suffix":".png"},"primary":true}],"verified":false,"stats":{"checkinsCount":266,"usersCount":189,"tipCount":8},"url":"http:\/\/ollomalibu.com","allowMenuUrlEdit":true,"beenHere":{"lastCheckinExpiredAt":0},"specials":{"count":0,"items":[]},"referralId":"v-1483291055","venueChains":[],"hasPerk":false},{"id":"4a485539f964a520b1aa1fe3","name":"The Coffee Bean & Tea Leaf","contact":{"phone":"3104565771","formattedPhone":"(310) 456-5771","twitter":"thecoffeebean"},"location":{"address":"3835 Cross Creek Rd #7","crossStreet":"in Malibu Country Mart","lat":34.0357666,"lng":-118.6863632,"labeledLatLngs":[{"label":"display","lat":34.0357666,"lng":-118.6863632}],"postalCode":"90265","cc":"US","city":"Malibu","state":"CA","country":"United States","formattedAddress":["3835 Cross Creek Rd #7 (in Malibu Country Mart)","Malibu, CA 90265","United States"]},"categories":[{"id":"4bf58dd8d48988d1e0931735","name":"Coffee Shop","pluralName":"Coffee Shops","shortName":"Coffee Shop","icon":{"prefix":"https:\/\/ss3.4sqi.net\/img\/categories_v2\/food\/coffeeshop_","suffix":".png"},"primary":true}],"verified":true,"stats":{"checkinsCount":2344,"usersCount":1024,"tipCount":16},"url":"http:\/\/www.coffeebean.com","hasMenu":true,"menu":{"type":"Menu","label":"Menu","anchor":"View Menu","url":"https:\/\/foursquare.com\/v\/the-coffee-bean--tea-leaf\/4a485539f964a520b1aa1fe3\/menu","mobileUrl":"https:\/\/foursquare.com\/v\/4a485539f964a520b1aa1fe3\/device_menu"},"allowMenuUrlEdit":true,"beenHere":{"lastCheckinExpiredAt":0},"specials":{"count":0,"items":[]},"storeId":"9","referralId":"v-1483291055","venueChains":[{"id":"556a4e08a7c8957d73d6ce60"}],"hasPerk":false},{"id":"4a908ffcf964a5208d1820e3","name":"Malibu Kitchen","contact":{"phone":"3104567845","formattedPhone":"(310) 456-7845"},"location":{"address":"3900 Cross Creek Rd","crossStreet":"PCH","lat":34.03523501398343,"lng":-118.68470191955566,"labeledLatLngs":[{"label":"display","lat":34.03523501398343,"lng":-118.68470191955566}],"postalCode":"90265","cc":"US","city":"Malibu","state":"CA","country":"United States","formattedAddress":["3900 Cross Creek Rd (PCH)","Malibu, CA 90265","United States"]},"categories":[{"id":"4bf58dd8d48988d146941735","name":"Deli \/ Bodega","pluralName":"Delis \/ Bodegas","shortName":"Deli \/ Bodega","icon":{"prefix":"https:\/\/ss3.4sqi.net\/img\/categories_v2\/food\/deli_","suffix":".png"},"primary":true}],"verified":false,"stats":{"checkinsCount":1428,"usersCount":959,"tipCount":18},"allowMenuUrlEdit":true,"beenHere":{"lastCheckinExpiredAt":0},"specials":{"count":0,"items":[]},"referralId":"v-1483291055","venueChains":[],"hasPerk":false},{"id":"4d2275aabcbf2c0f88d99ae4","name":"Grom","contact":{"phone":"3104569797","formattedPhone":"(310) 456-9797"},"location":{"address":"3886 Cross Creek Rd","crossStreet":"Malibu Creek Plaza","lat":34.035358,"lng":-118.68433073,"labeledLatLngs":[{"label":"display","lat":34.035358,"lng":-118.68433073}],"postalCode":"90265","cc":"US","city":"Malibu","state":"CA","country":"United States","formattedAddress":["3886 Cross Creek Rd (Malibu Creek Plaza)","Malibu, CA 90265","United States"]},"categories":[{"id":"4bf58dd8d48988d1c9941735","name":"Ice Cream Shop","pluralName":"Ice Cream Shops","shortName":"Ice Cream","icon":{"prefix":"https:\/\/ss3.4sqi.net\/img\/categories_v2\/food\/icecream_","suffix":".png"},"primary":true}],"verified":false,"stats":{"checkinsCount":1443,"usersCount":1034,"tipCount":29},"allowMenuUrlEdit":true,"beenHere":{"lastCheckinExpiredAt":0},"specials":{"count":0,"items":[]},"referralId":"v-1483291055","venueChains":[],"hasPerk":false},{"id":"5579b9ab498ec5c4a50fb958","name":"Sunlife Organics","contact":{"phone":"3104567070","formattedPhone":"(310) 456-7070","twitter":"sunlifeorganics","facebook":"121301377944260","facebookUsername":"sunlifeorganics","facebookName":"SunLife Organics"},"location":{"address":"3835 Cross Creek Rd #3","crossStreet":"Pacific Coast Highway","lat":34.035758,"lng":-118.685588,"labeledLatLngs":[{"label":"display","lat":34.035758,"lng":-118.685588}],"postalCode":"90265","cc":"US","city":"Malibu","state":"CA","country":"United States","formattedAddress":["3835 Cross Creek Rd #3 (Pacific Coast Highway)","Malibu, CA 90265","United States"]},"categories":[{"id":"4bf58dd8d48988d112941735","name":"Juice Bar","pluralName":"Juice Bars","shortName":"Juice Bar","icon":{"prefix":"https:\/\/ss3.4sqi.net\/img\/categories_v2\/food\/juicebar_","suffix":".png"},"primary":true}],"verified":true,"stats":{"checkinsCount":246,"usersCount":137,"tipCount":5},"url":"http:\/\/www.sunlifeorganics.com","allowMenuUrlEdit":true,"beenHere":{"lastCheckinExpiredAt":0},"specials":{"count":0,"items":[]},"venuePage":{"id":"134508138"},"storeId":"","referralId":"v-1483291055","venueChains":[],"hasPerk":false},{"id":"520da15f11d2faba09b050e0","name":"V's restaurant + bar","contact":{"phone":"3104563828","formattedPhone":"(310) 456-3828"},"location":{"address":"22821 Pacific Coast Hwy","crossStreet":"Cross Creek","lat":34.03915796747632,"lng":-118.67292719755406,"labeledLatLngs":[{"label":"display","lat":34.03915796747632,"lng":-118.67292719755406}],"postalCode":"90265","cc":"US","city":"Malibu","state":"CA","country":"United States","formattedAddress":["22821 Pacific Coast Hwy (Cross Creek)","Malibu, CA 90265","United States"]},"categories":[{"id":"4bf58dd8d48988d157941735","name":"New American Restaurant","pluralName":"New American Restaurants","shortName":"New American","icon":{"prefix":"https:\/\/ss3.4sqi.net\/img\/categories_v2\/food\/newamerican_","suffix":".png"},"primary":true}],"verified":true,"stats":{"checkinsCount":224,"usersCount":199,"tipCount":2},"url":"http:\/\/www.vsmalibu.com","allowMenuUrlEdit":true,"beenHere":{"lastCheckinExpiredAt":0},"specials":{"count":0,"items":[]},"venuePage":{"id":"66155621"},"referralId":"v-1483291055","venueChains":[],"hasPerk":false},{"id":"4b952e23f964a520529334e3","name":"McDonald's","contact":{"phone":"3104566996","formattedPhone":"(310) 456-6996"},"location":{"address":"22725 Pacific Coast Hwy","lat":34.03965511208123,"lng":-118.67004504793904,"labeledLatLngs":[{"label":"display","lat":34.03965511208123,"lng":-118.67004504793904}],"postalCode":"90265","cc":"US","city":"Malibu","state":"CA","country":"United States","formattedAddress":["22725 Pacific Coast Hwy","Malibu, CA 90265","United States"]},"categories":[{"id":"4bf58dd8d48988d16e941735","name":"Fast Food Restaurant","pluralName":"Fast Food Restaurants","shortName":"Fast Food","icon":{"prefix":"https:\/\/ss3.4sqi.net\/img\/categories_v2\/food\/fastfood_","suffix":".png"},"primary":true}],"verified":true,"stats":{"checkinsCount":1146,"usersCount":694,"tipCount":9},"url":"http:\/\/mcdonalds.com","hasMenu":true,"menu":{"type":"Menu","label":"Menu","anchor":"View Menu","url":"https:\/\/foursquare.com\/v\/mcdonalds\/4b952e23f964a520529334e3\/menu","mobileUrl":"https:\/\/foursquare.com\/v\/4b952e23f964a520529334e3\/device_menu"},"allowMenuUrlEdit":true,"beenHere":{"lastCheckinExpiredAt":0},"specials":{"count":0,"items":[]},"referralId":"v-1483291055","venueChains":[{"id":"556f7a12bd6a75a9903bddb2"}],"hasPerk":false},{"id":"50885642e4b0059b5c5ded34","name":"Chipotle Mexican Grill","contact":{"phone":"4246442184","formattedPhone":"(424) 644-2184","twitter":"chipotletweets"},"location":{"address":"3822 Cross Creek Rd","crossStreet":"Cross Creek Rd and PCH","lat":34.03594816412569,"lng":-118.68479131347225,"labeledLatLngs":[{"label":"display","lat":34.03594816412569,"lng":-118.68479131347225}],"postalCode":"90265","cc":"US","city":"Malibu","state":"CA","country":"United States","formattedAddress":["3822 Cross Creek Rd (Cross Creek Rd and PCH)","Malibu, CA 90265","United States"]},"categories":[{"id":"4bf58dd8d48988d1c1941735","name":"Mexican Restaurant","pluralName":"Mexican Restaurants","shortName":"Mexican","icon":{"prefix":"https:\/\/ss3.4sqi.net\/img\/categories_v2\/food\/mexican_","suffix":".png"},"primary":true}],"verified":true,"stats":{"checkinsCount":957,"usersCount":447,"tipCount":6},"url":"http:\/\/www.chipotle.com","allowMenuUrlEdit":true,"beenHere":{"lastCheckinExpiredAt":0},"specials":{"count":0,"items":[]},"storeId":"1784","referralId":"v-1483291055","venueChains":[{"id":"556e0f6fa7c82e6b724f8c82"}],"hasPerk":false},{"id":"557b28db498e8dd03f1c5f50","name":"Tavern 1 Grill & Tap House PCH Malibu","contact":{"phone":"3104568000","formattedPhone":"(310) 456-8000","facebook":"368489253345191","facebookUsername":"tavern1pchmalibu","facebookName":"Tavern 1 Grill & Tap House PCH Malibu"},"location":{"address":"21337 Pacific Coast Hwy","lat":34.0377226,"lng":-118.6393545,"labeledLatLngs":[{"label":"display","lat":34.0377226,"lng":-118.6393545}],"postalCode":"90265","cc":"US","city":"Malibu","state":"CA","country":"United States","formattedAddress":["21337 Pacific Coast Hwy","Malibu, CA 90265","United States"]},"categories":[{"id":"4bf58dd8d48988d116941735","name":"Bar","pluralName":"Bars","shortName":"Bar","icon":{"prefix":"https:\/\/ss3.4sqi.net\/img\/categories_v2\/nightlife\/pub_","suffix":".png"},"primary":true}],"verified":false,"stats":{"checkinsCount":95,"usersCount":68,"tipCount":1},"url":"http:\/\/www.taverngrills.com\/pch-malibu\/","allowMenuUrlEdit":true,"beenHere":{"lastCheckinExpiredAt":0},"specials":{"count":0,"items":[]},"referralId":"v-1483291055","venueChains":[],"hasPerk":false},{"id":"4b4e85f3f964a52066f026e3","name":"Subway","contact":{"phone":"3104560565","formattedPhone":"(310) 456-0565","twitter":"subway"},"location":{"address":"23705 Malibu Rd","lat":34.034204,"lng":-118.69145489,"labeledLatLngs":[{"label":"display","lat":34.034204,"lng":-118.69145489}],"postalCode":"90265","cc":"US","city":"Malibu","state":"CA","country":"United States","formattedAddress":["23705 Malibu Rd","Malibu, CA 90265","United States"]},"categories":[{"id":"4bf58dd8d48988d1c5941735","name":"Sandwich Place","pluralName":"Sandwich Places","shortName":"Sandwiches","icon":{"prefix":"https:\/\/ss3.4sqi.net\/img\/categories_v2\/food\/deli_","suffix":".png"},"primary":true}],"verified":false,"stats":{"checkinsCount":1071,"usersCount":415,"tipCount":9},"url":"http:\/\/www.subway.com","hasMenu":true,"menu":{"type":"Menu","label":"Menu","anchor":"View Menu","url":"https:\/\/foursquare.com\/v\/subway\/4b4e85f3f964a52066f026e3\/menu","mobileUrl":"https:\/\/foursquare.com\/v\/4b4e85f3f964a52066f026e3\/device_menu"},"allowMenuUrlEdit":true,"beenHere":{"lastCheckinExpiredAt":0},"specials":{"count":0,"items":[]},"referralId":"v-1483291055","venueChains":[{"id":"556e0bfaa7c82e6b724f552f"}],"hasPerk":false},{"id":"50cf5e02e4b0e9d6497f5be0","name":"Mr Chow - Malibu","contact":{},"location":{"address":"3835 Cross Creek Rd #18A","lat":34.03566074996926,"lng":-118.6870922696733,"labeledLatLngs":[{"label":"display","lat":34.03566074996926,"lng":-118.6870922696733}],"postalCode":"90265","cc":"US","city":"Malibu","state":"CA","country":"United States","formattedAddress":["3835 Cross Creek Rd #18A","Malibu, CA 90265","United States"]},"categories":[{"id":"4bf58dd8d48988d142941735","name":"Asian Restaurant","pluralName":"Asian Restaurants","shortName":"Asian","icon":{"prefix":"https:\/\/ss3.4sqi.net\/img\/categories_v2\/food\/asian_","suffix":".png"},"primary":true}],"verified":false,"stats":{"checkinsCount":335,"usersCount":279,"tipCount":7},"url":"http:\/\/mrchow.com","allowMenuUrlEdit":true,"beenHere":{"lastCheckinExpiredAt":0},"specials":{"count":0,"items":[]},"referralId":"v-1483291055","venueChains":[],"hasPerk":false},{"id":"51849121498e4d97a2c899c4","name":"Kaishin Malibu","contact":{"phone":"3103179777","formattedPhone":"(310) 317-9777"},"location":{"address":"23715 Malibu Rd","lat":34.034093,"lng":-118.691727,"labeledLatLngs":[{"label":"display","lat":34.034093,"lng":-118.691727}],"postalCode":"90265","cc":"US","city":"Malibu","state":"CA","country":"United States","formattedAddress":["23715 Malibu Rd","Malibu, CA 90265","United States"]},"categories":[{"id":"4bf58dd8d48988d142941735","name":"Asian Restaurant","pluralName":"Asian Restaurants","shortName":"Asian","icon":{"prefix":"https:\/\/ss3.4sqi.net\/img\/categories_v2\/food\/asian_","suffix":".png"},"primary":true}],"verified":false,"stats":{"checkinsCount":76,"usersCount":64,"tipCount":6},"hasMenu":true,"menu":{"type":"Menu","label":"Menu","anchor":"View Menu","url":"https:\/\/foursquare.com\/v\/kaishin-malibu\/51849121498e4d97a2c899c4\/menu","mobileUrl":"https:\/\/foursquare.com\/v\/51849121498e4d97a2c899c4\/device_menu"},"allowMenuUrlEdit":true,"beenHere":{"lastCheckinExpiredAt":0},"specials":{"count":0,"items":[]},"referralId":"v-1483291055","venueChains":[],"hasPerk":false},{"id":"4a849d32f964a5201bfd1fe3","name":"Tra di Noi","contact":{"phone":"3104560169","formattedPhone":"(310) 456-0169"},"location":{"address":"3835 Cross Creek Rd","crossStreet":"in Malibu Country Mart","lat":34.035884048444025,"lng":-118.68632733821869,"labeledLatLngs":[{"label":"display","lat":34.035884048444025,"lng":-118.68632733821869}],"postalCode":"90265","cc":"US","city":"Malibu","state":"CA","country":"United States","formattedAddress":["3835 Cross Creek Rd (in Malibu Country Mart)","Malibu, CA 90265","United States"]},"categories":[{"id":"4bf58dd8d48988d110941735","name":"Italian Restaurant","pluralName":"Italian Restaurants","shortName":"Italian","icon":{"prefix":"https:\/\/ss3.4sqi.net\/img\/categories_v2\/food\/italian_","suffix":".png"},"primary":true}],"verified":false,"stats":{"checkinsCount":976,"usersCount":718,"tipCount":21},"url":"http:\/\/www.tradinoimalibu.com","hasMenu":true,"menu":{"type":"Menu","label":"Menu","anchor":"View Menu","url":"https:\/\/foursquare.com\/v\/tra-di-noi\/4a849d32f964a5201bfd1fe3\/menu","mobileUrl":"https:\/\/foursquare.com\/v\/4a849d32f964a5201bfd1fe3\/device_menu"},"allowMenuUrlEdit":true,"beenHere":{"lastCheckinExpiredAt":0},"specials":{"count":0,"items":[]},"referralId":"v-1483291055","venueChains":[],"hasPerk":false},{"id":"4a5be975f964a520fbbb1fe3","name":"The Country Kitchen","contact":{"phone":"3104568708","formattedPhone":"(310) 456-8708"},"location":{"address":"21239 Pacific Coast Hwy","crossStreet":"Las Flores","lat":34.03728926345061,"lng":-118.63767713614031,"labeledLatLngs":[{"label":"display","lat":34.03728926345061,"lng":-118.63767713614031}],"postalCode":"90265","cc":"US","city":"Malibu","state":"CA","country":"United States","formattedAddress":["21239 Pacific Coast Hwy (Las Flores)","Malibu, CA 90265","United States"]},"categories":[{"id":"4bf58dd8d48988d16c941735","name":"Burger Joint","pluralName":"Burger Joints","shortName":"Burgers","icon":{"prefix":"https:\/\/ss3.4sqi.net\/img\/categories_v2\/food\/burger_","suffix":".png"},"primary":true}],"verified":false,"stats":{"checkinsCount":473,"usersCount":256,"tipCount":18},"url":"http:\/\/countrykitchenrestaurants.com","allowMenuUrlEdit":true,"beenHere":{"lastCheckinExpiredAt":0},"specials":{"count":0,"items":[]},"referralId":"v-1483291055","venueChains":[],"hasPerk":false},{"id":"4a7614e4f964a52023e21fe3","name":"John's Garden","contact":{"phone":"3104568377","formattedPhone":"(310) 456-8377"},"location":{"address":"3835 Cross Creek Rd","crossStreet":"in Malibu Country Mart","lat":34.035966,"lng":-118.6858673,"labeledLatLngs":[{"label":"display","lat":34.035966,"lng":-118.6858673}],"postalCode":"90265","cc":"US","city":"Malibu","state":"CA","country":"United States","formattedAddress":["3835 Cross Creek Rd (in Malibu Country Mart)","Malibu, CA 90265","United States"]},"categories":[{"id":"4bf58dd8d48988d1c5941735","name":"Sandwich Place","pluralName":"Sandwich Places","shortName":"Sandwiches","icon":{"prefix":"https:\/\/ss3.4sqi.net\/img\/categories_v2\/food\/deli_","suffix":".png"},"primary":true}],"verified":false,"stats":{"checkinsCount":1233,"usersCount":688,"tipCount":19},"url":"http:\/\/johnsgardenmalibu.com","hasMenu":true,"menu":{"type":"Menu","label":"Menu","anchor":"View Menu","url":"https:\/\/foursquare.com\/v\/johns-garden\/4a7614e4f964a52023e21fe3\/menu","mobileUrl":"https:\/\/foursquare.com\/v\/4a7614e4f964a52023e21fe3\/device_menu"},"allowMenuUrlEdit":true,"beenHere":{"lastCheckinExpiredAt":0},"specials":{"count":0,"items":[]},"referralId":"v-1483291055","venueChains":[],"hasPerk":false},{"id":"4b7d9f3ef964a52069ca2fe3","name":"Bui Sushi","contact":{"phone":"3104561500","formattedPhone":"(310) 456-1500"},"location":{"address":"23733 Malibu Rd","lat":34.0341117253875,"lng":-118.69290716312115,"labeledLatLngs":[{"label":"display","lat":34.0341117253875,"lng":-118.69290716312115}],"postalCode":"90265","cc":"US","city":"Malibu","state":"CA","country":"United States","formattedAddress":["23733 Malibu Rd","Malibu, CA 90265","United States"]},"categories":[{"id":"4bf58dd8d48988d1d2941735","name":"Sushi Restaurant","pluralName":"Sushi Restaurants","shortName":"Sushi","icon":{"prefix":"https:\/\/ss3.4sqi.net\/img\/categories_v2\/food\/sushi_","suffix":".png"},"primary":true}],"verified":false,"stats":{"checkinsCount":1041,"usersCount":549,"tipCount":21},"url":"http:\/\/buisushi.com","allowMenuUrlEdit":true,"beenHere":{"lastCheckinExpiredAt":0},"specials":{"count":0,"items":[]},"referralId":"v-1483291055","venueChains":[],"hasPerk":false},{"id":"5845cea04988da027c4be583","name":"BurgerFi","contact":{"phone":"3103170200","formattedPhone":"(310) 317-0200","twitter":"burgerfi"},"location":{"address":"3939 Cross Creek Road","crossStreet":"Pacific Coast Highway","lat":34.03603,"lng":-118.68552,"labeledLatLngs":[{"label":"display","lat":34.03603,"lng":-118.68552}],"postalCode":"90265","cc":"US","city":"Malibu","state":"CA","country":"United States","formattedAddress":["3939 Cross Creek Road (Pacific Coast Highway)","Malibu, CA 90265","United States"]},"categories":[{"id":"4bf58dd8d48988d16c941735","name":"Burger Joint","pluralName":"Burger Joints","shortName":"Burgers","icon":{"prefix":"https:\/\/ss3.4sqi.net\/img\/categories_v2\/food\/burger_","suffix":".png"},"primary":true}],"verified":true,"stats":{"checkinsCount":4,"usersCount":4,"tipCount":1},"url":"http:\/\/order.burgerfi.com\/menu\/malibu#w2WNLJ","allowMenuUrlEdit":true,"beenHere":{"lastCheckinExpiredAt":0},"specials":{"count":0,"items":[]},"referralId":"v-1483291055","venueChains":[],"hasPerk":false},{"id":"4b8a090ef964a520bf5c32e3","name":"Jack in the Box","contact":{"phone":"3104568943","formattedPhone":"(310) 456-8943","twitter":"jackbox","facebook":"46895347303","facebookName":"Jack in the Box"},"location":{"address":"23017 Pacific Coast Hwy","lat":34.03736436188792,"lng":-118.67747604846954,"labeledLatLngs":[{"label":"display","lat":34.03736436188792,"lng":-118.67747604846954}],"postalCode":"90265","cc":"US","city":"Malibu","state":"CA","country":"United States","formattedAddress":["23017 Pacific Coast Hwy","Malibu, CA 90265","United States"]},"categories":[{"id":"4bf58dd8d48988d16c941735","name":"Burger Joint","pluralName":"Burger Joints","shortName":"Burgers","icon":{"prefix":"https:\/\/ss3.4sqi.net\/img\/categories_v2\/food\/burger_","suffix":".png"},"primary":true}],"verified":true,"stats":{"checkinsCount":797,"usersCount":587,"tipCount":9},"url":"http:\/\/www.jackinthebox.com","hasMenu":true,"menu":{"type":"Menu","label":"Menu","anchor":"View Menu","url":"https:\/\/foursquare.com\/v\/jack-in-the-box\/4b8a090ef964a520bf5c32e3\/menu","mobileUrl":"https:\/\/foursquare.com\/v\/4b8a090ef964a520bf5c32e3\/device_menu"},"allowMenuUrlEdit":true,"beenHere":{"lastCheckinExpiredAt":0},"specials":{"count":0,"items":[]},"storeId":"160","referralId":"v-1483291055","venueChains":[{"id":"556e1846a7c82e6b72513d66"}],"hasPerk":false}]}}