{"meta":{"code":200,"requestId":"586939a24c1f676cb5f64421"},"response":{"venues":[{"id":"4a8b29b1f964a5209f0b20e3","name":"Porto's Bakery & Cafe","contact":{"phone":"8189565996","formattedPhone":"(818) 956-5996","facebook":"46139506983","facebookUsername":"portosbakery","facebookName":"Porto's Bakery"},"location":{"address":"315 N Brand Blvd","crossStreet":"at California Ave","lat":34.1503879754695,"lng":-118.25532615379078,"postalCode":"91203","cc":"US","neighborhood":"City Center, Glendale, CA","city":"Glendale","state":"CA","country":"United States","formattedAddress":["315 N Brand Blvd (at California Ave)","Glendale, CA 91203","United States"]},"categories":[{"id":"4bf58dd8d48988d16a941735","name":"Bakery","pluralName":"Bakeries","shortName":"Bakery","icon":{"prefix":"https:\/\/ss3.4sqi.net\/img\/categories_v2\/food\/bakery_","suffix":".png"},"primary":true}],"verified":false,"stats":{"checkinsCount":29680,"usersCount":14477,"tipCount":376},"url":"http:\/\/www.portosbakery.com","hasMenu":true,"menu":{"type":"Menu","label":"Menu","anchor":"View Menu","url":"https:\/\/foursquare.com\/v\/portos-bakery--cafe\/4a8b29b1f964a5209f0b20e3\/menu","mobileUrl":"https:\/\/foursquare.com\/v\/4a8b29b1f964a5209f0b20e3\/device_menu"},"allowMenuUrlEdit":true,"beenHere":{"lastCheckinExpiredAt":0},"specials":{"count":0,"items":[]},"referralId":"v-1483291042","venueChains":[],"hasPerk":false},{"id":"4a6f9d1ff964a5209cd61fe3","name":"Pavilions","contact":{"phone":"3234614167","formattedPhone":"(323) 461-4167"},"location":{"address":"727 Vine St","crossStreet":"at Melrose Ave.","lat":34.08427794240406,"lng":-118.32713456103853,"labeledLatLngs":[{"label":"display","lat":34.08427794240406,"lng":-118.32713456103853}],"postalCode":"90038","cc":"US","city":"Los Angeles","state":"CA","country":"United States","formattedAddress":["727 Vine St (at Melrose Ave.)","Los Angeles, CA 90038","United States"]},"categories":[{"id":"52f2ab2ebcbc57f1066b8b46","name":"Supermarket","pluralName":"Supermarkets","shortName":"Supermarket","icon":{"prefix":"https:\/\/ss3.4sqi.net\/img\/categories_v2\/shops\/food_grocery_","suffix":".png"},"primary":true}],"verified":true,"stats":{"checkinsCount":9718,"usersCount":2150,"tipCount":27},"allowMenuUrlEdit":true,"beenHere":{"lastCheckinExpiredAt":0},"specials":{"count":0,"items":[]},"referralId":"v-1483291042","venueChains":[],"hasPerk":false},{"id":"57e30319498eaf0acb793bd5","name":"Shake Shack","contact":{"phone":"8188581612","formattedPhone":"(818) 858-1612","twitter":"shakeshack"},"location":{"address":"252 S Brand Blvd","crossStreet":"Colorado St","lat":34.142691,"lng":-118.254765,"labeledLatLngs":[{"label":"display","lat":34.142691,"lng":-118.254765}],"postalCode":"91204","cc":"US","city":"Glendale","state":"CA","country":"United States","formattedAddress":["252 S Brand Blvd (Colorado St)","Glendale, CA 91204","United States"]},"categories":[{"id":"4bf58dd8d48988d16c941735","name":"Burger Joint","pluralName":"Burger Joints","shortName":"Burgers","icon":{"prefix":"https:\/\/ss3.4sqi.net\/img\/categories_v2\/food\/burger_","suffix":".png"},"primary":true}],"verified":false,"stats":{"checkinsCount":795,"usersCount":622,"tipCount":7},"url":"http:\/\/www.shakeshack.com","allowMenuUrlEdit":true,"beenHere":{"lastCheckinExpiredAt":0},"specials":{"count":0,"items":[]},"referralId":"v-1483291042","venueChains":[{"id":"5569f96da7c8896abe7d2328"}],"hasPerk":false},{"id":"4a6a3e68f964a520eecc1fe3","name":"Whole Foods Market","contact":{"phone":"8185483695","formattedPhone":"(818) 548-3695","twitter":"wfmlosangeles","facebook":"76116434516","facebookUsername":"WFMGlendale","facebookName":"Whole Foods Market"},"location":{"address":"331 North Glendale Ave","crossStreet":"Btwn. E. California Ave. & E. Lexington Dr.","lat":34.15111067297316,"lng":-118.24577263826684,"labeledLatLngs":[{"label":"display","lat":34.15111067297316,"lng":-118.24577263826684}],"postalCode":"91206","cc":"US","city":"Glendale","state":"CA","country":"United States","formattedAddress":["331 North Glendale Ave (Btwn. E. California Ave. & E. Lexington Dr.)","Glendale, CA 91206","United States"]},"categories":[{"id":"4bf58dd8d48988d118951735","name":"Grocery Store","pluralName":"Grocery Stores","shortName":"Grocery Store","icon":{"prefix":"https:\/\/ss3.4sqi.net\/img\/categories_v2\/shops\/food_grocery_","suffix":".png"},"primary":true}],"verified":true,"stats":{"checkinsCount":13264,"usersCount":3349,"tipCount":59},"url":"http:\/\/www.wholefoodsmarket.com\/stores\/glendale","allowMenuUrlEdit":true,"beenHere":{"lastCheckinExpiredAt":0},"specials":{"count":0,"items":[]},"storeId":"GLN","referralId":"v-1483291042","venueChains":[{"id":"556cdf5baceaff43eb042df6"}],"hasPerk":false},{"id":"5274600411d217980cf6e4f3","name":"Din Tai Fung Dumpling House #3","contact":{"phone":"8185515561","formattedPhone":"(818) 551-5561"},"location":{"address":"171 Caruso Ave","crossStreet":"at Brand Blvd","lat":34.1430792193232,"lng":-118.25506348206916,"labeledLatLngs":[{"label":"display","lat":34.1430792193232,"lng":-118.25506348206916}],"postalCode":"91210","cc":"US","city":"Glendale","state":"CA","country":"United States","formattedAddress":["171 Caruso Ave (at Brand Blvd)","Glendale, CA 91210","United States"]},"categories":[{"id":"4bf58dd8d48988d108941735","name":"Dumpling Restaurant","pluralName":"Dumpling Restaurants","shortName":"Dumplings","icon":{"prefix":"https:\/\/ss3.4sqi.net\/img\/categories_v2\/food\/dumplings_","suffix":".png"},"primary":true}],"verified":false,"stats":{"checkinsCount":8646,"usersCount":4833,"tipCount":101},"url":"http:\/\/www.dintaifungusa.com","hasMenu":true,"menu":{"type":"Menu","label":"Menu","anchor":"View Menu","url":"https:\/\/foursquare.com\/v\/din-tai-fung-dumpling-house-3\/5274600411d217980cf6e4f3\/menu","mobileUrl":"https:\/\/foursquare.com\/v\/5274600411d217980cf6e4f3\/device_menu"},"allowMenuUrlEdit":true,"beenHere":{"lastCheckinExpiredAt":0},"specials":{"count":0,"items":[]},"referralId":"v-1483291042","venueChains":[],"hasPerk":false},{"id":"49bad052f964a520b3531fe3","name":"Intelligentsia Coffee & Tea","contact":{"phone":"3236636173","formattedPhone":"(323) 663-6173","twitter":"IntelliSilverLa"},"location":{"address":"3922 W Sunset Blvd","crossStreet":"at Santa Monica Blvd","lat":34.0921350189352,"lng":-118.28024596659556,"postalCode":"90029","cc":"US","city":"Los Angeles","state":"CA","country":"United States","formattedAddress":["3922 W Sunset Blvd (at Santa Monica Blvd)","Los Angeles, CA 90029","United States"]},"categories":[{"id":"4bf58dd8d48988d1e0931735","name":"Coffee Shop","pluralName":"Coffee Shops","shortName":"Coffee Shop","icon":{"prefix":"https:\/\/ss3.4sqi.net\/img\/categories_v2\/food\/coffeeshop_","suffix":".png"},"primary":true}],"verified":false,"stats":{"checkinsCount":26251,"usersCount":9990,"tipCount":226},"url":"http:\/\/www.intelligentsiacoffee.com\/location\/silver-lake-coffeebar","hasMenu":true,"menu":{"type":"Menu","label":"Menu","anchor":"View Menu","url":"https:\/\/foursquare.com\/v\/intelligentsia-coffee--tea\/49bad052f964a520b3531fe3\/menu","mobileUrl":"https:\/\/foursquare.com\/v\/49bad052f964a520b3531fe3\/device_menu"},"allowMenuUrlEdit":true,"beenHere":{"lastCheckinExpiredAt":0},"specials":{"count":0,"items":[]},"referralId":"v-1483291042","venueChains":[{"id":"56323c71498e49163fc1fd67"}],"hasPerk":false},{"id":"4a7495c3f964a520bdde1fe3","name":"In-N-Out Burger","contact":{"phone":"8007861000","formattedPhone":"(800) 786-1000","twitter":"innoutburger"},"location":{"address":"119 S Brand Blvd","crossStreet":"btwn Broadway & Harvard St","lat":34.14568596918725,"lng":-118.2548189163208,"labeledLatLngs":[{"label":"display","lat":34.14568596918725,"lng":-118.2548189163208}],"postalCode":"91204","cc":"US","city":"Glendale","state":"CA","country":"United States","formattedAddress":["119 S Brand Blvd (btwn Broadway & Harvard St)","Glendale, CA 91204","United States"]},"categories":[{"id":"4bf58dd8d48988d16c941735","name":"Burger Joint","pluralName":"Burger Joints","shortName":"Burgers","icon":{"prefix":"https:\/\/ss3.4sqi.net\/img\/categories_v2\/food\/burger_","suffix":".png"},"primary":true}],"verified":true,"stats":{"checkinsCount":9138,"usersCount":4823,"tipCount":95},"url":"http:\/\/www.in-n-out.com","hasMenu":true,"menu":{"type":"Menu","label":"Menu","anchor":"View Menu","url":"https:\/\/foursquare.com\/v\/innout-burger\/4a7495c3f964a520bdde1fe3\/menu","mobileUrl":"https:\/\/foursquare.com\/v\/4a7495c3f964a520bdde1fe3\/device_menu"},"allowMenuUrlEdit":true,"beenHere":{"lastCheckinExpiredAt":0},"specials":{"count":0,"items":[]},"storeId":"174","referralId":"v-1483291042","venueChains":[{"id":"556cdd65aceaff43eb03dddb"}],"hasPerk":false},{"id":"4f038d376da1b97b1576a4e2","name":"Sqirl Kitchen","contact":{"phone":"2133946526","formattedPhone":"(213) 394-6526","twitter":"sqirlla"},"location":{"address":"720 N Virgil Ave","crossStreet":"at Marathon St","lat":34.08452058394974,"lng":-118.28676390018508,"labeledLatLngs":[{"label":"display","lat":34.08452058394974,"lng":-118.28676390018508}],"postalCode":"90029","cc":"US","city":"Los Angeles","state":"CA","country":"United States","formattedAddress":["720 N Virgil Ave (at Marathon St)","Los Angeles, CA 90029","United States"]},"categories":[{"id":"4bf58dd8d48988d157941735","name":"New American Restaurant","pluralName":"New American Restaurants","shortName":"New American","icon":{"prefix":"https:\/\/ss3.4sqi.net\/img\/categories_v2\/food\/newamerican_","suffix":".png"},"primary":true}],"verified":false,"stats":{"checkinsCount":5993,"usersCount":3555,"tipCount":143},"url":"http:\/\/sqirlla.com","menu":{"type":"Menu","label":"Menu","anchor":"View Menu","url":"http:\/\/sqirlla.com\/menu\/","mobileUrl":"http:\/\/sqirlla.com\/menu\/","externalUrl":"http:\/\/sqirlla.com\/menu\/"},"allowMenuUrlEdit":true,"beenHere":{"lastCheckinExpiredAt":0},"specials":{"count":0,"items":[]},"referralId":"v-1483291042","venueChains":[],"hasPerk":false},{"id":"56e42c44498e3cf797c9bb46","name":"Dunkin' Donuts","contact":{"phone":"3236655745","formattedPhone":"(323) 665-5745","twitter":"dunkindonuts","facebook":"504997576203914","facebookUsername":"DunkinDonuts","facebookName":"Dunkin' Donuts"},"location":{"address":"3100 Glendale Blvd","crossStreet":"at Glenhurst Ave","lat":34.116162087120195,"lng":-118.26241813781739,"labeledLatLngs":[{"label":"display","lat":34.116162087120195,"lng":-118.26241813781739}],"postalCode":"90039","cc":"US","city":"Los Angeles","state":"CA","country":"United States","formattedAddress":["3100 Glendale Blvd (at Glenhurst Ave)","Los Angeles, CA 90039","United States"]},"categories":[{"id":"4bf58dd8d48988d148941735","name":"Donut Shop","pluralName":"Donut Shops","shortName":"Donuts","icon":{"prefix":"https:\/\/ss3.4sqi.net\/img\/categories_v2\/food\/donuts_","suffix":".png"},"primary":true}],"verified":false,"stats":{"checkinsCount":1085,"usersCount":319,"tipCount":6},"url":"http:\/\/www.dunkindonuts.com","allowMenuUrlEdit":true,"beenHere":{"lastCheckinExpiredAt":0},"specials":{"count":0,"items":[]},"referralId":"v-1483291042","venueChains":[{"id":"556f676fbd6a75a99038d8f0"}],"hasPerk":false},{"id":"57fbf43f498e83e37b63c61c","name":"Shake Shack","contact":{"phone":"3235937763","formattedPhone":"(323) 593-7763","twitter":"shakeshack"},"location":{"address":"6201 Hollywood Blvd","lat":34.101727,"lng":-118.32427,"labeledLatLngs":[{"label":"display","lat":34.101727,"lng":-118.32427}],"postalCode":"90028","cc":"US","city":"Los Angeles","state":"CA","country":"United States","formattedAddress":["6201 Hollywood Blvd","Los Angeles, CA 90028","United States"]},"categories":[{"id":"4bf58dd8d48988d16c941735","name":"Burger Joint","pluralName":"Burger Joints","shortName":"Burgers","icon":{"prefix":"https:\/\/ss3.4sqi.net\/img\/categories_v2\/food\/burger_","suffix":".png"},"primary":true}],"verified":false,"stats":{"checkinsCount":509,"usersCount":397,"tipCount":6},"url":"http:\/\/www.shakeshack.com","allowMenuUrlEdit":true,"beenHere":{"lastCheckinExpiredAt":0},"specials":{"count":0,"items":[]},"referralId":"v-1483291042","venueChains":[{"id":"5569f96da7c8896abe7d2328"}],"hasPerk":false},{"id":"4aa57dacf964a520964820e3","name":"VONS","contact":{"phone":"8182467161","formattedPhone":"(818) 246-7161"},"location":{"address":"311 W Los Feliz Rd","crossStreet":"San Fernando Rd","lat":34.12928571138484,"lng":-118.2588093710991,"labeledLatLngs":[{"label":"display","lat":34.12928571138484,"lng":-118.2588093710991}],"postalCode":"91204","cc":"US","city":"Glendale","state":"CA","country":"United States","formattedAddress":["311 W Los Feliz Rd (San Fernando Rd)","Glendale, CA 91204","United States"]},"categories":[{"id":"52f2ab2ebcbc57f1066b8b46","name":"Supermarket","pluralName":"Supermarkets","shortName":"Supermarket","icon":{"prefix":"https:\/\/ss3.4sqi.net\/img\/categories_v2\/shops\/food_grocery_","suffix":".png"},"primary":true}],"verified":true,"stats":{"checkinsCount":5107,"usersCount":1153,"tipCount":20},"allowMenuUrlEdit":true,"beenHere":{"lastCheckinExpiredAt":0},"specials":{"count":0,"items":[]},"storeId":"2254","referralId":"v-1483291042","venueChains":[{"id":"556c9b97a7c87f637869e1a1"}],"hasPerk":false},{"id":"566c50d8498eb66bffa857d4","name":"Dunkin' Donuts","contact":{"phone":"3235369220","formattedPhone":"(323) 536-9220","twitter":"dunkindonuts","facebook":"504997576203914","facebookUsername":"DunkinDonuts","facebookName":"Dunkin' Donuts"},"location":{"address":"6201 Hollywood Blvd #130","crossStreet":"at Argyle Ave","lat":34.10176977783252,"lng":-118.3252795022777,"labeledLatLngs":[{"label":"display","lat":34.10176977783252,"lng":-118.3252795022777}],"postalCode":"90028","cc":"US","city":"Los Angeles","state":"CA","country":"United States","formattedAddress":["6201 Hollywood Blvd #130 (at Argyle Ave)","Los Angeles, CA 90028","United States"]},"categories":[{"id":"4bf58dd8d48988d148941735","name":"Donut Shop","pluralName":"Donut Shops","shortName":"Donuts","icon":{"prefix":"https:\/\/ss3.4sqi.net\/img\/categories_v2\/food\/donuts_","suffix":".png"},"primary":true}],"verified":false,"stats":{"checkinsCount":1154,"usersCount":519,"tipCount":6},"url":"http:\/\/www.dunkindonuts.com","allowMenuUrlEdit":true,"beenHere":{"lastCheckinExpiredAt":0},"specials":{"count":0,"items":[]},"referralId":"v-1483291042","venueChains":[{"id":"556f676fbd6a75a99038d8f0"}],"hasPerk":false},{"id":"55c13f72498e710ef531eef0","name":"Alfred Coffee {Silverlake}","contact":{"phone":"+3235226984","formattedPhone":"+32 3 522 69 84","twitter":"alfredcoffee"},"location":{"address":"3337 1\/2 W Sunset Blvd","crossStreet":"Micheltorena","lat":34.08748809619405,"lng":-118.2757219515892,"labeledLatLngs":[{"label":"display","lat":34.08748809619405,"lng":-118.2757219515892}],"postalCode":"90026","cc":"US","city":"Los Angeles","state":"CA","country":"United States","formattedAddress":["3337 1\/2 W Sunset Blvd (Micheltorena)","Los Angeles, CA 90026","United States"]},"categories":[{"id":"4bf58dd8d48988d1e0931735","name":"Coffee Shop","pluralName":"Coffee Shops","shortName":"Coffee Shop","icon":{"prefix":"https:\/\/ss3.4sqi.net\/img\/categories_v2\/food\/coffeeshop_","suffix":".png"},"primary":true}],"verified":true,"stats":{"checkinsCount":1163,"usersCount":546,"tipCount":12},"url":"http:\/\/alfredcoffee.com","allowMenuUrlEdit":true,"beenHere":{"lastCheckinExpiredAt":0},"specials":{"count":0,"items":[]},"venuePage":{"id":"136337080"},"referralId":"v-1483291042","venueChains":[],"hasPerk":false},{"id":"4b77ac13f964a52061a62ee3","name":"California Donuts","contact":{"phone":"2133853318","formattedPhone":"(213) 385-3318","twitter":"cadonuts"},"location":{"address":"3540 W 3rd St","crossStreet":"at New Hampshire","lat":34.0690024,"lng":-118.29312086105347,"labeledLatLngs":[{"label":"display","lat":34.0690024,"lng":-118.29312086105347}],"postalCode":"90020","cc":"US","city":"Los Angeles","state":"CA","country":"United States","formattedAddress":["3540 W 3rd St (at New Hampshire)","Los Angeles, CA 90020","United States"]},"categories":[{"id":"4bf58dd8d48988d148941735","name":"Donut Shop","pluralName":"Donut Shops","shortName":"Donuts","icon":{"prefix":"https:\/\/ss3.4sqi.net\/img\/categories_v2\/food\/donuts_","suffix":".png"},"primary":true}],"verified":true,"stats":{"checkinsCount":4395,"usersCount":2346,"tipCount":70},"url":"http:\/\/www.cadonuts.com","hasMenu":true,"menu":{"type":"Menu","label":"Menu","anchor":"View Menu","url":"https:\/\/foursquare.com\/v\/california-donuts\/4b77ac13f964a52061a62ee3\/menu","mobileUrl":"https:\/\/foursquare.com\/v\/4b77ac13f964a52061a62ee3\/device_menu"},"allowMenuUrlEdit":true,"beenHere":{"lastCheckinExpiredAt":0},"specials":{"count":0,"items":[]},"venuePage":{"id":"70632583"},"storeId":"","referralId":"v-1483291042","venueChains":[],"hasPerk":false},{"id":"502e6f40e4b06d3d078c6132","name":"Starbucks","contact":{"phone":"3234644601","formattedPhone":"(323) 464-4601","twitter":"starbucks","facebook":"22092443056","facebookUsername":"Starbucks","facebookName":"Starbucks"},"location":{"address":"6290 Hollywood Blvd","lat":34.10155903627468,"lng":-118.32659231519521,"labeledLatLngs":[{"label":"display","lat":34.10155903627468,"lng":-118.32659231519521}],"postalCode":"90028","cc":"US","city":"Los Angeles","state":"CA","country":"United States","formattedAddress":["6290 Hollywood Blvd","Hollywood, CA 90028","United States"]},"categories":[{"id":"4bf58dd8d48988d1e0931735","name":"Coffee Shop","pluralName":"Coffee Shops","shortName":"Coffee Shop","icon":{"prefix":"https:\/\/ss3.4sqi.net\/img\/categories_v2\/food\/coffeeshop_","suffix":".png"},"primary":true}],"verified":true,"stats":{"checkinsCount":8044,"usersCount":3515,"tipCount":42},"url":"http:\/\/www.starbucks.com\/","hasMenu":true,"menu":{"type":"Menu","label":"Menu","anchor":"View Menu","url":"https:\/\/foursquare.com\/v\/starbucks\/502e6f40e4b06d3d078c6132\/menu","mobileUrl":"https:\/\/foursquare.com\/v\/502e6f40e4b06d3d078c6132\/device_menu"},"allowMenuUrlEdit":true,"beenHere":{"lastCheckinExpiredAt":0},"specials":{"count":0,"items":[]},"storeId":"16980","referralId":"v-1483291042","venueChains":[{"id":"556f676fbd6a75a99038d8ec"}],"hasPerk":false},{"id":"4a62748bf964a5201dc41fe3","name":"Raffi's Place","contact":{"phone":"8182407411","formattedPhone":"(818) 240-7411","twitter":"raffisplace"},"location":{"address":"211 E Broadway","crossStreet":"btwn Maryland & Louise","lat":34.14652796604761,"lng":-118.25334468541912,"labeledLatLngs":[{"label":"display","lat":34.14652796604761,"lng":-118.25334468541912}],"postalCode":"91205","cc":"US","city":"Glendale","state":"CA","country":"United States","formattedAddress":["211 E Broadway (btwn Maryland & Louise)","Glendale, CA 91205","United States"]},"categories":[{"id":"4bf58dd8d48988d115941735","name":"Middle Eastern Restaurant","pluralName":"Middle Eastern Restaurants","shortName":"Middle Eastern","icon":{"prefix":"https:\/\/ss3.4sqi.net\/img\/categories_v2\/food\/middleeastern_","suffix":".png"},"primary":true}],"verified":false,"stats":{"checkinsCount":5223,"usersCount":3258,"tipCount":95},"url":"http:\/\/raffisplace.com","hasMenu":true,"menu":{"type":"Menu","label":"Menu","anchor":"View Menu","url":"https:\/\/foursquare.com\/v\/raffis-place\/4a62748bf964a5201dc41fe3\/menu","mobileUrl":"https:\/\/foursquare.com\/v\/4a62748bf964a5201dc41fe3\/device_menu"},"allowMenuUrlEdit":true,"beenHere":{"lastCheckinExpiredAt":0},"specials":{"count":0,"items":[]},"referralId":"v-1483291042","venueChains":[],"hasPerk":false},{"id":"53d2423a498edbfdf169ea9e","name":"Starbucks","contact":{"phone":"3234641859","formattedPhone":"(323) 464-1859","twitter":"starbucks","facebook":"22092443056","facebookUsername":"Starbucks","facebookName":"Starbucks"},"location":{"address":"6290 Sunset Blvd.","crossStreet":"AT VINE ST","lat":34.098019510287905,"lng":-118.32660943877471,"labeledLatLngs":[{"label":"display","lat":34.098019510287905,"lng":-118.32660943877471}],"postalCode":"90028","cc":"US","city":"Los Angeles","state":"CA","country":"United States","formattedAddress":["6290 Sunset Blvd. (AT VINE ST)","Hollywood, CA 90028","United States"]},"categories":[{"id":"4bf58dd8d48988d1e0931735","name":"Coffee Shop","pluralName":"Coffee Shops","shortName":"Coffee Shop","icon":{"prefix":"https:\/\/ss3.4sqi.net\/img\/categories_v2\/food\/coffeeshop_","suffix":".png"},"primary":true}],"verified":true,"stats":{"checkinsCount":2407,"usersCount":764,"tipCount":7},"url":"http:\/\/www.starbucks.com","allowMenuUrlEdit":true,"beenHere":{"lastCheckinExpiredAt":0},"specials":{"count":0,"items":[]},"storeId":"22916","referralId":"v-1483291042","venueChains":[{"id":"556f676fbd6a75a99038d8ec"}],"hasPerk":false},{"id":"57cf2625498eb312d03ea1aa","name":"Philz Coffee","contact":{},"location":{"address":"252 S Brand Blvd","crossStreet":"Colorado Blvd","lat":34.143017,"lng":-118.254738,"labeledLatLngs":[{"label":"display","lat":34.143017,"lng":-118.254738}],"postalCode":"91204","cc":"US","city":"Glendale","state":"CA","country":"United States","formattedAddress":["252 S Brand Blvd (Colorado Blvd)","Glendale, CA 91204","United States"]},"categories":[{"id":"4bf58dd8d48988d1e0931735","name":"Coffee Shop","pluralName":"Coffee Shops","shortName":"Coffee Shop","icon":{"prefix":"https:\/\/ss3.4sqi.net\/img\/categories_v2\/food\/coffeeshop_","suffix":".png"},"primary":true}],"verified":false,"stats":{"checkinsCount":526,"usersCount":290,"tipCount":3},"allowMenuUrlEdit":true,"beenHere":{"lastCheckinExpiredAt":0},"specials":{"count":0,"items":[]},"referralId":"v-1483291042","venueChains":[{"id":"5568f13ba7c8a9cf8ec42a3e"}],"hasPerk":false},{"id":"4afe5a4bf964a520372f22e3","name":"Stout Burgers & Beers","contact":{"phone":"3234693801","formattedPhone":"(323) 469-3801","twitter":"stoutburgers"},"location":{"address":"1544 N Cahuenga Blvd","crossStreet":"at Selma Ave","lat":34.099583,"lng":-118.32941,"labeledLatLngs":[{"label":"display","lat":34.099583,"lng":-118.32941}],"postalCode":"90028","cc":"US","city":"Los Angeles","state":"CA","country":"United States","formattedAddress":["1544 N Cahuenga Blvd (at Selma Ave)","Los Angeles, CA 90028","United States"]},"categories":[{"id":"4bf58dd8d48988d16c941735","name":"Burger Joint","pluralName":"Burger Joints","shortName":"Burgers","icon":{"prefix":"https:\/\/ss3.4sqi.net\/img\/categories_v2\/food\/burger_","suffix":".png"},"primary":true}],"verified":true,"stats":{"checkinsCount":13840,"usersCount":7568,"tipCount":171},"url":"http:\/\/www.stoutburgersandbeers.com","hasMenu":true,"menu":{"type":"Menu","label":"Menu","anchor":"View Menu","url":"https:\/\/foursquare.com\/v\/stout-burgers--beers\/4afe5a4bf964a520372f22e3\/menu","mobileUrl":"https:\/\/foursquare.com\/v\/4afe5a4bf964a520372f22e3\/device_menu"},"allowMenuUrlEdit":true,"beenHere":{"lastCheckinExpiredAt":0},"specials":{"count":0,"items":[]},"venuePage":{"id":"47177188"},"storeId":"","referralId":"v-1483291042","venueChains":[],"hasPerk":false},{"id":"4ae0e2bcf964a520608321e3","name":"Alcove Cafe & Bakery","contact":{"phone":"3236440100","formattedPhone":"(323) 644-0100"},"location":{"address":"1929 Hillhurst Ave","crossStreet":"at Clarissa Ave","lat":34.10622592039629,"lng":-118.2876867055893,"labeledLatLngs":[{"label":"display","lat":34.10622592039629,"lng":-118.2876867055893}],"postalCode":"90027","cc":"US","city":"Los Angeles","state":"CA","country":"United States","formattedAddress":["1929 Hillhurst Ave (at Clarissa Ave)","Los Angeles, CA 90027","United States"]},"categories":[{"id":"4bf58dd8d48988d16d941735","name":"Café","pluralName":"Cafés","shortName":"Café","icon":{"prefix":"https:\/\/ss3.4sqi.net\/img\/categories_v2\/food\/cafe_","suffix":".png"},"primary":true}],"verified":false,"stats":{"checkinsCount":19797,"usersCount":10547,"tipCount":204},"url":"http:\/\/www.alcovecafe.com","hasMenu":true,"menu":{"type":"Menu","label":"Menu","anchor":"View Menu","url":"https:\/\/foursquare.com\/v\/alcove-cafe--bakery\/4ae0e2bcf964a520608321e3\/menu","mobileUrl":"https:\/\/foursquare.com\/v\/4ae0e2bcf964a520608321e3\/device_menu"},"allowMenuUrlEdit":true,"beenHere":{"lastCheckinExpiredAt":0},"specials":{"count":0,"items":[]},"referralId":"v-1483291042","venueChains":[],"hasPerk":false},{"id":"541487f8498ecd37177dcca6","name":"Salt & Straw","contact":{"phone":"3234660485","formattedPhone":"(323) 466-0485"},"location":{"address":"240 N Larchmont Blvd","lat":34.07589440486445,"lng":-118.32359566211613,"labeledLatLngs":[{"label":"display","lat":34.07589440486445,"lng":-118.32359566211613}],"postalCode":"90004","cc":"US","city":"Los Angeles","state":"CA","country":"United States","formattedAddress":["240 N Larchmont Blvd","Los Angeles, CA 90004","United States"]},"categories":[{"id":"4bf58dd8d48988d1c9941735","name":"Ice Cream Shop","pluralName":"Ice Cream Shops","shortName":"Ice Cream","icon":{"prefix":"https:\/\/ss3.4sqi.net\/img\/categories_v2\/food\/icecream_","suffix":".png"},"primary":true}],"verified":false,"stats":{"checkinsCount":4492,"usersCount":2678,"tipCount":68},"url":"http:\/\/saltandstraw.com","allowMenuUrlEdit":true,"beenHere":{"lastCheckinExpiredAt":0},"specials":{"count":0,"items":[]},"referralId":"v-1483291042","venueChains":[],"hasPerk":false},{"id":"4b32991ff964a5209a0f25e3","name":"Food 4 Less","contact":{"phone":"9999999999","formattedPhone":"9999999999"},"location":{"address":"5420 W Sunset Blvd","crossStreet":"btwn Western & Serrano Ave","lat":34.097600650702795,"lng":-118.30780099789489,"labeledLatLngs":[{"label":"display","lat":34.097600650702795,"lng":-118.30780099789489}],"postalCode":"90027","cc":"US","city":"Los Angeles","state":"CA","country":"United States","formattedAddress":["5420 W Sunset Blvd (btwn Western & Serrano Ave)","Los Angeles, CA 90027","United States"]},"categories":[{"id":"52f2ab2ebcbc57f1066b8b46","name":"Supermarket","pluralName":"Supermarkets","shortName":"Supermarket","icon":{"prefix":"https:\/\/ss3.4sqi.net\/img\/categories_v2\/shops\/food_grocery_","suffix":".png"},"primary":true}],"verified":true,"stats":{"checkinsCount":3632,"usersCount":1040,"tipCount":25},"url":"http:\/\/www.food4less.com\/","allowMenuUrlEdit":true,"beenHere":{"lastCheckinExpiredAt":0},"specials":{"count":0,"items":[]},"storeId":"362","referralId":"v-1483291042","venueChains":[{"id":"556a3a90a7c8957d73d563db"}],"hasPerk":false},{"id":"4b232bd9f964a5201d5424e3","name":"Barnes & Noble","contact":{"phone":"8185459146","formattedPhone":"(818) 545-9146","twitter":"bnbuzz"},"location":{"address":"The Americana at Brand","lat":34.14363482031264,"lng":-118.25679302215576,"labeledLatLngs":[{"label":"display","lat":34.14363482031264,"lng":-118.25679302215576}],"postalCode":"91210","cc":"US","city":"Glendale","state":"CA","country":"United States","formattedAddress":["The Americana at Brand","Glendale, CA 91210","United States"]},"categories":[{"id":"4bf58dd8d48988d114951735","name":"Bookstore","pluralName":"Bookstores","shortName":"Bookstore","icon":{"prefix":"https:\/\/ss3.4sqi.net\/img\/categories_v2\/shops\/bookstore_","suffix":".png"},"primary":true}],"verified":true,"stats":{"checkinsCount":8196,"usersCount":3987,"tipCount":41},"url":"http:\/\/bn.com","allowMenuUrlEdit":true,"beenHere":{"lastCheckinExpiredAt":0},"specials":{"count":0,"items":[]},"storeId":"2303","referralId":"v-1483291042","venueChains":[{"id":"556d1612aceaff43eb0990c6"}],"hasPerk":false},{"id":"51cc7c6c498eeeaf4ff761c7","name":"Go Get Em Tiger","contact":{"twitter":"ggetla","facebook":"364591260330134","facebookUsername":"ggetla","facebookName":"Go Get Em Tiger"},"location":{"address":"230 N Larchmont Blvd","lat":34.07564655569418,"lng":-118.3235671223081,"labeledLatLngs":[{"label":"display","lat":34.07564655569418,"lng":-118.3235671223081}],"postalCode":"90004","cc":"US","city":"Los Angeles","state":"CA","country":"United States","formattedAddress":["230 N Larchmont Blvd","Los Angeles, CA 90004","United States"]},"categories":[{"id":"4bf58dd8d48988d1e0931735","name":"Coffee Shop","pluralName":"Coffee Shops","shortName":"Coffee Shop","icon":{"prefix":"https:\/\/ss3.4sqi.net\/img\/categories_v2\/food\/coffeeshop_","suffix":".png"},"primary":true}],"verified":false,"stats":{"checkinsCount":5531,"usersCount":1921,"tipCount":77},"url":"http:\/\/ggetla.com","allowMenuUrlEdit":true,"beenHere":{"lastCheckinExpiredAt":0},"specials":{"count":0,"items":[]},"referralId":"v-1483291042","venueChains":[],"hasPerk":false},{"id":"4b395b35f964a5202f5b25e3","name":"Starbucks","contact":{"phone":"3236627705","formattedPhone":"(323) 662-7705","twitter":"starbucks","facebook":"22092443056","facebookUsername":"Starbucks","facebookName":"Starbucks"},"location":{"address":"1700 N Vermont Ave","lat":34.10194,"lng":-118.291464,"labeledLatLngs":[{"label":"display","lat":34.10194,"lng":-118.291464}],"postalCode":"90027","cc":"US","city":"Los Angeles","state":"CA","country":"United States","formattedAddress":["1700 N Vermont Ave","Los Angeles, CA 90027","United States"]},"categories":[{"id":"4bf58dd8d48988d1e0931735","name":"Coffee Shop","pluralName":"Coffee Shops","shortName":"Coffee Shop","icon":{"prefix":"https:\/\/ss3.4sqi.net\/img\/categories_v2\/food\/coffeeshop_","suffix":".png"},"primary":true}],"verified":true,"stats":{"checkinsCount":9905,"usersCount":2971,"tipCount":43},"url":"http:\/\/www.starbucks.com\/","hasMenu":true,"menu":{"type":"Menu","label":"Menu","anchor":"View Menu","url":"https:\/\/foursquare.com\/v\/starbucks\/4b395b35f964a5202f5b25e3\/menu","mobileUrl":"https:\/\/foursquare.com\/v\/4b395b35f964a5202f5b25e3\/device_menu"},"allowMenuUrlEdit":true,"beenHere":{"lastCheckinExpiredAt":0},"specials":{"count":0,"items":[]},"storeId":"5794","referralId":"v-1483291042","venueChains":[{"id":"556f676fbd6a75a99038d8ec"}],"hasPerk":false},{"id":"583f82c9d0bb3e21c67306f1","name":"The Tsujita Artisan Noodle","contact":{},"location":{"lat":34.14359,"lng":-118.2554,"labeledLatLngs":[{"label":"display","lat":34.14359,"lng":-118.2554}],"postalCode":"91210","cc":"US","city":"Glendale","state":"CA","country":"United States","formattedAddress":["Glendale, CA 91210","United States"]},"categories":[{"id":"55a59bace4b013909087cb24","name":"Ramen Restaurant","pluralName":"Ramen Restaurants","shortName":"Ramen","icon":{"prefix":"https:\/\/ss3.4sqi.net\/img\/categories_v2\/food\/ramen_","suffix":".png"},"primary":true}],"verified":false,"stats":{"checkinsCount":141,"usersCount":123,"tipCount":1},"allowMenuUrlEdit":true,"beenHere":{"lastCheckinExpiredAt":0},"specials":{"count":0,"items":[]},"referralId":"v-1483291042","venueChains":[],"hasPerk":false},{"id":"50611458e4b06bd054509217","name":"Silver Lake Ramen","contact":{"phone":"3236608100","formattedPhone":"(323) 660-8100","facebook":"278919985571726","facebookUsername":"SilverlakeRamen","facebookName":"Silverlake Ramen"},"location":{"address":"2927 W Sunset Blvd","lat":34.083517,"lng":-118.273649,"labeledLatLngs":[{"label":"display","lat":34.083517,"lng":-118.273649}],"postalCode":"90026","cc":"US","city":"Los Angeles","state":"CA","country":"United States","formattedAddress":["2927 W Sunset Blvd","Los Angeles, CA 90026","United States"]},"categories":[{"id":"4bf58dd8d48988d1d1941735","name":"Noodle House","pluralName":"Noodle Houses","shortName":"Noodles","icon":{"prefix":"https:\/\/ss3.4sqi.net\/img\/categories_v2\/food\/ramen_","suffix":".png"},"primary":true}],"verified":false,"stats":{"checkinsCount":5194,"usersCount":2821,"tipCount":93},"menu":{"type":"Menu","label":"Menu","anchor":"View Menu","url":"http:\/\/losangeles.menupages.com\/restaurants\/silverlake-ramen\/menu","mobileUrl":"http:\/\/losangeles.menupages.com\/restaurants\/silverlake-ramen\/menu","externalUrl":"http:\/\/losangeles.menupages.com\/restaurants\/silverlake-ramen\/menu"},"allowMenuUrlEdit":true,"beenHere":{"lastCheckinExpiredAt":0},"specials":{"count":0,"items":[]},"referralId":"v-1483291042","venueChains":[],"hasPerk":false},{"id":"4df3b60518386ecb4e3175f9","name":"Mohawk Bend","contact":{"phone":"2134832337","formattedPhone":"(213) 483-2337","twitter":"mohawkla"},"location":{"address":"2141 W Sunset Blvd","crossStreet":"at Mohawk St","lat":34.0777106,"lng":-118.26474341666666,"labeledLatLngs":[{"label":"display","lat":34.0777106,"lng":-118.26474341666666}],"postalCode":"90026","cc":"US","neighborhood":"Echo Park","city":"Los Angeles","state":"CA","country":"United States","formattedAddress":["2141 W Sunset Blvd (at Mohawk St)","Los Angeles, CA 90026","United States"]},"categories":[{"id":"4bf58dd8d48988d155941735","name":"Gastropub","pluralName":"Gastropubs","shortName":"Gastropub","icon":{"prefix":"https:\/\/ss3.4sqi.net\/img\/categories_v2\/food\/gastropub_","suffix":".png"},"primary":true}],"verified":false,"stats":{"checkinsCount":16664,"usersCount":8201,"tipCount":193},"url":"http:\/\/mohawk.la","hasMenu":true,"menu":{"type":"Menu","label":"Menu","anchor":"View Menu","url":"https:\/\/foursquare.com\/v\/mohawk-bend\/4df3b60518386ecb4e3175f9\/menu","mobileUrl":"https:\/\/foursquare.com\/v\/4df3b60518386ecb4e3175f9\/device_menu"},"allowMenuUrlEdit":true,"beenHere":{"lastCheckinExpiredAt":0},"specials":{"count":0,"items":[]},"referralId":"v-1483291042","venueChains":[],"hasPerk":false},{"id":"49cd516af964a520de591fe3","name":"Little Dom's","contact":{"phone":"3236610055","formattedPhone":"(323) 661-0055","twitter":"littledoms"},"location":{"address":"2128 Hillhurst Ave","crossStreet":"at Avocado St","lat":34.110934028445094,"lng":-118.28739166259766,"labeledLatLngs":[{"label":"display","lat":34.110934028445094,"lng":-118.28739166259766}],"postalCode":"90027","cc":"US","city":"Los Angeles","state":"CA","country":"United States","formattedAddress":["2128 Hillhurst Ave (at Avocado St)","Los Angeles, CA 90027","United States"]},"categories":[{"id":"4bf58dd8d48988d110941735","name":"Italian Restaurant","pluralName":"Italian Restaurants","shortName":"Italian","icon":{"prefix":"https:\/\/ss3.4sqi.net\/img\/categories_v2\/food\/italian_","suffix":".png"},"primary":true}],"verified":true,"stats":{"checkinsCount":11722,"usersCount":5190,"tipCount":161},"url":"http:\/\/www.littledoms.com","hasMenu":true,"menu":{"type":"Menu","label":"Menu","anchor":"View Menu","url":"https:\/\/foursquare.com\/v\/little-doms\/49cd516af964a520de591fe3\/menu","mobileUrl":"https:\/\/foursquare.com\/v\/49cd516af964a520de591fe3\/device_menu"},"allowMenuUrlEdit":true,"beenHere":{"lastCheckinExpiredAt":0},"specials":{"count":0,"items":[]},"venuePage":{"id":"32829278"},"storeId":"","referralId":"v-1483291042","venueChains":[],"hasPerk":false},{"id":"42a39200f964a520f2241fe3","name":"Millie's","contact":{"phone":"3236640404","formattedPhone":"(323) 664-0404"},"location":{"address":"3524 W Sunset Blvd","crossStreet":"at Maltman Ave","lat":34.08913239799433,"lng":-118.27672719955444,"labeledLatLngs":[{"label":"display","lat":34.08913239799433,"lng":-118.27672719955444}],"postalCode":"90026","cc":"US","city":"Los Angeles","state":"CA","country":"United States","formattedAddress":["3524 W Sunset Blvd (at Maltman Ave)","Los Angeles, CA 90026","United States"]},"categories":[{"id":"4bf58dd8d48988d143941735","name":"Breakfast Spot","pluralName":"Breakfast Spots","shortName":"Breakfast","icon":{"prefix":"https:\/\/ss3.4sqi.net\/img\/categories_v2\/food\/breakfast_","suffix":".png"},"primary":true}],"verified":false,"stats":{"checkinsCount":4537,"usersCount":2229,"tipCount":67},"url":"http:\/\/milliescafe.net","hasMenu":true,"menu":{"type":"Menu","label":"Menu","anchor":"View Menu","url":"https:\/\/foursquare.com\/v\/millies\/42a39200f964a520f2241fe3\/menu","mobileUrl":"https:\/\/foursquare.com\/v\/42a39200f964a520f2241fe3\/device_menu"},"allowMenuUrlEdit":true,"beenHere":{"lastCheckinExpiredAt":0},"specials":{"count":0,"items":[]},"referralId":"v-1483291042","venueChains":[],"hasPerk":false}]}}