{"meta":{"code":200,"requestId":"586939a1db04f53a2837a8ea"},"response":{"venues":[{"id":"4a77a333f964a520f4e41fe3","name":"In-N-Out Burger","contact":{"phone":"8007861000","formattedPhone":"(800) 786-1000","twitter":"innoutburger"},"location":{"address":"310 Harvey Dr","crossStreet":"at CA-2 & CA-134 Fwy","lat":34.14865938067212,"lng":-118.22735577821732,"labeledLatLngs":[{"label":"display","lat":34.14865938067212,"lng":-118.22735577821732}],"postalCode":"91206","cc":"US","city":"Glendale","state":"CA","country":"United States","formattedAddress":["310 Harvey Dr (at CA-2 & CA-134 Fwy)","Glendale, CA 91206","United States"]},"categories":[{"id":"4bf58dd8d48988d16c941735","name":"Burger Joint","pluralName":"Burger Joints","shortName":"Burgers","icon":{"prefix":"https:\/\/ss3.4sqi.net\/img\/categories_v2\/food\/burger_","suffix":".png"},"primary":true}],"verified":true,"stats":{"checkinsCount":11258,"usersCount":4659,"tipCount":56},"url":"http:\/\/www.in-n-out.com","hasMenu":true,"menu":{"type":"Menu","label":"Menu","anchor":"View Menu","url":"https:\/\/foursquare.com\/v\/innout-burger\/4a77a333f964a520f4e41fe3\/menu","mobileUrl":"https:\/\/foursquare.com\/v\/4a77a333f964a520f4e41fe3\/device_menu"},"allowMenuUrlEdit":true,"beenHere":{"lastCheckinExpiredAt":0},"specials":{"count":0,"items":[]},"storeId":"157","referralId":"v-1483291041","venueChains":[{"id":"556cdd65aceaff43eb03dddb"}],"hasPerk":false},{"id":"4b4935bcf964a520216a26e3","name":"Glendale Adventist Medical Center","contact":{"phone":"8184098000","formattedPhone":"(818) 409-8000"},"location":{"address":"1509 Wilson Ter","crossStreet":"at E Chevy Chase Dr.","lat":34.1503726002295,"lng":-118.23020492060655,"labeledLatLngs":[{"label":"display","lat":34.1503726002295,"lng":-118.23020492060655}],"postalCode":"91206","cc":"US","city":"Glendale","state":"CA","country":"United States","formattedAddress":["1509 Wilson Ter (at E Chevy Chase Dr.)","Glendale, CA 91206","United States"]},"categories":[{"id":"4bf58dd8d48988d196941735","name":"Hospital","pluralName":"Hospitals","shortName":"Hospital","icon":{"prefix":"https:\/\/ss3.4sqi.net\/img\/categories_v2\/building\/medical_","suffix":".png"},"primary":true}],"verified":false,"stats":{"checkinsCount":6602,"usersCount":1287,"tipCount":14},"url":"http:\/\/www.glendaleadventist.com","venueRatingBlacklisted":true,"allowMenuUrlEdit":true,"beenHere":{"lastCheckinExpiredAt":0},"specials":{"count":0,"items":[]},"referralId":"v-1483291041","venueChains":[],"hasPerk":false},{"id":"4a75e33df964a52085e11fe3","name":"Starbucks","contact":{"phone":"3233408059","formattedPhone":"(323) 340-8059","twitter":"starbucks","facebook":"22092443056","facebookUsername":"Starbucks","facebookName":"Starbucks"},"location":{"address":"4430 York Blvd","lat":34.123719196300684,"lng":-118.21961623876106,"labeledLatLngs":[{"label":"display","lat":34.123719196300684,"lng":-118.21961623876106}],"postalCode":"90041","cc":"US","city":"Los Angeles","state":"CA","country":"United States","formattedAddress":["4430 York Blvd","Los Angeles, CA 90041","United States"]},"categories":[{"id":"4bf58dd8d48988d1e0931735","name":"Coffee Shop","pluralName":"Coffee Shops","shortName":"Coffee Shop","icon":{"prefix":"https:\/\/ss3.4sqi.net\/img\/categories_v2\/food\/coffeeshop_","suffix":".png"},"primary":true}],"verified":true,"stats":{"checkinsCount":6721,"usersCount":1477,"tipCount":36},"url":"http:\/\/www.starbucks.com\/","hasMenu":true,"menu":{"type":"Menu","label":"Menu","anchor":"View Menu","url":"https:\/\/foursquare.com\/v\/starbucks\/4a75e33df964a52085e11fe3\/menu","mobileUrl":"https:\/\/foursquare.com\/v\/4a75e33df964a52085e11fe3\/device_menu"},"allowMenuUrlEdit":true,"beenHere":{"lastCheckinExpiredAt":0},"specials":{"count":0,"items":[]},"storeId":"13286","referralId":"v-1483291041","venueChains":[{"id":"556f676fbd6a75a99038d8ec"}],"hasPerk":false},{"id":"541b82eb498e3d028fbdb0f3","name":"Starbucks","contact":{"phone":"8182401387","formattedPhone":"(818) 240-1387","twitter":"starbucks","facebook":"22092443056","facebookUsername":"Starbucks","facebookName":"Starbucks"},"location":{"address":"1360 Colorado St","crossStreet":"Griswold St","lat":34.14252974,"lng":-118.2350535,"labeledLatLngs":[{"label":"display","lat":34.14252974,"lng":-118.2350535}],"postalCode":"91205","cc":"US","city":"Glendale","state":"CA","country":"United States","formattedAddress":["1360 Colorado St (Griswold St)","Glendale, CA 91205","United States"]},"categories":[{"id":"4bf58dd8d48988d16d941735","name":"Café","pluralName":"Cafés","shortName":"Café","icon":{"prefix":"https:\/\/ss3.4sqi.net\/img\/categories_v2\/food\/cafe_","suffix":".png"},"primary":true}],"verified":true,"stats":{"checkinsCount":830,"usersCount":192,"tipCount":3},"url":"http:\/\/www.starbucks.com","allowMenuUrlEdit":true,"beenHere":{"lastCheckinExpiredAt":0},"specials":{"count":0,"items":[]},"storeId":"23261","referralId":"v-1483291041","venueChains":[{"id":"556f676fbd6a75a99038d8ec"}],"hasPerk":false},{"id":"49c280f1f964a520f7551fe3","name":"Pho 87","contact":{"phone":"3232270758","formattedPhone":"(323) 227-0758"},"location":{"address":"1019 N Broadway","crossStreet":"at Cottage Home St","lat":34.06730737664468,"lng":-118.23560357093811,"labeledLatLngs":[{"label":"display","lat":34.06730737664468,"lng":-118.23560357093811}],"postalCode":"90012","cc":"US","city":"Los Angeles","state":"CA","country":"United States","formattedAddress":["1019 N Broadway (at Cottage Home St)","Los Angeles, CA 90012","United States"]},"categories":[{"id":"4bf58dd8d48988d14a941735","name":"Vietnamese Restaurant","pluralName":"Vietnamese Restaurants","shortName":"Vietnamese","icon":{"prefix":"https:\/\/ss3.4sqi.net\/img\/categories_v2\/food\/vietnamese_","suffix":".png"},"primary":true}],"verified":false,"stats":{"checkinsCount":4260,"usersCount":1812,"tipCount":42},"allowMenuUrlEdit":true,"beenHere":{"lastCheckinExpiredAt":0},"specials":{"count":0,"items":[]},"referralId":"v-1483291041","venueChains":[],"hasPerk":false},{"id":"523529152fc6055fa1975d36","name":"Donut Friend","contact":{"phone":"2139956191","formattedPhone":"(213) 995-6191","twitter":"donutfriend"},"location":{"address":"5107 York Blvd","crossStreet":"at N Ave 51","lat":34.12110664442069,"lng":-118.204602599144,"labeledLatLngs":[{"label":"display","lat":34.12110664442069,"lng":-118.204602599144}],"postalCode":"90042","cc":"US","city":"Los Angeles","state":"CA","country":"United States","formattedAddress":["5107 York Blvd (at N Ave 51)","Los Angeles, CA 90042","United States"]},"categories":[{"id":"4bf58dd8d48988d148941735","name":"Donut Shop","pluralName":"Donut Shops","shortName":"Donuts","icon":{"prefix":"https:\/\/ss3.4sqi.net\/img\/categories_v2\/food\/donuts_","suffix":".png"},"primary":true}],"verified":false,"stats":{"checkinsCount":3227,"usersCount":2024,"tipCount":62},"url":"http:\/\/donutfriend.com","allowMenuUrlEdit":true,"beenHere":{"lastCheckinExpiredAt":0},"specials":{"count":0,"items":[]},"referralId":"v-1483291041","venueChains":[],"hasPerk":false},{"id":"4b89e8c5f964a5208b5532e3","name":"McDonald's","contact":{"phone":"8182474202","formattedPhone":"(818) 247-4202"},"location":{"address":"1326 E Colorado St","lat":34.14235088936115,"lng":-118.23649842336305,"labeledLatLngs":[{"label":"display","lat":34.14235088936115,"lng":-118.23649842336305}],"postalCode":"91205","cc":"US","city":"Glendale","state":"CA","country":"United States","formattedAddress":["1326 E Colorado St","Glendale, CA 91205","United States"]},"categories":[{"id":"4bf58dd8d48988d16e941735","name":"Fast Food Restaurant","pluralName":"Fast Food Restaurants","shortName":"Fast Food","icon":{"prefix":"https:\/\/ss3.4sqi.net\/img\/categories_v2\/food\/fastfood_","suffix":".png"},"primary":true}],"verified":true,"stats":{"checkinsCount":1518,"usersCount":601,"tipCount":8},"url":"http:\/\/mcdonalds.com","hasMenu":true,"menu":{"type":"Menu","label":"Menu","anchor":"View Menu","url":"https:\/\/foursquare.com\/v\/mcdonalds\/4b89e8c5f964a5208b5532e3\/menu","mobileUrl":"https:\/\/foursquare.com\/v\/4b89e8c5f964a5208b5532e3\/device_menu"},"allowMenuUrlEdit":true,"beenHere":{"lastCheckinExpiredAt":0},"specials":{"count":0,"items":[]},"referralId":"v-1483291041","venueChains":[{"id":"556f7a12bd6a75a9903bddb2"}],"hasPerk":false},{"id":"4a75e006f964a5207fe11fe3","name":"Cafe de Leche","contact":{"phone":"3235516828","formattedPhone":"(323) 551-6828","twitter":"cafe_de_leche"},"location":{"address":"5000 York Blvd","crossStreet":"at Ave 50","lat":34.121364,"lng":-118.206821,"labeledLatLngs":[{"label":"display","lat":34.121364,"lng":-118.206821}],"postalCode":"90042","cc":"US","city":"Los Angeles","state":"CA","country":"United States","formattedAddress":["5000 York Blvd (at Ave 50)","Los Angeles, CA 90042","United States"]},"categories":[{"id":"4bf58dd8d48988d1e0931735","name":"Coffee Shop","pluralName":"Coffee Shops","shortName":"Coffee Shop","icon":{"prefix":"https:\/\/ss3.4sqi.net\/img\/categories_v2\/food\/coffeeshop_","suffix":".png"},"primary":true}],"verified":true,"stats":{"checkinsCount":5344,"usersCount":1513,"tipCount":44},"url":"http:\/\/cafedeleche.net","allowMenuUrlEdit":true,"beenHere":{"lastCheckinExpiredAt":0},"specials":{"count":0,"items":[]},"venuePage":{"id":"32633619"},"referralId":"v-1483291041","venueChains":[],"hasPerk":false},{"id":"55fb15a7498eb466ed28e82d","name":"Mr. Holmes Bakehouse","contact":{"phone":"3237390473","formattedPhone":"(323) 739-0473","twitter":"mrholmesbake"},"location":{"address":"111 South Avenue 59","lat":34.11011679074741,"lng":-118.19056391716003,"labeledLatLngs":[{"label":"display","lat":34.11011679074741,"lng":-118.19056391716003}],"postalCode":"90042","cc":"US","city":"Los Angeles","state":"CA","country":"United States","formattedAddress":["111 South Avenue 59","Los Angeles, CA 90042","United States"]},"categories":[{"id":"4bf58dd8d48988d16a941735","name":"Bakery","pluralName":"Bakeries","shortName":"Bakery","icon":{"prefix":"https:\/\/ss3.4sqi.net\/img\/categories_v2\/food\/bakery_","suffix":".png"},"primary":true}],"verified":false,"stats":{"checkinsCount":246,"usersCount":197,"tipCount":5},"url":"http:\/\/mrholmesbakehouse.com","allowMenuUrlEdit":true,"beenHere":{"lastCheckinExpiredAt":0},"specials":{"count":0,"items":[]},"referralId":"v-1483291041","venueChains":[],"hasPerk":false},{"id":"557c6d56498eee5421c122fb","name":"Civil Coffee","contact":{"twitter":"civilcoffee"},"location":{"address":"5629 N Figueroa St","crossStreet":"Avenue 56","lat":34.109409849365726,"lng":-118.193427300489,"labeledLatLngs":[{"label":"display","lat":34.109409849365726,"lng":-118.193427300489}],"postalCode":"90042","cc":"US","neighborhood":"Highland Park","city":"Los Angeles","state":"CA","country":"United States","formattedAddress":["5629 N Figueroa St (Avenue 56)","Los Angeles, CA 90042","United States"]},"categories":[{"id":"4bf58dd8d48988d16d941735","name":"Café","pluralName":"Cafés","shortName":"Café","icon":{"prefix":"https:\/\/ss3.4sqi.net\/img\/categories_v2\/food\/cafe_","suffix":".png"},"primary":true}],"verified":false,"stats":{"checkinsCount":665,"usersCount":318,"tipCount":10},"url":"http:\/\/www.civil-coffee.com","allowMenuUrlEdit":true,"beenHere":{"lastCheckinExpiredAt":0},"specials":{"count":0,"items":[]},"referralId":"v-1483291041","venueChains":[],"hasPerk":false},{"id":"49fee6c0f964a520b16f1fe3","name":"Zankou Chicken","contact":{"phone":"8182441937","formattedPhone":"(818) 244-1937","twitter":"zank0uchicken"},"location":{"address":"1415 E Colorado St","crossStreet":"at Verdugo Rd","lat":34.143195281932,"lng":-118.23391109704971,"labeledLatLngs":[{"label":"display","lat":34.143195281932,"lng":-118.23391109704971}],"postalCode":"91205","cc":"US","city":"Glendale","state":"CA","country":"United States","formattedAddress":["1415 E Colorado St (at Verdugo Rd)","Glendale, CA 91205","United States"]},"categories":[{"id":"4bf58dd8d48988d115941735","name":"Middle Eastern Restaurant","pluralName":"Middle Eastern Restaurants","shortName":"Middle Eastern","icon":{"prefix":"https:\/\/ss3.4sqi.net\/img\/categories_v2\/food\/middleeastern_","suffix":".png"},"primary":true}],"verified":true,"stats":{"checkinsCount":3033,"usersCount":1523,"tipCount":25},"url":"http:\/\/www.zankouchicken.com","hasMenu":true,"menu":{"type":"Menu","label":"Menu","anchor":"View Menu","url":"https:\/\/foursquare.com\/v\/zankou-chicken\/49fee6c0f964a520b16f1fe3\/menu","mobileUrl":"https:\/\/foursquare.com\/v\/49fee6c0f964a520b16f1fe3\/device_menu"},"allowMenuUrlEdit":true,"beenHere":{"lastCheckinExpiredAt":0},"specials":{"count":0,"items":[]},"storeId":"","referralId":"v-1483291041","venueChains":[],"hasPerk":false},{"id":"53d9158a498e8f0cc7a47c1e","name":"Starbucks","contact":{"phone":"3234787365","formattedPhone":"(323) 478-7365","twitter":"starbucks","facebook":"22092443056","facebookUsername":"Starbucks","facebookName":"Starbucks"},"location":{"address":"6240 York Ave.","lat":34.114872,"lng":-118.18334,"labeledLatLngs":[{"label":"display","lat":34.114872,"lng":-118.18334}],"postalCode":"90042","cc":"US","neighborhood":"Highland Park","city":"Los Angeles","state":"CA","country":"United States","formattedAddress":["6240 York Ave.","Los Angeles, CA 90042","United States"]},"categories":[{"id":"4bf58dd8d48988d1e0931735","name":"Coffee Shop","pluralName":"Coffee Shops","shortName":"Coffee Shop","icon":{"prefix":"https:\/\/ss3.4sqi.net\/img\/categories_v2\/food\/coffeeshop_","suffix":".png"},"primary":true}],"verified":true,"stats":{"checkinsCount":1104,"usersCount":167,"tipCount":0},"url":"http:\/\/www.starbucks.com","allowMenuUrlEdit":true,"beenHere":{"lastCheckinExpiredAt":0},"specials":{"count":0,"items":[]},"storeId":"19848","referralId":"v-1483291041","venueChains":[{"id":"556f676fbd6a75a99038d8ec"}],"hasPerk":false},{"id":"57e1fa8e498e08137928e3e8","name":"Cafe Birdie","contact":{},"location":{"address":"5631 N Figueroa St","lat":34.109558,"lng":-118.193257,"labeledLatLngs":[{"label":"display","lat":34.109558,"lng":-118.193257}],"postalCode":"90042","cc":"US","city":"Los Angeles","state":"CA","country":"United States","formattedAddress":["5631 N Figueroa St","Los Angeles, CA 90042","United States"]},"categories":[{"id":"4bf58dd8d48988d1c0941735","name":"Mediterranean Restaurant","pluralName":"Mediterranean Restaurants","shortName":"Mediterranean","icon":{"prefix":"https:\/\/ss3.4sqi.net\/img\/categories_v2\/food\/mediterranean_","suffix":".png"},"primary":true}],"verified":false,"stats":{"checkinsCount":189,"usersCount":131,"tipCount":4},"allowMenuUrlEdit":true,"beenHere":{"lastCheckinExpiredAt":0},"specials":{"count":0,"items":[]},"referralId":"v-1483291041","venueChains":[],"hasPerk":false},{"id":"50590a88e4b0f189b2f20d13","name":"Kitchen Mouse","contact":{"phone":"3232599555","formattedPhone":"(323) 259-9555","twitter":"KitchenMouseLA"},"location":{"address":"5904 N Figueroa St","crossStreet":"Ave 59","lat":34.11054783948449,"lng":-118.19077676982918,"labeledLatLngs":[{"label":"display","lat":34.11054783948449,"lng":-118.19077676982918}],"postalCode":"90042","cc":"US","city":"Los Angeles","state":"CA","country":"United States","formattedAddress":["5904 N Figueroa St (Ave 59)","Los Angeles, CA 90042","United States"]},"categories":[{"id":"4bf58dd8d48988d16d941735","name":"Café","pluralName":"Cafés","shortName":"Café","icon":{"prefix":"https:\/\/ss3.4sqi.net\/img\/categories_v2\/food\/cafe_","suffix":".png"},"primary":true}],"verified":false,"stats":{"checkinsCount":630,"usersCount":366,"tipCount":16},"url":"http:\/\/kitchenmousela.com","hasMenu":true,"menu":{"type":"Menu","label":"Menu","anchor":"View Menu","url":"https:\/\/foursquare.com\/v\/kitchen-mouse\/50590a88e4b0f189b2f20d13\/menu","mobileUrl":"https:\/\/foursquare.com\/v\/50590a88e4b0f189b2f20d13\/device_menu"},"allowMenuUrlEdit":true,"beenHere":{"lastCheckinExpiredAt":0},"specials":{"count":0,"items":[]},"referralId":"v-1483291041","venueChains":[],"hasPerk":false},{"id":"4e66bd3fb0fbcbb043d43d0c","name":"7-Eleven","contact":{"phone":"3232228979","formattedPhone":"(323) 222-8979","twitter":"7eleven","facebook":"367636226736247","facebookUsername":"7ElevenLosAngeles39538","facebookName":"7-Eleven"},"location":{"address":"5376 Huntington Dr S","crossStreet":"Poplar","lat":34.09050551932517,"lng":-118.1640970613422,"labeledLatLngs":[{"label":"display","lat":34.09050551932517,"lng":-118.1640970613422}],"postalCode":"90032","cc":"US","city":"Los Angeles","state":"CA","country":"United States","formattedAddress":["5376 Huntington Dr S (Poplar)","Los Angeles, CA 90032","United States"]},"categories":[{"id":"4d954b0ea243a5684a65b473","name":"Convenience Store","pluralName":"Convenience Stores","shortName":"Convenience Store","icon":{"prefix":"https:\/\/ss3.4sqi.net\/img\/categories_v2\/shops\/conveniencestore_","suffix":".png"},"primary":true}],"verified":true,"stats":{"checkinsCount":444,"usersCount":102,"tipCount":0},"url":"http:\/\/www.7-eleven.com","allowMenuUrlEdit":true,"beenHere":{"lastCheckinExpiredAt":0},"specials":{"count":0,"items":[]},"referralId":"v-1483291041","venueChains":[{"id":"556f676fbd6a75a99038d8e9"}],"hasPerk":false},{"id":"5762040b498e426545882c85","name":"Ramen of York","contact":{"phone":"3239997988","formattedPhone":"(323) 999-7988"},"location":{"address":"5051 York Blvd","lat":34.121289,"lng":-118.205031,"labeledLatLngs":[{"label":"display","lat":34.121289,"lng":-118.205031}],"postalCode":"90042","cc":"US","city":"Los Angeles","state":"CA","country":"United States","formattedAddress":["5051 York Blvd","Los Angeles, CA 90042","United States"]},"categories":[{"id":"4bf58dd8d48988d1d1941735","name":"Noodle House","pluralName":"Noodle Houses","shortName":"Noodles","icon":{"prefix":"https:\/\/ss3.4sqi.net\/img\/categories_v2\/food\/ramen_","suffix":".png"},"primary":true}],"verified":false,"stats":{"checkinsCount":210,"usersCount":140,"tipCount":6},"allowMenuUrlEdit":true,"beenHere":{"lastCheckinExpiredAt":0},"specials":{"count":0,"items":[]},"referralId":"v-1483291041","venueChains":[],"hasPerk":false},{"id":"4be1a0ef8ea562b5991a2170","name":"Starbucks","contact":{"phone":"3233490671","formattedPhone":"(323) 349-0671","twitter":"starbucks","facebook":"22092443056","facebookUsername":"Starbucks","facebookName":"Starbucks"},"location":{"address":"2218 Colorado Blvd","lat":34.139093,"lng":-118.215373,"labeledLatLngs":[{"label":"display","lat":34.139093,"lng":-118.215373}],"postalCode":"90041","cc":"US","city":"Los Angeles","state":"CA","country":"United States","formattedAddress":["2218 Colorado Blvd","Los Angeles, CA 90041","United States"]},"categories":[{"id":"4bf58dd8d48988d1e0931735","name":"Coffee Shop","pluralName":"Coffee Shops","shortName":"Coffee Shop","icon":{"prefix":"https:\/\/ss3.4sqi.net\/img\/categories_v2\/food\/coffeeshop_","suffix":".png"},"primary":true}],"verified":true,"stats":{"checkinsCount":6437,"usersCount":1445,"tipCount":24},"url":"http:\/\/www.starbucks.com\/","hasMenu":true,"menu":{"type":"Menu","label":"Menu","anchor":"View Menu","url":"https:\/\/foursquare.com\/v\/starbucks\/4be1a0ef8ea562b5991a2170\/menu","mobileUrl":"https:\/\/foursquare.com\/v\/4be1a0ef8ea562b5991a2170\/device_menu"},"allowMenuUrlEdit":true,"beenHere":{"lastCheckinExpiredAt":0},"specials":{"count":0,"items":[]},"storeId":"8617","referralId":"v-1483291041","venueChains":[{"id":"556f676fbd6a75a99038d8ec"}],"hasPerk":false},{"id":"49bc55d6f964a5202b541fe3","name":"The York","contact":{"phone":"3232559675","formattedPhone":"(323) 255-9675","twitter":"theyork"},"location":{"address":"5018 York Blvd","crossStreet":"near Ave 50","lat":34.12119349955029,"lng":-118.20627951217317,"labeledLatLngs":[{"label":"display","lat":34.12119349955029,"lng":-118.20627951217317}],"postalCode":"90042","cc":"US","city":"Los Angeles","state":"CA","country":"United States","formattedAddress":["5018 York Blvd (near Ave 50)","Los Angeles, CA 90042","United States"]},"categories":[{"id":"4bf58dd8d48988d155941735","name":"Gastropub","pluralName":"Gastropubs","shortName":"Gastropub","icon":{"prefix":"https:\/\/ss3.4sqi.net\/img\/categories_v2\/food\/gastropub_","suffix":".png"},"primary":true}],"verified":false,"stats":{"checkinsCount":8099,"usersCount":3686,"tipCount":91},"url":"http:\/\/www.theyorkonyork.com\/","allowMenuUrlEdit":true,"beenHere":{"lastCheckinExpiredAt":0},"specials":{"count":0,"items":[]},"referralId":"v-1483291041","venueChains":[],"hasPerk":false},{"id":"569e6007498ec37b33f9578e","name":"Division 3","contact":{},"location":{"address":"3329 Division St","lat":34.104972,"lng":-118.23005,"labeledLatLngs":[{"label":"display","lat":34.104972,"lng":-118.23005}],"postalCode":"90065","cc":"US","city":"Los Angeles","state":"CA","country":"United States","formattedAddress":["3329 Division St","Los Angeles, CA 90065","United States"]},"categories":[{"id":"4bf58dd8d48988d16d941735","name":"Café","pluralName":"Cafés","shortName":"Café","icon":{"prefix":"https:\/\/ss3.4sqi.net\/img\/categories_v2\/food\/cafe_","suffix":".png"},"primary":true}],"verified":false,"stats":{"checkinsCount":767,"usersCount":110,"tipCount":3},"allowMenuUrlEdit":true,"beenHere":{"lastCheckinExpiredAt":0},"specials":{"count":0,"items":[]},"referralId":"v-1483291041","venueChains":[],"hasPerk":false},{"id":"4b003eddf964a520e93b22e3","name":"The Coffee Bean & Tea Leaf","contact":{"phone":"8182424074","formattedPhone":"(818) 242-4074","twitter":"thecoffeebean"},"location":{"address":"300A N. Glendale Ave.","crossStreet":"at California Ave","lat":34.15014709,"lng":-118.2451598,"labeledLatLngs":[{"label":"display","lat":34.15014709,"lng":-118.2451598}],"postalCode":"91206-3758","cc":"US","city":"Glendale","state":"CA","country":"United States","formattedAddress":["300A N. Glendale Ave. (at California Ave)","Glendale, CA 91206-3758","United States"]},"categories":[{"id":"4bf58dd8d48988d1e0931735","name":"Coffee Shop","pluralName":"Coffee Shops","shortName":"Coffee Shop","icon":{"prefix":"https:\/\/ss3.4sqi.net\/img\/categories_v2\/food\/coffeeshop_","suffix":".png"},"primary":true}],"verified":true,"stats":{"checkinsCount":2817,"usersCount":926,"tipCount":17},"url":"http:\/\/www.coffeebean.com","hasMenu":true,"menu":{"type":"Menu","label":"Menu","anchor":"View Menu","url":"https:\/\/foursquare.com\/v\/the-coffee-bean--tea-leaf\/4b003eddf964a520e93b22e3\/menu","mobileUrl":"https:\/\/foursquare.com\/v\/4b003eddf964a520e93b22e3\/device_menu"},"allowMenuUrlEdit":true,"beenHere":{"lastCheckinExpiredAt":0},"specials":{"count":0,"items":[]},"storeId":"216","referralId":"v-1483291041","venueChains":[{"id":"556a4e08a7c8957d73d6ce60"}],"hasPerk":false},{"id":"54de22b9498ea3875b1386ec","name":"Habitat","contact":{"phone":"3237390222","formattedPhone":"(323) 739-0222"},"location":{"address":"3708 Eagle Rock Blvd","crossStreet":"at W Avenue 37","lat":34.11768462926446,"lng":-118.23339167769517,"labeledLatLngs":[{"label":"display","lat":34.11768462926446,"lng":-118.23339167769517}],"postalCode":"90065","cc":"US","city":"Los Angeles","state":"CA","country":"United States","formattedAddress":["3708 Eagle Rock Blvd (at W Avenue 37)","Los Angeles, CA 90065","United States"]},"categories":[{"id":"4bf58dd8d48988d16d941735","name":"Café","pluralName":"Cafés","shortName":"Café","icon":{"prefix":"https:\/\/ss3.4sqi.net\/img\/categories_v2\/food\/cafe_","suffix":".png"},"primary":true}],"verified":false,"stats":{"checkinsCount":961,"usersCount":275,"tipCount":9},"url":"http:\/\/habitatcoffeela.com","allowMenuUrlEdit":true,"beenHere":{"lastCheckinExpiredAt":0},"specials":{"count":0,"items":[]},"referralId":"v-1483291041","venueChains":[],"hasPerk":false},{"id":"49c59d4df964a52015571fe3","name":"The Oinkster","contact":{"phone":"3232556465","formattedPhone":"(323) 255-6465","twitter":"theoinkster"},"location":{"address":"2005 Colorado Blvd","crossStreet":"at Shearin Ave","lat":34.139433891770956,"lng":-118.2105233877296,"labeledLatLngs":[{"label":"display","lat":34.139433891770956,"lng":-118.2105233877296}],"postalCode":"90041","cc":"US","city":"Eagle Rock","state":"CA","country":"United States","formattedAddress":["2005 Colorado Blvd (at Shearin Ave)","Eagle Rock, CA 90041","United States"]},"categories":[{"id":"4bf58dd8d48988d14e941735","name":"American Restaurant","pluralName":"American Restaurants","shortName":"American","icon":{"prefix":"https:\/\/ss3.4sqi.net\/img\/categories_v2\/food\/default_","suffix":".png"},"primary":true}],"verified":true,"stats":{"checkinsCount":14608,"usersCount":6847,"tipCount":183},"url":"http:\/\/www.theoinkster.com","hasMenu":true,"menu":{"type":"Menu","label":"Menu","anchor":"View Menu","url":"https:\/\/foursquare.com\/v\/the-oinkster\/49c59d4df964a52015571fe3\/menu","mobileUrl":"https:\/\/foursquare.com\/v\/49c59d4df964a52015571fe3\/device_menu"},"allowMenuUrlEdit":true,"beenHere":{"lastCheckinExpiredAt":0},"specials":{"count":0,"items":[]},"venuePage":{"id":"37267613"},"storeId":"","referralId":"v-1483291041","venueChains":[],"hasPerk":false},{"id":"4a8f8e92f964a520741520e3","name":"Danny's Tacos","contact":{"phone":"3235297486","formattedPhone":"(323) 529-7486"},"location":{"address":"1000 S Grand Ave","crossStreet":"Grand & Olympic","lat":34.042459710525165,"lng":-118.26126471116702,"labeledLatLngs":[{"label":"display","lat":34.042459710525165,"lng":-118.26126471116702}],"postalCode":"90015","cc":"US","neighborhood":"downtown los","city":"Los Angeles","state":"CA","country":"United States","formattedAddress":["1000 S Grand Ave (Grand & Olympic)","Los Angeles, CA 90015","United States"]},"categories":[{"id":"4bf58dd8d48988d1cb941735","name":"Food Truck","pluralName":"Food Trucks","shortName":"Food Truck","icon":{"prefix":"https:\/\/ss3.4sqi.net\/img\/categories_v2\/food\/streetfood_","suffix":".png"},"primary":true}],"verified":false,"stats":{"checkinsCount":2077,"usersCount":1061,"tipCount":23},"url":"http:\/\/verdaderosdannystacos.com","menu":{"type":"Menu","label":"Menu","anchor":"View Menu","url":"http:\/\/verdaderosdannystacos.com","mobileUrl":"http:\/\/verdaderosdannystacos.com","externalUrl":"http:\/\/verdaderosdannystacos.com"},"allowMenuUrlEdit":true,"beenHere":{"lastCheckinExpiredAt":0},"specials":{"count":0,"items":[]},"referralId":"v-1483291041","venueChains":[],"hasPerk":false}]}}