{"meta":{"code":200,"requestId":"5869399c6a607107d1b108df"},"response":{"venues":[{"id":"474a2b79f964a520954c1fe3","name":"Porto's Bakery & Cafe","contact":{"phone":"8188469100","formattedPhone":"(818) 846-9100","facebook":"46139506983","facebookUsername":"portosbakery","facebookName":"Porto's Bakery"},"location":{"address":"3614 W Magnolia Blvd","crossStreet":"at Hollywood Way","lat":34.16779994361975,"lng":-118.34663713217746,"postalCode":"91505","cc":"US","city":"Burbank","state":"CA","country":"United States","formattedAddress":["3614 W Magnolia Blvd (at Hollywood Way)","Burbank, CA 91505","United States"]},"categories":[{"id":"4bf58dd8d48988d154941735","name":"Cuban Restaurant","pluralName":"Cuban Restaurants","shortName":"Cuban","icon":{"prefix":"https:\/\/ss3.4sqi.net\/img\/categories_v2\/food\/cuban_","suffix":".png"},"primary":true}],"verified":false,"stats":{"checkinsCount":36640,"usersCount":16144,"tipCount":443},"url":"http:\/\/www.portosbakery.com\/","hasMenu":true,"menu":{"type":"Menu","label":"Menu","anchor":"View Menu","url":"https:\/\/foursquare.com\/v\/portos-bakery--cafe\/474a2b79f964a520954c1fe3\/menu","mobileUrl":"https:\/\/foursquare.com\/v\/474a2b79f964a520954c1fe3\/device_menu"},"allowMenuUrlEdit":true,"beenHere":{"lastCheckinExpiredAt":0},"specials":{"count":0,"items":[]},"referralId":"v-1483291036","venueChains":[],"hasPerk":false},{"id":"56516d35498ef83b9ffdfa9a","name":"Starbucks","contact":{"phone":"8182994968","formattedPhone":"(818) 299-4968","twitter":"starbucks","facebook":"22092443056","facebookUsername":"Starbucks","facebookName":"Starbucks"},"location":{"address":"12106 West Burbank Blvd","crossStreet":"Laurel Canyon\/ Burbank","lat":34.17163,"lng":-118.396805,"labeledLatLngs":[{"label":"display","lat":34.17163,"lng":-118.396805}],"postalCode":"91607","cc":"US","city":"Valley Village","state":"CA","country":"United States","formattedAddress":["12106 West Burbank Blvd (Laurel Canyon\/ Burbank)","Valley Village, CA 91607","United States"]},"categories":[{"id":"4bf58dd8d48988d1e0931735","name":"Coffee Shop","pluralName":"Coffee Shops","shortName":"Coffee Shop","icon":{"prefix":"https:\/\/ss3.4sqi.net\/img\/categories_v2\/food\/coffeeshop_","suffix":".png"},"primary":true}],"verified":true,"stats":{"checkinsCount":577,"usersCount":181,"tipCount":3},"url":"http:\/\/www.starbucks.com","allowMenuUrlEdit":true,"beenHere":{"lastCheckinExpiredAt":0},"specials":{"count":0,"items":[]},"storeId":"1008743","referralId":"v-1483291036","venueChains":[{"id":"556f676fbd6a75a99038d8ec"}],"hasPerk":false},{"id":"49c943fbf964a52050581fe3","name":"Whole Foods Market","contact":{"phone":"8187625548","formattedPhone":"(818) 762-5548","twitter":"wfmlosangeles","facebook":"76610499220","facebookUsername":"WFMLosAngeles","facebookName":"Whole Foods Market Los Angeles"},"location":{"address":"12905 Riverside Dr","crossStreet":"at Coldwater Canyon Ave.","lat":34.1579130240265,"lng":-118.41413274407387,"labeledLatLngs":[{"label":"display","lat":34.1579130240265,"lng":-118.41413274407387}],"postalCode":"91423","cc":"US","city":"Sherman Oaks","state":"CA","country":"United States","formattedAddress":["12905 Riverside Dr (at Coldwater Canyon Ave.)","Sherman Oaks, CA 91423","United States"]},"categories":[{"id":"4bf58dd8d48988d118951735","name":"Grocery Store","pluralName":"Grocery Stores","shortName":"Grocery Store","icon":{"prefix":"https:\/\/ss3.4sqi.net\/img\/categories_v2\/shops\/food_grocery_","suffix":".png"},"primary":true}],"verified":true,"stats":{"checkinsCount":8686,"usersCount":2317,"tipCount":38},"url":"http:\/\/www.wholefoodsmarket.com\/stores\/shermanoaks?s=SHO","allowMenuUrlEdit":true,"beenHere":{"lastCheckinExpiredAt":0},"specials":{"count":0,"items":[]},"venuePage":{"id":"37265201"},"referralId":"v-1483291036","venueChains":[{"id":"556cdf5baceaff43eb042df6"}],"hasPerk":false},{"id":"4ae72993f964a52003a921e3","name":"Starbucks","contact":{"phone":"8182993072","formattedPhone":"(818) 299-3072","twitter":"starbucks","facebook":"22092443056","facebookUsername":"Starbucks","facebookName":"Starbucks"},"location":{"address":"4853 Lankershim Blvd","lat":34.157886,"lng":-118.378736,"labeledLatLngs":[{"label":"display","lat":34.157886,"lng":-118.378736}],"postalCode":"91602","cc":"US","city":"North Hollywood","state":"CA","country":"United States","formattedAddress":["4853 Lankershim Blvd","North Hollywood, CA 91602","United States"]},"categories":[{"id":"4bf58dd8d48988d1e0931735","name":"Coffee Shop","pluralName":"Coffee Shops","shortName":"Coffee Shop","icon":{"prefix":"https:\/\/ss3.4sqi.net\/img\/categories_v2\/food\/coffeeshop_","suffix":".png"},"primary":true}],"verified":true,"stats":{"checkinsCount":11876,"usersCount":2469,"tipCount":57},"hasMenu":true,"menu":{"type":"Menu","label":"Menu","anchor":"View Menu","url":"https:\/\/foursquare.com\/v\/starbucks\/4ae72993f964a52003a921e3\/menu","mobileUrl":"https:\/\/foursquare.com\/v\/4ae72993f964a52003a921e3\/device_menu"},"allowMenuUrlEdit":true,"beenHere":{"lastCheckinExpiredAt":0},"specials":{"count":0,"items":[]},"storeId":"9596","referralId":"v-1483291036","venueChains":[{"id":"556f676fbd6a75a99038d8ec"}],"hasPerk":false},{"id":"4af4778af964a520cdf221e3","name":"Starbucks","contact":{"phone":"8187548123","formattedPhone":"(818) 754-8123","twitter":"starbucks","facebook":"22092443056","facebookUsername":"Starbucks","facebookName":"Starbucks"},"location":{"address":"4800 Laurel Canyon Blvd","crossStreet":"Riverside Dr","lat":34.157797,"lng":-118.396241,"labeledLatLngs":[{"label":"display","lat":34.157797,"lng":-118.396241}],"postalCode":"91607","cc":"US","city":"Valley Village","state":"CA","country":"United States","formattedAddress":["4800 Laurel Canyon Blvd (Riverside Dr)","Valley Village, CA 91607","United States"]},"categories":[{"id":"4bf58dd8d48988d1e0931735","name":"Coffee Shop","pluralName":"Coffee Shops","shortName":"Coffee Shop","icon":{"prefix":"https:\/\/ss3.4sqi.net\/img\/categories_v2\/food\/coffeeshop_","suffix":".png"},"primary":true}],"verified":true,"stats":{"checkinsCount":7817,"usersCount":2140,"tipCount":19},"url":"http:\/\/www.starbucks.com\/","hasMenu":true,"menu":{"type":"Menu","label":"Menu","anchor":"View Menu","url":"https:\/\/foursquare.com\/v\/starbucks\/4af4778af964a520cdf221e3\/menu","mobileUrl":"https:\/\/foursquare.com\/v\/4af4778af964a520cdf221e3\/device_menu"},"allowMenuUrlEdit":true,"beenHere":{"lastCheckinExpiredAt":0},"specials":{"count":0,"items":[]},"storeId":"6610","referralId":"v-1483291036","venueChains":[{"id":"556f676fbd6a75a99038d8ec"}],"hasPerk":false},{"id":"4d1ed48486e15481b8a2ad3a","name":"The Federal Bar","contact":{"phone":"8189802555","formattedPhone":"(818) 980-2555","facebook":"151149768254769","facebookUsername":"thefederalbar","facebookName":"The Federal Bar"},"location":{"address":"5303 Lankershim Blvd","crossStreet":"at Weddington St","lat":34.16715532494847,"lng":-118.37634040459785,"labeledLatLngs":[{"label":"display","lat":34.16715532494847,"lng":-118.37634040459785}],"postalCode":"91601","cc":"US","city":"North Hollywood","state":"CA","country":"United States","formattedAddress":["5303 Lankershim Blvd (at Weddington St)","North Hollywood, CA 91601","United States"]},"categories":[{"id":"4bf58dd8d48988d155941735","name":"Gastropub","pluralName":"Gastropubs","shortName":"Gastropub","icon":{"prefix":"https:\/\/ss3.4sqi.net\/img\/categories_v2\/food\/gastropub_","suffix":".png"},"primary":true}],"verified":true,"stats":{"checkinsCount":14502,"usersCount":6985,"tipCount":149},"url":"http:\/\/www.thefederalbar.com","hasMenu":true,"menu":{"type":"Menu","label":"Menu","anchor":"View Menu","url":"http:\/\/nh.thefederalbar.com\/menu\/","mobileUrl":"http:\/\/nh.thefederalbar.com\/menu\/","externalUrl":"http:\/\/nh.thefederalbar.com\/menu\/"},"allowMenuUrlEdit":true,"beenHere":{"lastCheckinExpiredAt":0},"specials":{"count":0,"items":[]},"storeId":"","referralId":"v-1483291036","venueChains":[],"hasPerk":false},{"id":"4b0326d2f964a5200e4d22e3","name":"Starbucks","contact":{"phone":"8185650571","formattedPhone":"(818) 565-0571","twitter":"starbucks","facebook":"22092443056","facebookUsername":"Starbucks","facebookName":"Starbucks"},"location":{"address":"2555 N Hollywood Way","lat":34.195027,"lng":-118.350188,"labeledLatLngs":[{"label":"display","lat":34.195027,"lng":-118.350188}],"postalCode":"91505","cc":"US","city":"Burbank","state":"CA","country":"United States","formattedAddress":["2555 N Hollywood Way","Burbank, CA 91505","United States"]},"categories":[{"id":"4bf58dd8d48988d1e0931735","name":"Coffee Shop","pluralName":"Coffee Shops","shortName":"Coffee Shop","icon":{"prefix":"https:\/\/ss3.4sqi.net\/img\/categories_v2\/food\/coffeeshop_","suffix":".png"},"primary":true}],"verified":true,"stats":{"checkinsCount":7343,"usersCount":2560,"tipCount":21},"url":"http:\/\/www.starbucks.com\/","allowMenuUrlEdit":true,"beenHere":{"lastCheckinExpiredAt":0},"specials":{"count":0,"items":[]},"storeId":"10801","referralId":"v-1483291036","venueChains":[{"id":"556f676fbd6a75a99038d8ec"}],"hasPerk":false},{"id":"4b4e7bc0f964a52068ef26e3","name":"Del Taco","contact":{"phone":"8185650534","formattedPhone":"(818) 565-0534","twitter":"deltaco"},"location":{"address":"2515 N Hollywood Way","crossStreet":"btwn Avon & Thornton","lat":34.19384256863792,"lng":-118.34936141967773,"labeledLatLngs":[{"label":"display","lat":34.19384256863792,"lng":-118.34936141967773}],"postalCode":"91505","cc":"US","city":"Burbank","state":"CA","country":"United States","formattedAddress":["2515 N Hollywood Way (btwn Avon & Thornton)","Burbank, CA 91505","United States"]},"categories":[{"id":"4bf58dd8d48988d16e941735","name":"Fast Food Restaurant","pluralName":"Fast Food Restaurants","shortName":"Fast Food","icon":{"prefix":"https:\/\/ss3.4sqi.net\/img\/categories_v2\/food\/fastfood_","suffix":".png"},"primary":true}],"verified":false,"stats":{"checkinsCount":2318,"usersCount":747,"tipCount":10},"url":"http:\/\/www.deltaco.com\/","hasMenu":true,"menu":{"type":"Menu","label":"Menu","anchor":"View Menu","url":"https:\/\/foursquare.com\/v\/del-taco\/4b4e7bc0f964a52068ef26e3\/menu","mobileUrl":"https:\/\/foursquare.com\/v\/4b4e7bc0f964a52068ef26e3\/device_menu"},"allowMenuUrlEdit":true,"beenHere":{"lastCheckinExpiredAt":0},"specials":{"count":0,"items":[]},"referralId":"v-1483291036","venueChains":[{"id":"563bdac5498eeb86d4b61e72"}],"hasPerk":false},{"id":"4b805aebf964a520bd6a30e3","name":"Coral Cafe","contact":{"phone":"8185669725","formattedPhone":"(818) 566-9725"},"location":{"address":"3321 W Burbank Blvd","lat":34.176104189068376,"lng":-118.34669420400189,"labeledLatLngs":[{"label":"display","lat":34.176104189068376,"lng":-118.34669420400189}],"postalCode":"91505","cc":"US","city":"Burbank","state":"CA","country":"United States","formattedAddress":["3321 W Burbank Blvd","Burbank, CA 91505","United States"]},"categories":[{"id":"4bf58dd8d48988d143941735","name":"Breakfast Spot","pluralName":"Breakfast Spots","shortName":"Breakfast","icon":{"prefix":"https:\/\/ss3.4sqi.net\/img\/categories_v2\/food\/breakfast_","suffix":".png"},"primary":true}],"verified":false,"stats":{"checkinsCount":7161,"usersCount":1997,"tipCount":78},"url":"http:\/\/www.coralcafe.com\/","hasMenu":true,"menu":{"type":"Menu","label":"Menu","anchor":"View Menu","url":"https:\/\/foursquare.com\/v\/coral-cafe\/4b805aebf964a520bd6a30e3\/menu","mobileUrl":"https:\/\/foursquare.com\/v\/4b805aebf964a520bd6a30e3\/device_menu","externalUrl":"http:\/\/www.coralcafe.com\/uploads\/1\/2\/9\/1\/12915934\/combomenu2016.pdf"},"allowMenuUrlEdit":true,"beenHere":{"lastCheckinExpiredAt":0},"specials":{"count":0,"items":[]},"referralId":"v-1483291036","venueChains":[],"hasPerk":false},{"id":"4a4e5b39f964a52056ae1fe3","name":"Starbucks","contact":{"phone":"8187891541","formattedPhone":"(818) 789-1541","twitter":"starbucks","facebook":"22092443056","facebookUsername":"Starbucks","facebookName":"Starbucks"},"location":{"address":"13351 Riverside Dr","lat":34.158123,"lng":-118.424307,"labeledLatLngs":[{"label":"display","lat":34.158123,"lng":-118.424307}],"postalCode":"91423","cc":"US","city":"Sherman Oaks","state":"CA","country":"United States","formattedAddress":["13351 Riverside Dr","Sherman Oaks, CA 91423","United States"]},"categories":[{"id":"4bf58dd8d48988d1e0931735","name":"Coffee Shop","pluralName":"Coffee Shops","shortName":"Coffee Shop","icon":{"prefix":"https:\/\/ss3.4sqi.net\/img\/categories_v2\/food\/coffeeshop_","suffix":".png"},"primary":true}],"verified":true,"stats":{"checkinsCount":5142,"usersCount":1174,"tipCount":22},"url":"http:\/\/www.starbucks.com\/","hasMenu":true,"menu":{"type":"Menu","label":"Menu","anchor":"View Menu","url":"https:\/\/foursquare.com\/v\/starbucks\/4a4e5b39f964a52056ae1fe3\/menu","mobileUrl":"https:\/\/foursquare.com\/v\/4a4e5b39f964a52056ae1fe3\/device_menu"},"allowMenuUrlEdit":true,"beenHere":{"lastCheckinExpiredAt":0},"specials":{"count":0,"items":[]},"storeId":"5996","referralId":"v-1483291036","venueChains":[{"id":"556f676fbd6a75a99038d8ec"}],"hasPerk":false},{"id":"4f0dea00e4b0ac27384ec099","name":"Republic of Pie","contact":{"phone":"8183087990","formattedPhone":"(818) 308-7990","twitter":"republicofpie","facebook":"345551595456393","facebookUsername":"Republicofpie","facebookName":"Republic of Pie"},"location":{"address":"11118 Magnolia Blvd","crossStreet":"Lankershim Blvd","lat":34.164756714782804,"lng":-118.37311067734642,"labeledLatLngs":[{"label":"display","lat":34.164756714782804,"lng":-118.37311067734642}],"postalCode":"91601","cc":"US","city":"North Hollywood","state":"CA","country":"United States","formattedAddress":["11118 Magnolia Blvd (Lankershim Blvd)","North Hollywood, CA 91601","United States"]},"categories":[{"id":"4bf58dd8d48988d16a941735","name":"Bakery","pluralName":"Bakeries","shortName":"Bakery","icon":{"prefix":"https:\/\/ss3.4sqi.net\/img\/categories_v2\/food\/bakery_","suffix":".png"},"primary":true}],"verified":true,"stats":{"checkinsCount":8457,"usersCount":3049,"tipCount":112},"url":"http:\/\/republicofpie.com","hasMenu":true,"menu":{"type":"Menu","label":"Menu","anchor":"View Menu","url":"https:\/\/foursquare.com\/v\/republic-of-pie\/4f0dea00e4b0ac27384ec099\/menu","mobileUrl":"https:\/\/foursquare.com\/v\/4f0dea00e4b0ac27384ec099\/device_menu"},"allowMenuUrlEdit":true,"beenHere":{"lastCheckinExpiredAt":0},"specials":{"count":0,"items":[]},"venuePage":{"id":"59540457"},"storeId":"","referralId":"v-1483291036","venueChains":[],"hasPerk":false},{"id":"4aa17253f964a520964020e3","name":"In-N-Out Burger","contact":{"phone":"8007861000","formattedPhone":"(800) 786-1000","twitter":"innoutburger"},"location":{"address":"5864 Lankershim","lat":34.17730915,"lng":-118.38195,"labeledLatLngs":[{"label":"display","lat":34.17730915,"lng":-118.38195}],"postalCode":"91605","cc":"US","city":"North Hollywood","state":"CA","country":"United States","formattedAddress":["5864 Lankershim","North Hollywood, CA 91605","United States"]},"categories":[{"id":"4bf58dd8d48988d16c941735","name":"Burger Joint","pluralName":"Burger Joints","shortName":"Burgers","icon":{"prefix":"https:\/\/ss3.4sqi.net\/img\/categories_v2\/food\/burger_","suffix":".png"},"primary":true}],"verified":true,"stats":{"checkinsCount":5419,"usersCount":2658,"tipCount":38},"url":"http:\/\/www.in-n-out.com","hasMenu":true,"menu":{"type":"Menu","label":"Menu","anchor":"View Menu","url":"https:\/\/foursquare.com\/v\/innout-burger\/4aa17253f964a520964020e3\/menu","mobileUrl":"https:\/\/foursquare.com\/v\/4aa17253f964a520964020e3\/device_menu"},"allowMenuUrlEdit":true,"beenHere":{"lastCheckinExpiredAt":0},"specials":{"count":0,"items":[]},"storeId":"9","referralId":"v-1483291036","venueChains":[{"id":"556cdd65aceaff43eb03dddb"}],"hasPerk":false},{"id":"4cea11d7d27560fc5b8b993a","name":"Salsa & Beer","contact":{"phone":"8185031220","formattedPhone":"(818) 503-1220"},"location":{"address":"11669 Sherman Way","crossStreet":"at Lankershim Blvd","lat":34.20140157762234,"lng":-118.38696497031698,"labeledLatLngs":[{"label":"display","lat":34.20140157762234,"lng":-118.38696497031698}],"postalCode":"91605","cc":"US","city":"North Hollywood","state":"CA","country":"United States","formattedAddress":["11669 Sherman Way (at Lankershim Blvd)","North Hollywood, CA 91605","United States"]},"categories":[{"id":"4bf58dd8d48988d1c1941735","name":"Mexican Restaurant","pluralName":"Mexican Restaurants","shortName":"Mexican","icon":{"prefix":"https:\/\/ss3.4sqi.net\/img\/categories_v2\/food\/mexican_","suffix":".png"},"primary":true}],"verified":false,"stats":{"checkinsCount":5308,"usersCount":2365,"tipCount":87},"url":"http:\/\/www.salsaandbeernorthhollywood.com","allowMenuUrlEdit":true,"beenHere":{"lastCheckinExpiredAt":0},"specials":{"count":0,"items":[]},"referralId":"v-1483291036","venueChains":[],"hasPerk":false},{"id":"4bf2ba2a82002d7f02e0d0bb","name":"USA Gasoline","contact":{"phone":"8185085215","formattedPhone":"(818) 508-5215"},"location":{"address":"10601 Magnolia Blvd","crossStreet":"at Cahuenga Blvd.","lat":34.165193171281395,"lng":-118.36190886364594,"labeledLatLngs":[{"label":"display","lat":34.165193171281395,"lng":-118.36190886364594}],"postalCode":"91601","cc":"US","city":"North Hollywood","state":"CA","country":"United States","formattedAddress":["10601 Magnolia Blvd (at Cahuenga Blvd.)","North Hollywood, CA 91601","United States"]},"categories":[{"id":"4bf58dd8d48988d113951735","name":"Gas Station","pluralName":"Gas Stations","shortName":"Gas Station","icon":{"prefix":"https:\/\/ss3.4sqi.net\/img\/categories_v2\/shops\/gas_","suffix":".png"},"primary":true}],"verified":false,"stats":{"checkinsCount":1586,"usersCount":496,"tipCount":8},"allowMenuUrlEdit":true,"beenHere":{"lastCheckinExpiredAt":0},"specials":{"count":0,"items":[]},"referralId":"v-1483291036","venueChains":[],"hasPerk":false},{"id":"49ff23c3f964a520de6f1fe3","name":"Hugo's Restaurant","contact":{"phone":"8187618985","formattedPhone":"(818) 761-8985","twitter":"hugosrestaurant","facebook":"60451814277","facebookUsername":"hugosrestaurant","facebookName":"Hugo's"},"location":{"address":"12851 Riverside Dr","crossStreet":"at Coldwater Canyon Ave","lat":34.15782313383136,"lng":-118.41326236724854,"labeledLatLngs":[{"label":"display","lat":34.15782313383136,"lng":-118.41326236724854}],"postalCode":"91607","cc":"US","city":"Studio City","state":"CA","country":"United States","formattedAddress":["12851 Riverside Dr (at Coldwater Canyon Ave)","Studio City, CA 91607","United States"]},"categories":[{"id":"4bf58dd8d48988d1d3941735","name":"Vegetarian \/ Vegan Restaurant","pluralName":"Vegetarian \/ Vegan Restaurants","shortName":"Vegetarian \/ Vegan","icon":{"prefix":"https:\/\/ss3.4sqi.net\/img\/categories_v2\/food\/vegetarian_","suffix":".png"},"primary":true}],"verified":true,"stats":{"checkinsCount":6320,"usersCount":2918,"tipCount":81},"url":"http:\/\/hugosrestaurant.com","hasMenu":true,"menu":{"type":"Menu","label":"Menu","anchor":"View Menu","url":"https:\/\/foursquare.com\/v\/hugos-restaurant\/49ff23c3f964a520de6f1fe3\/menu","mobileUrl":"https:\/\/foursquare.com\/v\/49ff23c3f964a520de6f1fe3\/device_menu"},"allowMenuUrlEdit":true,"beenHere":{"lastCheckinExpiredAt":0},"specials":{"count":0,"items":[]},"venuePage":{"id":"91923699"},"referralId":"v-1483291036","venueChains":[],"hasPerk":false},{"id":"4a5a8b32f964a52089ba1fe3","name":"Pinocchio Restaurant & Monte Carlo Italian Deli","contact":{"phone":"8188453517","formattedPhone":"(818) 845-3517"},"location":{"address":"3103 W Magnolia Blvd","crossStreet":"at N. Fairview","lat":34.17002371383786,"lng":-118.34121522089228,"labeledLatLngs":[{"label":"display","lat":34.17002371383786,"lng":-118.34121522089228}],"postalCode":"91505","cc":"US","city":"Burbank","state":"CA","country":"United States","formattedAddress":["3103 W Magnolia Blvd (at N. Fairview)","Burbank, CA 91505","United States"]},"categories":[{"id":"4bf58dd8d48988d110941735","name":"Italian Restaurant","pluralName":"Italian Restaurants","shortName":"Italian","icon":{"prefix":"https:\/\/ss3.4sqi.net\/img\/categories_v2\/food\/italian_","suffix":".png"},"primary":true}],"verified":false,"stats":{"checkinsCount":4701,"usersCount":2044,"tipCount":75},"url":"http:\/\/montecarlodeli.com","hasMenu":true,"menu":{"type":"Menu","label":"Menu","anchor":"View Menu","url":"https:\/\/foursquare.com\/v\/pinocchio-restaurant--monte-carlo-italian-deli\/4a5a8b32f964a52089ba1fe3\/menu","mobileUrl":"https:\/\/foursquare.com\/v\/4a5a8b32f964a52089ba1fe3\/device_menu"},"allowMenuUrlEdit":true,"beenHere":{"lastCheckinExpiredAt":0},"specials":{"count":0,"items":[]},"referralId":"v-1483291036","venueChains":[],"hasPerk":false},{"id":"4b15d3a5f964a520c3b423e3","name":"Starbucks","contact":{"phone":"8183927641","formattedPhone":"(818) 392-7641","twitter":"starbucks","facebook":"22092443056","facebookUsername":"Starbucks","facebookName":"Starbucks"},"location":{"address":"12520 Sherman Way","lat":34.200935,"lng":-118.407993,"labeledLatLngs":[{"label":"display","lat":34.200935,"lng":-118.407993}],"postalCode":"91605","cc":"US","city":"North Hollywood","state":"CA","country":"United States","formattedAddress":["12520 Sherman Way","North Hollywood, CA 91605","United States"]},"categories":[{"id":"4bf58dd8d48988d1e0931735","name":"Coffee Shop","pluralName":"Coffee Shops","shortName":"Coffee Shop","icon":{"prefix":"https:\/\/ss3.4sqi.net\/img\/categories_v2\/food\/coffeeshop_","suffix":".png"},"primary":true}],"verified":true,"stats":{"checkinsCount":4679,"usersCount":1376,"tipCount":30},"url":"http:\/\/www.starbucks.com\/","hasMenu":true,"menu":{"type":"Menu","label":"Menu","anchor":"View Menu","url":"https:\/\/foursquare.com\/v\/starbucks\/4b15d3a5f964a520c3b423e3\/menu","mobileUrl":"https:\/\/foursquare.com\/v\/4b15d3a5f964a520c3b423e3\/device_menu"},"allowMenuUrlEdit":true,"beenHere":{"lastCheckinExpiredAt":0},"specials":{"count":0,"items":[]},"storeId":"13365","referralId":"v-1483291036","venueChains":[{"id":"556f676fbd6a75a99038d8ec"}],"hasPerk":false},{"id":"4dfbd9d27d8b30508012c94d","name":"The Habit Burger Grill","contact":{"phone":"8187621995","formattedPhone":"(818) 762-1995","twitter":"habitburger"},"location":{"address":"4770 Lankershim Blvd.","crossStreet":"at Camarillo St","lat":34.15750924,"lng":-118.3693166,"labeledLatLngs":[{"label":"display","lat":34.15750924,"lng":-118.3693166}],"postalCode":"91602","cc":"US","city":"North Hollywood","state":"CA","country":"United States","formattedAddress":["4770 Lankershim Blvd. (at Camarillo St)","North Hollywood, CA 91602","United States"]},"categories":[{"id":"4bf58dd8d48988d16c941735","name":"Burger Joint","pluralName":"Burger Joints","shortName":"Burgers","icon":{"prefix":"https:\/\/ss3.4sqi.net\/img\/categories_v2\/food\/burger_","suffix":".png"},"primary":true}],"verified":true,"stats":{"checkinsCount":4626,"usersCount":1753,"tipCount":29},"url":"http:\/\/t.co\/PuJauMBn4S","allowMenuUrlEdit":true,"beenHere":{"lastCheckinExpiredAt":0},"specials":{"count":0,"items":[]},"storeId":"36","referralId":"v-1483291036","venueChains":[{"id":"556a341fa7c8957d73d4cad4"}],"hasPerk":false},{"id":"4b449b6bf964a520a4f725e3","name":"Starbucks","contact":{"phone":"8184879226","formattedPhone":"(818) 487-9226","twitter":"starbucks","facebook":"22092443056","facebookUsername":"Starbucks","facebookName":"Starbucks"},"location":{"address":"5166 Lankershim Blvd Ste A","lat":34.164768,"lng":-118.374289,"labeledLatLngs":[{"label":"display","lat":34.164768,"lng":-118.374289}],"postalCode":"91601","cc":"US","city":"North Hollywood","state":"CA","country":"United States","formattedAddress":["5166 Lankershim Blvd Ste A","North Hollywood, CA 91601","United States"]},"categories":[{"id":"4bf58dd8d48988d1e0931735","name":"Coffee Shop","pluralName":"Coffee Shops","shortName":"Coffee Shop","icon":{"prefix":"https:\/\/ss3.4sqi.net\/img\/categories_v2\/food\/coffeeshop_","suffix":".png"},"primary":true}],"verified":true,"stats":{"checkinsCount":9163,"usersCount":2441,"tipCount":23},"url":"http:\/\/www.starbucks.com\/","hasMenu":true,"menu":{"type":"Menu","label":"Menu","anchor":"View Menu","url":"https:\/\/foursquare.com\/v\/starbucks\/4b449b6bf964a520a4f725e3\/menu","mobileUrl":"https:\/\/foursquare.com\/v\/4b449b6bf964a520a4f725e3\/device_menu"},"allowMenuUrlEdit":true,"beenHere":{"lastCheckinExpiredAt":0},"specials":{"count":0,"items":[]},"storeId":"5642","referralId":"v-1483291036","venueChains":[{"id":"556f676fbd6a75a99038d8ec"}],"hasPerk":false},{"id":"4a60ceacf964a52037c11fe3","name":"Del Taco","contact":{"phone":"8188422516","formattedPhone":"(818) 842-2516","twitter":"deltaco"},"location":{"address":"3714 W Verdugo Ave","crossStreet":"at Hollywood Way","lat":34.160477628664204,"lng":-118.34426790475845,"labeledLatLngs":[{"label":"display","lat":34.160477628664204,"lng":-118.34426790475845}],"postalCode":"91505","cc":"US","city":"Burbank","state":"CA","country":"United States","formattedAddress":["3714 W Verdugo Ave (at Hollywood Way)","Burbank, CA 91505","United States"]},"categories":[{"id":"4bf58dd8d48988d1c1941735","name":"Mexican Restaurant","pluralName":"Mexican Restaurants","shortName":"Mexican","icon":{"prefix":"https:\/\/ss3.4sqi.net\/img\/categories_v2\/food\/mexican_","suffix":".png"},"primary":true}],"verified":false,"stats":{"checkinsCount":3116,"usersCount":898,"tipCount":24},"url":"http:\/\/www.deltaco.com\/","hasMenu":true,"menu":{"type":"Menu","label":"Menu","anchor":"View Menu","url":"https:\/\/foursquare.com\/v\/del-taco\/4a60ceacf964a52037c11fe3\/menu","mobileUrl":"https:\/\/foursquare.com\/v\/4a60ceacf964a52037c11fe3\/device_menu"},"allowMenuUrlEdit":true,"beenHere":{"lastCheckinExpiredAt":0},"specials":{"count":0,"items":[]},"referralId":"v-1483291036","venueChains":[{"id":"563bdac5498eeb86d4b61e72"}],"hasPerk":false},{"id":"4a4457c7f964a52078a71fe3","name":"Starbucks","contact":{"phone":"8187627450","formattedPhone":"(818) 762-7450","twitter":"starbucks","facebook":"22092443056","facebookUsername":"Starbucks","facebookName":"Starbucks"},"location":{"address":"12848 Victory Blvd","lat":34.186456,"lng":-118.413534,"labeledLatLngs":[{"label":"display","lat":34.186456,"lng":-118.413534}],"postalCode":"91606","cc":"US","city":"North Hollywood","state":"CA","country":"United States","formattedAddress":["12848 Victory Blvd","North Hollywood, CA 91606","United States"]},"categories":[{"id":"4bf58dd8d48988d1e0931735","name":"Coffee Shop","pluralName":"Coffee Shops","shortName":"Coffee Shop","icon":{"prefix":"https:\/\/ss3.4sqi.net\/img\/categories_v2\/food\/coffeeshop_","suffix":".png"},"primary":true}],"verified":true,"stats":{"checkinsCount":6117,"usersCount":1279,"tipCount":22},"url":"http:\/\/www.starbucks.com\/","hasMenu":true,"menu":{"type":"Menu","label":"Menu","anchor":"View Menu","url":"https:\/\/foursquare.com\/v\/starbucks\/4a4457c7f964a52078a71fe3\/menu","mobileUrl":"https:\/\/foursquare.com\/v\/4a4457c7f964a52078a71fe3\/device_menu"},"allowMenuUrlEdit":true,"beenHere":{"lastCheckinExpiredAt":0},"specials":{"count":0,"items":[]},"storeId":"5839","referralId":"v-1483291036","venueChains":[{"id":"556f676fbd6a75a99038d8ec"}],"hasPerk":false},{"id":"49ea1f12f964a52026661fe3","name":"Pitfire Pizza Company","contact":{"phone":"8189802949","formattedPhone":"(818) 980-2949","twitter":"PitfirePizza"},"location":{"address":"5211 Lankershim Blvd","crossStreet":"at Magnolia Blvd.","lat":34.165227101802856,"lng":-118.3750730752945,"labeledLatLngs":[{"label":"display","lat":34.165227101802856,"lng":-118.3750730752945}],"postalCode":"91601","cc":"US","city":"North Hollywood","state":"CA","country":"United States","formattedAddress":["5211 Lankershim Blvd (at Magnolia Blvd.)","North Hollywood, CA 91601","United States"]},"categories":[{"id":"4bf58dd8d48988d1ca941735","name":"Pizza Place","pluralName":"Pizza Places","shortName":"Pizza","icon":{"prefix":"https:\/\/ss3.4sqi.net\/img\/categories_v2\/food\/pizza_","suffix":".png"},"primary":true}],"verified":false,"stats":{"checkinsCount":8459,"usersCount":3997,"tipCount":72},"url":"http:\/\/www.pitfirepizza.com","hasMenu":true,"menu":{"type":"Menu","label":"Menu","anchor":"View Menu","url":"https:\/\/foursquare.com\/v\/pitfire-pizza-company\/49ea1f12f964a52026661fe3\/menu","mobileUrl":"https:\/\/foursquare.com\/v\/49ea1f12f964a52026661fe3\/device_menu"},"allowMenuUrlEdit":true,"beenHere":{"lastCheckinExpiredAt":0},"specials":{"count":0,"items":[]},"referralId":"v-1483291036","venueChains":[],"hasPerk":false},{"id":"4bd37d0541b9ef3be95600e6","name":"Hayat's Kitchen","contact":{"phone":"8187614656","formattedPhone":"(818) 761-4656"},"location":{"address":"11009 Burbank Blvd #117","crossStreet":"Vineland","lat":34.17266080766692,"lng":-118.37088521080724,"labeledLatLngs":[{"label":"display","lat":34.17266080766692,"lng":-118.37088521080724}],"postalCode":"91601","cc":"US","city":"North Hollywood","state":"CA","country":"United States","formattedAddress":["11009 Burbank Blvd #117 (Vineland)","North Hollywood, CA 91601","United States"]},"categories":[{"id":"4bf58dd8d48988d115941735","name":"Middle Eastern Restaurant","pluralName":"Middle Eastern Restaurants","shortName":"Middle Eastern","icon":{"prefix":"https:\/\/ss3.4sqi.net\/img\/categories_v2\/food\/middleeastern_","suffix":".png"},"primary":true}],"verified":false,"stats":{"checkinsCount":1745,"usersCount":745,"tipCount":26},"hasMenu":true,"menu":{"type":"Menu","label":"Menu","anchor":"View Menu","url":"https:\/\/foursquare.com\/v\/hayats-kitchen\/4bd37d0541b9ef3be95600e6\/menu","mobileUrl":"https:\/\/foursquare.com\/v\/4bd37d0541b9ef3be95600e6\/device_menu"},"allowMenuUrlEdit":true,"beenHere":{"lastCheckinExpiredAt":0},"specials":{"count":0,"items":[]},"referralId":"v-1483291036","venueChains":[],"hasPerk":false},{"id":"4b1643e9f964a520e7b723e3","name":"Jack in the Box","contact":{"phone":"8187604199","formattedPhone":"(818) 760-4199","twitter":"jackbox","facebook":"46895347303","facebookName":"Jack in the Box"},"location":{"address":"4828 Laurel Canyon Blvd","lat":34.158550020939096,"lng":-118.39617535471916,"labeledLatLngs":[{"label":"display","lat":34.158550020939096,"lng":-118.39617535471916}],"postalCode":"91607","cc":"US","city":"North Hollywood","state":"CA","country":"United States","formattedAddress":["4828 Laurel Canyon Blvd","North Hollywood, CA 91607","United States"]},"categories":[{"id":"4bf58dd8d48988d16c941735","name":"Burger Joint","pluralName":"Burger Joints","shortName":"Burgers","icon":{"prefix":"https:\/\/ss3.4sqi.net\/img\/categories_v2\/food\/burger_","suffix":".png"},"primary":true}],"verified":true,"stats":{"checkinsCount":2342,"usersCount":978,"tipCount":10},"url":"http:\/\/www.jackinthebox.com","hasMenu":true,"menu":{"type":"Menu","label":"Menu","anchor":"View Menu","url":"https:\/\/foursquare.com\/v\/jack-in-the-box\/4b1643e9f964a520e7b723e3\/menu","mobileUrl":"https:\/\/foursquare.com\/v\/4b1643e9f964a520e7b723e3\/device_menu"},"allowMenuUrlEdit":true,"beenHere":{"lastCheckinExpiredAt":0},"specials":{"count":0,"items":[]},"storeId":"339","referralId":"v-1483291036","venueChains":[{"id":"556e1846a7c82e6b72513d66"}],"hasPerk":false},{"id":"4b245d58f964a520906624e3","name":"Taco Bell","contact":{"phone":"8187660384","formattedPhone":"(818) 766-0384"},"location":{"address":"11694 Magnolia Blvd","crossStreet":"Colfax","lat":34.164667831929286,"lng":-118.38751047849655,"labeledLatLngs":[{"label":"display","lat":34.164667831929286,"lng":-118.38751047849655}],"postalCode":"91601","cc":"US","city":"North Hollywood","state":"CA","country":"United States","formattedAddress":["11694 Magnolia Blvd (Colfax)","North Hollywood, CA 91601","United States"]},"categories":[{"id":"4bf58dd8d48988d16e941735","name":"Fast Food Restaurant","pluralName":"Fast Food Restaurants","shortName":"Fast Food","icon":{"prefix":"https:\/\/ss3.4sqi.net\/img\/categories_v2\/food\/fastfood_","suffix":".png"},"primary":true}],"verified":true,"stats":{"checkinsCount":1271,"usersCount":473,"tipCount":6},"url":"http:\/\/www.tacobell.com","hasMenu":true,"menu":{"type":"Menu","label":"Menu","anchor":"View Menu","url":"https:\/\/foursquare.com\/v\/taco-bell\/4b245d58f964a520906624e3\/menu","mobileUrl":"https:\/\/foursquare.com\/v\/4b245d58f964a520906624e3\/device_menu"},"allowMenuUrlEdit":true,"beenHere":{"lastCheckinExpiredAt":0},"specials":{"count":0,"items":[]},"storeId":"288507","referralId":"v-1483291036","venueChains":[{"id":"556f46f6bd6a007c77390fac"}],"hasPerk":false},{"id":"4b7301f5f964a5206b952de3","name":"Little Toni's","contact":{"phone":"8187630131","formattedPhone":"(818) 763-0131"},"location":{"address":"4745 Lankershim Blvd","crossStreet":"Camarillo St","lat":34.156849,"lng":-118.37008553333334,"labeledLatLngs":[{"label":"display","lat":34.156849,"lng":-118.37008553333334}],"postalCode":"91602","cc":"US","city":"North Hollywood","state":"CA","country":"United States","formattedAddress":["4745 Lankershim Blvd (Camarillo St)","North Hollywood, CA 91602","United States"]},"categories":[{"id":"4bf58dd8d48988d110941735","name":"Italian Restaurant","pluralName":"Italian Restaurants","shortName":"Italian","icon":{"prefix":"https:\/\/ss3.4sqi.net\/img\/categories_v2\/food\/italian_","suffix":".png"},"primary":true}],"verified":false,"stats":{"checkinsCount":2452,"usersCount":1207,"tipCount":42},"url":"http:\/\/www.littletonis.com","hasMenu":true,"menu":{"type":"Menu","label":"Menu","anchor":"View Menu","url":"https:\/\/foursquare.com\/v\/little-tonis\/4b7301f5f964a5206b952de3\/menu","mobileUrl":"https:\/\/foursquare.com\/v\/4b7301f5f964a5206b952de3\/device_menu"},"allowMenuUrlEdit":true,"beenHere":{"lastCheckinExpiredAt":0},"specials":{"count":0,"items":[]},"referralId":"v-1483291036","venueChains":[],"hasPerk":false},{"id":"4b8c1832f964a52091bd32e3","name":"7-Eleven","contact":{"phone":"8189729332","formattedPhone":"(818) 972-9332","twitter":"7eleven","facebook":"143801125709656","facebookUsername":"7ElevenBurbank19973","facebookName":"7-Eleven"},"location":{"address":"2500 W Burbank Blvd","crossStreet":"at Buena Vista St","lat":34.17835162806326,"lng":-118.33815275916412,"labeledLatLngs":[{"label":"display","lat":34.17835162806326,"lng":-118.33815275916412}],"postalCode":"91505","cc":"US","city":"Burbank","state":"CA","country":"United States","formattedAddress":["2500 W Burbank Blvd (at Buena Vista St)","Burbank, CA 91505","United States"]},"categories":[{"id":"4d954b0ea243a5684a65b473","name":"Convenience Store","pluralName":"Convenience Stores","shortName":"Convenience Store","icon":{"prefix":"https:\/\/ss3.4sqi.net\/img\/categories_v2\/shops\/conveniencestore_","suffix":".png"},"primary":true}],"verified":true,"stats":{"checkinsCount":853,"usersCount":347,"tipCount":1},"url":"http:\/\/www.7-eleven.com","allowMenuUrlEdit":true,"beenHere":{"lastCheckinExpiredAt":0},"specials":{"count":0,"items":[]},"storeId":"19973","referralId":"v-1483291036","venueChains":[{"id":"556f676fbd6a75a99038d8e9"}],"hasPerk":false},{"id":"50844f7ce4b0e5cc9be741bc","name":"Harvest Moon Kitchen & Marketplace","contact":{"phone":"8184873923","formattedPhone":"(818) 487-3923","twitter":"hmoonkitchen"},"location":{"address":"12456 Magnolia Blvd","crossStreet":"at Whittset Ave","lat":34.164669036865234,"lng":-118.40483856201172,"labeledLatLngs":[{"label":"display","lat":34.164669036865234,"lng":-118.40483856201172}],"postalCode":"91607","cc":"US","city":"Valley Village","state":"CA","country":"United States","formattedAddress":["12456 Magnolia Blvd (at Whittset Ave)","Valley Village, CA 91607","United States"]},"categories":[{"id":"4bf58dd8d48988d16d941735","name":"Café","pluralName":"Cafés","shortName":"Café","icon":{"prefix":"https:\/\/ss3.4sqi.net\/img\/categories_v2\/food\/cafe_","suffix":".png"},"primary":true}],"verified":false,"stats":{"checkinsCount":1281,"usersCount":597,"tipCount":22},"url":"http:\/\/www.harvestmoonco.com","hasMenu":true,"menu":{"type":"Menu","label":"Menu","anchor":"View Menu","url":"https:\/\/foursquare.com\/v\/harvest-moon-kitchen--marketplace\/50844f7ce4b0e5cc9be741bc\/menu","mobileUrl":"https:\/\/foursquare.com\/v\/50844f7ce4b0e5cc9be741bc\/device_menu"},"allowMenuUrlEdit":true,"beenHere":{"lastCheckinExpiredAt":0},"specials":{"count":0,"items":[]},"referralId":"v-1483291036","venueChains":[],"hasPerk":false},{"id":"4c80a18fd34ca14386111b80","name":"7-Eleven","contact":{"phone":"8187666362","formattedPhone":"(818) 766-6362","twitter":"7eleven","facebook":"257151434315361","facebookUsername":"7ElevenNorthHollywood20401","facebookName":"7-Eleven"},"location":{"address":"6364 Vineland Ave","crossStreet":"at Victory Blvd","lat":34.18644672115543,"lng":-118.36986599747323,"labeledLatLngs":[{"label":"display","lat":34.18644672115543,"lng":-118.36986599747323}],"postalCode":"91606","cc":"US","city":"North Hollywood","state":"CA","country":"United States","formattedAddress":["6364 Vineland Ave (at Victory Blvd)","North Hollywood, CA 91606","United States"]},"categories":[{"id":"4d954b0ea243a5684a65b473","name":"Convenience Store","pluralName":"Convenience Stores","shortName":"Convenience Store","icon":{"prefix":"https:\/\/ss3.4sqi.net\/img\/categories_v2\/shops\/conveniencestore_","suffix":".png"},"primary":true}],"verified":true,"stats":{"checkinsCount":575,"usersCount":180,"tipCount":0},"url":"http:\/\/www.7-eleven.com","allowMenuUrlEdit":true,"beenHere":{"lastCheckinExpiredAt":0},"specials":{"count":0,"items":[]},"storeId":"20401","referralId":"v-1483291036","venueChains":[{"id":"556f676fbd6a75a99038d8e9"}],"hasPerk":false},{"id":"4ae4e988f964a5205f9f21e3","name":"Jack in the Box","contact":{"phone":"8188419689","formattedPhone":"(818) 841-9689","twitter":"jackbox","facebook":"46895347303","facebookName":"Jack in the Box"},"location":{"address":"2511 N San Fernando Blvd","lat":34.19767616177928,"lng":-118.33820343017578,"labeledLatLngs":[{"label":"display","lat":34.19767616177928,"lng":-118.33820343017578}],"postalCode":"91504","cc":"US","city":"Burbank","state":"CA","country":"United States","formattedAddress":["2511 N San Fernando Blvd","Burbank, CA 91504","United States"]},"categories":[{"id":"4bf58dd8d48988d16c941735","name":"Burger Joint","pluralName":"Burger Joints","shortName":"Burgers","icon":{"prefix":"https:\/\/ss3.4sqi.net\/img\/categories_v2\/food\/burger_","suffix":".png"},"primary":true}],"verified":true,"stats":{"checkinsCount":1897,"usersCount":781,"tipCount":11},"url":"http:\/\/www.jackinthebox.com","hasMenu":true,"menu":{"type":"Menu","label":"Menu","anchor":"View Menu","url":"https:\/\/foursquare.com\/v\/jack-in-the-box\/4ae4e988f964a5205f9f21e3\/menu","mobileUrl":"https:\/\/foursquare.com\/v\/4ae4e988f964a5205f9f21e3\/device_menu"},"allowMenuUrlEdit":true,"beenHere":{"lastCheckinExpiredAt":0},"specials":{"count":0,"items":[]},"storeId":"305","referralId":"v-1483291036","venueChains":[{"id":"556e1846a7c82e6b72513d66"}],"hasPerk":false}]}}