{"meta":{"code":200,"requestId":"5869399d1ed21945673d043e"},"response":{"venues":[{"id":"4ae8a19df964a5200db121e3","name":"Ralphs","contact":{"phone":"8183860118","formattedPhone":"(818) 386-0118"},"location":{"address":"16325 Ventura Blvd","crossStreet":"at Hayvenhurst Ave.","lat":34.15767371257063,"lng":-118.48987187941424,"labeledLatLngs":[{"label":"display","lat":34.15767371257063,"lng":-118.48987187941424}],"postalCode":"91436","cc":"US","city":"Encino","state":"CA","country":"United States","formattedAddress":["16325 Ventura Blvd (at Hayvenhurst Ave.)","Encino, CA 91436","United States"]},"categories":[{"id":"4bf58dd8d48988d118951735","name":"Grocery Store","pluralName":"Grocery Stores","shortName":"Grocery Store","icon":{"prefix":"https:\/\/ss3.4sqi.net\/img\/categories_v2\/shops\/food_grocery_","suffix":".png"},"primary":true}],"verified":true,"stats":{"checkinsCount":3846,"usersCount":1017,"tipCount":10},"url":"http:\/\/www.ralphs.com","allowMenuUrlEdit":true,"beenHere":{"lastCheckinExpiredAt":0},"specials":{"count":0,"items":[]},"storeId":"219","referralId":"v-1483291037","venueChains":[{"id":"556c9628a7c8a11a36bdd0b7"}],"hasPerk":false},{"id":"4ab445a2f964a520ac7020e3","name":"Starbucks","contact":{"phone":"8189063961","formattedPhone":"(818) 906-3961","twitter":"starbucks","facebook":"22092443056","facebookUsername":"Starbucks","facebookName":"Starbucks"},"location":{"address":"16461A Ventura Blvd","lat":34.157727,"lng":-118.491662,"labeledLatLngs":[{"label":"display","lat":34.157727,"lng":-118.491662}],"postalCode":"91436","cc":"US","city":"Encino","state":"CA","country":"United States","formattedAddress":["16461A Ventura Blvd","Encino, CA 91436","United States"]},"categories":[{"id":"4bf58dd8d48988d1e0931735","name":"Coffee Shop","pluralName":"Coffee Shops","shortName":"Coffee Shop","icon":{"prefix":"https:\/\/ss3.4sqi.net\/img\/categories_v2\/food\/coffeeshop_","suffix":".png"},"primary":true}],"verified":true,"stats":{"checkinsCount":6563,"usersCount":1668,"tipCount":29},"url":"http:\/\/www.starbucks.com\/","hasMenu":true,"menu":{"type":"Menu","label":"Menu","anchor":"View Menu","url":"https:\/\/foursquare.com\/v\/starbucks\/4ab445a2f964a520ac7020e3\/menu","mobileUrl":"https:\/\/foursquare.com\/v\/4ab445a2f964a520ac7020e3\/device_menu"},"allowMenuUrlEdit":true,"beenHere":{"lastCheckinExpiredAt":0},"specials":{"count":0,"items":[]},"storeId":"643","referralId":"v-1483291037","venueChains":[{"id":"556f676fbd6a75a99038d8ec"}],"hasPerk":false},{"id":"4a4a803ff964a520e4ab1fe3","name":"Starbucks","contact":{"phone":"8187573142","formattedPhone":"(818) 757-3142","twitter":"starbucks","facebook":"22092443056","facebookUsername":"Starbucks","facebookName":"Starbucks"},"location":{"address":"17272 Saticoy St","lat":34.207734,"lng":-118.509609,"labeledLatLngs":[{"label":"display","lat":34.207734,"lng":-118.509609}],"postalCode":"91406","cc":"US","city":"Van Nuys","state":"CA","country":"United States","formattedAddress":["17272 Saticoy St","Van Nuys, CA 91406","United States"]},"categories":[{"id":"4bf58dd8d48988d1e0931735","name":"Coffee Shop","pluralName":"Coffee Shops","shortName":"Coffee Shop","icon":{"prefix":"https:\/\/ss3.4sqi.net\/img\/categories_v2\/food\/coffeeshop_","suffix":".png"},"primary":true}],"verified":true,"stats":{"checkinsCount":5763,"usersCount":678,"tipCount":23},"url":"http:\/\/www.starbucks.com\/","hasMenu":true,"menu":{"type":"Menu","label":"Menu","anchor":"View Menu","url":"https:\/\/foursquare.com\/v\/starbucks\/4a4a803ff964a520e4ab1fe3\/menu","mobileUrl":"https:\/\/foursquare.com\/v\/4a4a803ff964a520e4ab1fe3\/device_menu"},"allowMenuUrlEdit":true,"beenHere":{"lastCheckinExpiredAt":0},"specials":{"count":0,"items":[]},"storeId":"9456","referralId":"v-1483291037","venueChains":[{"id":"556f676fbd6a75a99038d8ec"}],"hasPerk":false},{"id":"5576dbfd498ed29e0795b50c","name":"Dunkin' Donuts","contact":{"phone":"8189550555","formattedPhone":"(818) 955-0555","twitter":"dunkindonuts"},"location":{"address":"4920 Balboa Blvd","crossStreet":"at Ventura Blvd","lat":34.15990052908116,"lng":-118.5009054453551,"labeledLatLngs":[{"label":"display","lat":34.15990052908116,"lng":-118.5009054453551}],"postalCode":"91316","cc":"US","city":"Encino","state":"CA","country":"United States","formattedAddress":["4920 Balboa Blvd (at Ventura Blvd)","Encino, CA 91316","United States"]},"categories":[{"id":"4bf58dd8d48988d148941735","name":"Donut Shop","pluralName":"Donut Shops","shortName":"Donuts","icon":{"prefix":"https:\/\/ss3.4sqi.net\/img\/categories_v2\/food\/donuts_","suffix":".png"},"primary":true}],"verified":false,"stats":{"checkinsCount":1434,"usersCount":475,"tipCount":16},"url":"http:\/\/www.dunkindonuts.com","allowMenuUrlEdit":true,"beenHere":{"lastCheckinExpiredAt":0},"specials":{"count":0,"items":[]},"referralId":"v-1483291037","venueChains":[{"id":"556f676fbd6a75a99038d8f0"}],"hasPerk":false},{"id":"4a673e35f964a52008c91fe3","name":"Starbucks","contact":{"phone":"8187790347","formattedPhone":"(818) 779-0347","twitter":"starbucks","facebook":"22092443056","facebookUsername":"Starbucks","facebookName":"Starbucks"},"location":{"address":"14431 Burbank Blvd","crossStreet":"Tilden Ave","lat":34.172451,"lng":-118.447522,"labeledLatLngs":[{"label":"display","lat":34.172451,"lng":-118.447522}],"postalCode":"91401","cc":"US","city":"Van Nuys","state":"CA","country":"United States","formattedAddress":["14431 Burbank Blvd (Tilden Ave)","Van Nuys, CA 91401","United States"]},"categories":[{"id":"4bf58dd8d48988d1e0931735","name":"Coffee Shop","pluralName":"Coffee Shops","shortName":"Coffee Shop","icon":{"prefix":"https:\/\/ss3.4sqi.net\/img\/categories_v2\/food\/coffeeshop_","suffix":".png"},"primary":true}],"verified":true,"stats":{"checkinsCount":8217,"usersCount":1721,"tipCount":23},"url":"http:\/\/www.starbucks.com\/","hasMenu":true,"menu":{"type":"Menu","label":"Menu","anchor":"View Menu","url":"https:\/\/foursquare.com\/v\/starbucks\/4a673e35f964a52008c91fe3\/menu","mobileUrl":"https:\/\/foursquare.com\/v\/4a673e35f964a52008c91fe3\/device_menu"},"allowMenuUrlEdit":true,"beenHere":{"lastCheckinExpiredAt":0},"specials":{"count":0,"items":[]},"storeId":"6630","referralId":"v-1483291037","venueChains":[{"id":"556f676fbd6a75a99038d8ec"}],"hasPerk":false},{"id":"44d76457f964a5206a361fe3","name":"The Spot","contact":{"phone":"8187832233","formattedPhone":"(818) 783-2233"},"location":{"address":"17200 Ventura Blvd","crossStreet":"at Louise Ave","lat":34.15980291547955,"lng":-118.5078477859497,"labeledLatLngs":[{"label":"display","lat":34.15980291547955,"lng":-118.5078477859497}],"postalCode":"91316","cc":"US","city":"Encino","state":"CA","country":"United States","formattedAddress":["17200 Ventura Blvd (at Louise Ave)","Encino, CA 91316","United States"]},"categories":[{"id":"4bf58dd8d48988d119941735","name":"Hookah Bar","pluralName":"Hookah Bars","shortName":"Hookah Bar","icon":{"prefix":"https:\/\/ss3.4sqi.net\/img\/categories_v2\/nightlife\/hookahbar_","suffix":".png"},"primary":true}],"verified":false,"stats":{"checkinsCount":8070,"usersCount":2217,"tipCount":53},"allowMenuUrlEdit":true,"beenHere":{"lastCheckinExpiredAt":0},"specials":{"count":0,"items":[]},"referralId":"v-1483291037","venueChains":[],"hasPerk":false},{"id":"4ab93456f964a5207f7e20e3","name":"In-N-Out Burger","contact":{"phone":"8007861000","formattedPhone":"(800) 786-1000","twitter":"innoutburger"},"location":{"address":"7220 Balboa Blvd","crossStreet":"at Sherman Way","lat":34.20186451799857,"lng":-118.50069165229797,"labeledLatLngs":[{"label":"display","lat":34.20186451799857,"lng":-118.50069165229797}],"postalCode":"91406","cc":"US","city":"Van Nuys","state":"CA","country":"United States","formattedAddress":["7220 Balboa Blvd (at Sherman Way)","Van Nuys, CA 91406","United States"]},"categories":[{"id":"4bf58dd8d48988d16e941735","name":"Fast Food Restaurant","pluralName":"Fast Food Restaurants","shortName":"Fast Food","icon":{"prefix":"https:\/\/ss3.4sqi.net\/img\/categories_v2\/food\/fastfood_","suffix":".png"},"primary":true}],"verified":true,"stats":{"checkinsCount":4299,"usersCount":1857,"tipCount":30},"url":"http:\/\/www.in-n-out.com","hasMenu":true,"menu":{"type":"Menu","label":"Menu","anchor":"View Menu","url":"https:\/\/foursquare.com\/v\/innout-burger\/4ab93456f964a5207f7e20e3\/menu","mobileUrl":"https:\/\/foursquare.com\/v\/4ab93456f964a5207f7e20e3\/device_menu"},"allowMenuUrlEdit":true,"beenHere":{"lastCheckinExpiredAt":0},"specials":{"count":0,"items":[]},"storeId":"196","referralId":"v-1483291037","venueChains":[{"id":"556cdd65aceaff43eb03dddb"}],"hasPerk":false},{"id":"54457d7b498e940725958e55","name":"Starbucks","contact":{"phone":"8189889180","formattedPhone":"(818) 988-9180","twitter":"starbucks","facebook":"22092443056","facebookUsername":"Starbucks","facebookName":"Starbucks"},"location":{"address":"6833 Van Nuys Blvd.","crossStreet":"Hartland St","lat":34.195023,"lng":-118.449165,"labeledLatLngs":[{"label":"display","lat":34.195023,"lng":-118.449165}],"postalCode":"91405","cc":"US","city":"Van Nuys","state":"CA","country":"United States","formattedAddress":["6833 Van Nuys Blvd. (Hartland St)","Van Nuys, CA 91405","United States"]},"categories":[{"id":"4bf58dd8d48988d1e0931735","name":"Coffee Shop","pluralName":"Coffee Shops","shortName":"Coffee Shop","icon":{"prefix":"https:\/\/ss3.4sqi.net\/img\/categories_v2\/food\/coffeeshop_","suffix":".png"},"primary":true}],"verified":true,"stats":{"checkinsCount":443,"usersCount":161,"tipCount":1},"url":"http:\/\/www.starbucks.com","allowMenuUrlEdit":true,"beenHere":{"lastCheckinExpiredAt":0},"specials":{"count":0,"items":[]},"storeId":"23369","referralId":"v-1483291037","venueChains":[{"id":"556f676fbd6a75a99038d8ec"}],"hasPerk":false},{"id":"4aa30a0ef964a5201b4320e3","name":"Starbucks","contact":{"phone":"8189869621","formattedPhone":"(818) 986-9621","twitter":"starbucks","facebook":"22092443056","facebookUsername":"Starbucks","facebookName":"Starbucks"},"location":{"address":"17308 Ventura Blvd.","lat":34.160776,"lng":-118.510383,"labeledLatLngs":[{"label":"display","lat":34.160776,"lng":-118.510383}],"postalCode":"91316","cc":"US","city":"Encino","state":"CA","country":"United States","formattedAddress":["17308 Ventura Blvd.","Encino, CA 91316","United States"]},"categories":[{"id":"4bf58dd8d48988d1e0931735","name":"Coffee Shop","pluralName":"Coffee Shops","shortName":"Coffee Shop","icon":{"prefix":"https:\/\/ss3.4sqi.net\/img\/categories_v2\/food\/coffeeshop_","suffix":".png"},"primary":true}],"verified":true,"stats":{"checkinsCount":5275,"usersCount":1163,"tipCount":21},"url":"http:\/\/www.starbucks.com\/","hasMenu":true,"menu":{"type":"Menu","label":"Menu","anchor":"View Menu","url":"https:\/\/foursquare.com\/v\/starbucks\/4aa30a0ef964a5201b4320e3\/menu","mobileUrl":"https:\/\/foursquare.com\/v\/4aa30a0ef964a5201b4320e3\/device_menu"},"allowMenuUrlEdit":true,"beenHere":{"lastCheckinExpiredAt":0},"specials":{"count":0,"items":[]},"storeId":"544","referralId":"v-1483291037","venueChains":[{"id":"556f676fbd6a75a99038d8ec"}],"hasPerk":false},{"id":"4ad8947ef964a5207f1221e3","name":"Starbucks","contact":{"phone":"8182216907","formattedPhone":"(818) 221-6907","twitter":"starbucks","facebook":"22092443056","facebookUsername":"Starbucks","facebookName":"Starbucks"},"location":{"address":"9002 Sepulveda Blvd","crossStreet":"at Nordhoff St","lat":34.234621,"lng":-118.467262,"labeledLatLngs":[{"label":"display","lat":34.234621,"lng":-118.467262}],"postalCode":"91343","cc":"US","city":"North Hills","state":"CA","country":"United States","formattedAddress":["9002 Sepulveda Blvd (at Nordhoff St)","North Hills, CA 91343","United States"]},"categories":[{"id":"4bf58dd8d48988d1e0931735","name":"Coffee Shop","pluralName":"Coffee Shops","shortName":"Coffee Shop","icon":{"prefix":"https:\/\/ss3.4sqi.net\/img\/categories_v2\/food\/coffeeshop_","suffix":".png"},"primary":true}],"verified":true,"stats":{"checkinsCount":5833,"usersCount":1164,"tipCount":27},"url":"http:\/\/www.starbucks.com\/","hasMenu":true,"menu":{"type":"Menu","label":"Menu","anchor":"View Menu","url":"https:\/\/foursquare.com\/v\/starbucks\/4ad8947ef964a5207f1221e3\/menu","mobileUrl":"https:\/\/foursquare.com\/v\/4ad8947ef964a5207f1221e3\/device_menu"},"allowMenuUrlEdit":true,"beenHere":{"lastCheckinExpiredAt":0},"specials":{"count":0,"items":[]},"storeId":"8637","referralId":"v-1483291037","venueChains":[{"id":"556f676fbd6a75a99038d8ec"}],"hasPerk":false},{"id":"4b369b43f964a520003925e3","name":"Original Tommy's Hamburgers","contact":{"phone":"8188931715","formattedPhone":"(818) 893-1715","twitter":"originaltommys","facebook":"9379349474","facebookUsername":"OriginalTommys","facebookName":"Original Tommy's"},"location":{"address":"15745 Roscoe Blvd","crossStreet":"at Haskell Ave.","lat":34.221731850010066,"lng":-118.47584364710617,"labeledLatLngs":[{"label":"display","lat":34.221731850010066,"lng":-118.47584364710617}],"postalCode":"91343","cc":"US","city":"North Hills","state":"CA","country":"United States","formattedAddress":["15745 Roscoe Blvd (at Haskell Ave.)","North Hills, CA 91343","United States"]},"categories":[{"id":"4bf58dd8d48988d16c941735","name":"Burger Joint","pluralName":"Burger Joints","shortName":"Burgers","icon":{"prefix":"https:\/\/ss3.4sqi.net\/img\/categories_v2\/food\/burger_","suffix":".png"},"primary":true}],"verified":true,"stats":{"checkinsCount":2483,"usersCount":1234,"tipCount":15},"url":"http:\/\/originaltommys.com","hasMenu":true,"menu":{"type":"Menu","label":"Menu","anchor":"View Menu","url":"https:\/\/foursquare.com\/v\/original-tommys-hamburgers\/4b369b43f964a520003925e3\/menu","mobileUrl":"https:\/\/foursquare.com\/v\/4b369b43f964a520003925e3\/device_menu"},"allowMenuUrlEdit":true,"beenHere":{"lastCheckinExpiredAt":0},"specials":{"count":0,"items":[]},"referralId":"v-1483291037","venueChains":[{"id":"5569f39da7c8896abe7c6624"}],"hasPerk":false},{"id":"4c0188ad58dbc928898aee6b","name":"Food 4 Less","contact":{"phone":"8188300249","formattedPhone":"(818) 830-0249"},"location":{"address":"16208 Parthenia St","crossStreet":"at Woodley Ave","lat":34.227527720124755,"lng":-118.48635352802181,"labeledLatLngs":[{"label":"display","lat":34.227527720124755,"lng":-118.48635352802181}],"postalCode":"91343","cc":"US","city":"North Hills","state":"CA","country":"United States","formattedAddress":["16208 Parthenia St (at Woodley Ave)","North Hills, CA 91343","United States"]},"categories":[{"id":"4bf58dd8d48988d118951735","name":"Grocery Store","pluralName":"Grocery Stores","shortName":"Grocery Store","icon":{"prefix":"https:\/\/ss3.4sqi.net\/img\/categories_v2\/shops\/food_grocery_","suffix":".png"},"primary":true}],"verified":true,"stats":{"checkinsCount":2378,"usersCount":481,"tipCount":8},"url":"http:\/\/www.food4less.com\/","allowMenuUrlEdit":true,"beenHere":{"lastCheckinExpiredAt":0},"specials":{"count":0,"items":[]},"storeId":"354","referralId":"v-1483291037","venueChains":[{"id":"556a3a90a7c8957d73d563db"}],"hasPerk":false},{"id":"4af1bb0cf964a52091e221e3","name":"McDonald's","contact":{"phone":"8189978120","formattedPhone":"(818) 997-8120"},"location":{"address":"14850 Victory Blvd","crossStreet":"at Kester Ave","lat":34.18640117340608,"lng":-118.45702260732651,"labeledLatLngs":[{"label":"display","lat":34.18640117340608,"lng":-118.45702260732651}],"postalCode":"91411","cc":"US","city":"Van Nuys","state":"CA","country":"United States","formattedAddress":["14850 Victory Blvd (at Kester Ave)","Van Nuys, CA 91411","United States"]},"categories":[{"id":"4bf58dd8d48988d16e941735","name":"Fast Food Restaurant","pluralName":"Fast Food Restaurants","shortName":"Fast Food","icon":{"prefix":"https:\/\/ss3.4sqi.net\/img\/categories_v2\/food\/fastfood_","suffix":".png"},"primary":true}],"verified":true,"stats":{"checkinsCount":1097,"usersCount":457,"tipCount":8},"url":"http:\/\/mcdonalds.com","hasMenu":true,"menu":{"type":"Menu","label":"Menu","anchor":"View Menu","url":"https:\/\/foursquare.com\/v\/mcdonalds\/4af1bb0cf964a52091e221e3\/menu","mobileUrl":"https:\/\/foursquare.com\/v\/4af1bb0cf964a52091e221e3\/device_menu"},"allowMenuUrlEdit":true,"beenHere":{"lastCheckinExpiredAt":0},"specials":{"count":0,"items":[]},"referralId":"v-1483291037","venueChains":[{"id":"556f7a12bd6a75a9903bddb2"}],"hasPerk":false},{"id":"4af73813f964a520460722e3","name":"In-N-Out Burger","contact":{"phone":"8007861000","formattedPhone":"(800) 786-1000","twitter":"innoutburger"},"location":{"address":"7930 Van Nuys Blvd","lat":34.215004,"lng":-118.44824958,"labeledLatLngs":[{"label":"display","lat":34.215004,"lng":-118.44824958}],"postalCode":"91402","cc":"US","city":"Van Nuys","state":"CA","country":"United States","formattedAddress":["7930 Van Nuys Blvd","Van Nuys, CA 91402","United States"]},"categories":[{"id":"4bf58dd8d48988d16c941735","name":"Burger Joint","pluralName":"Burger Joints","shortName":"Burgers","icon":{"prefix":"https:\/\/ss3.4sqi.net\/img\/categories_v2\/food\/burger_","suffix":".png"},"primary":true}],"verified":true,"stats":{"checkinsCount":2653,"usersCount":1355,"tipCount":22},"url":"http:\/\/www.in-n-out.com","hasMenu":true,"menu":{"type":"Menu","label":"Menu","anchor":"View Menu","url":"https:\/\/foursquare.com\/v\/innout-burger\/4af73813f964a520460722e3\/menu","mobileUrl":"https:\/\/foursquare.com\/v\/4af73813f964a520460722e3\/device_menu"},"allowMenuUrlEdit":true,"beenHere":{"lastCheckinExpiredAt":0},"specials":{"count":0,"items":[]},"storeId":"134","referralId":"v-1483291037","venueChains":[{"id":"556cdd65aceaff43eb03dddb"}],"hasPerk":false},{"id":"51aa23aa498e75de5ef77a86","name":"Starbucks","contact":{"phone":"8188818053","formattedPhone":"(818) 881-8053","twitter":"starbucks","facebook":"22092443056","facebookUsername":"Starbucks","facebookName":"Starbucks"},"location":{"address":"16926 Roscoe Blvd","lat":34.221003027527644,"lng":-118.50207433292252,"labeledLatLngs":[{"label":"display","lat":34.221003027527644,"lng":-118.50207433292252}],"postalCode":"91406","cc":"US","city":"Van Nuys","state":"CA","country":"United States","formattedAddress":["16926 Roscoe Blvd","Van Nuys, CA 91406","United States"]},"categories":[{"id":"4bf58dd8d48988d1e0931735","name":"Coffee Shop","pluralName":"Coffee Shops","shortName":"Coffee Shop","icon":{"prefix":"https:\/\/ss3.4sqi.net\/img\/categories_v2\/food\/coffeeshop_","suffix":".png"},"primary":true}],"verified":true,"stats":{"checkinsCount":1268,"usersCount":395,"tipCount":10},"url":"http:\/\/www.starbucks.com\/","allowMenuUrlEdit":true,"beenHere":{"lastCheckinExpiredAt":0},"specials":{"count":0,"items":[]},"storeId":"19305","referralId":"v-1483291037","venueChains":[{"id":"556f676fbd6a75a99038d8ec"}],"hasPerk":false},{"id":"4af0adc6f964a52034de21e3","name":"94th Aero Squadron","contact":{"phone":"8189947437","formattedPhone":"(818) 994-7437","twitter":"srccorp"},"location":{"address":"16320 Raymer St","crossStreet":"Woodley Ave","lat":34.21771754134409,"lng":-118.48873333068848,"labeledLatLngs":[{"label":"display","lat":34.21771754134409,"lng":-118.48873333068848}],"postalCode":"91406","cc":"US","city":"Van Nuys","state":"CA","country":"United States","formattedAddress":["16320 Raymer St (Woodley Ave)","Van Nuys, CA 91406","United States"]},"categories":[{"id":"4bf58dd8d48988d14e941735","name":"American Restaurant","pluralName":"American Restaurants","shortName":"American","icon":{"prefix":"https:\/\/ss3.4sqi.net\/img\/categories_v2\/food\/default_","suffix":".png"},"primary":true}],"verified":true,"stats":{"checkinsCount":1523,"usersCount":1071,"tipCount":13},"url":"http:\/\/www.therustypelican.com\/rustypelicanmiami\/default.aspx","hasMenu":true,"menu":{"type":"Menu","label":"Menu","anchor":"View Menu","url":"https:\/\/foursquare.com\/v\/94th-aero-squadron\/4af0adc6f964a52034de21e3\/menu","mobileUrl":"https:\/\/foursquare.com\/v\/4af0adc6f964a52034de21e3\/device_menu"},"allowMenuUrlEdit":true,"beenHere":{"lastCheckinExpiredAt":0},"specials":{"count":0,"items":[]},"referralId":"v-1483291037","venueChains":[{"id":"55693a12acea5b47744bbc6f"}],"hasPerk":false},{"id":"4ba521bcf964a52090e138e3","name":"Norm's Restaurant","contact":{"phone":"8187805060","formattedPhone":"(818) 780-5060"},"location":{"address":"13640 Sherman Way","crossStreet":"at Woodman Ave","lat":34.200986045273176,"lng":-118.43044996261597,"labeledLatLngs":[{"label":"display","lat":34.200986045273176,"lng":-118.43044996261597}],"postalCode":"91405","cc":"US","city":"Van Nuys","state":"CA","country":"United States","formattedAddress":["13640 Sherman Way (at Woodman Ave)","Van Nuys, CA 91405","United States"]},"categories":[{"id":"4bf58dd8d48988d147941735","name":"Diner","pluralName":"Diners","shortName":"Diner","icon":{"prefix":"https:\/\/ss3.4sqi.net\/img\/categories_v2\/food\/diner_","suffix":".png"},"primary":true}],"verified":false,"stats":{"checkinsCount":4524,"usersCount":1838,"tipCount":42},"url":"http:\/\/www.normsrestaurants.com\/","hasMenu":true,"menu":{"type":"Menu","label":"Menu","anchor":"View Menu","url":"https:\/\/foursquare.com\/v\/norms-restaurant\/4ba521bcf964a52090e138e3\/menu","mobileUrl":"https:\/\/foursquare.com\/v\/4ba521bcf964a52090e138e3\/device_menu"},"allowMenuUrlEdit":true,"beenHere":{"lastCheckinExpiredAt":0},"specials":{"count":0,"items":[]},"referralId":"v-1483291037","venueChains":[],"hasPerk":false},{"id":"4b4cc7c9f964a52095be26e3","name":"Starbucks","contact":{"phone":"8187870135","formattedPhone":"(818) 787-0135","twitter":"starbucks","facebook":"22092443056","facebookUsername":"Starbucks","facebookName":"Starbucks"},"location":{"address":"15355 Sherman Way","lat":34.2014,"lng":-118.468279,"labeledLatLngs":[{"label":"display","lat":34.2014,"lng":-118.468279}],"postalCode":"91406","cc":"US","city":"Van Nuys","state":"CA","country":"United States","formattedAddress":["15355 Sherman Way","Van Nuys, CA 91406","United States"]},"categories":[{"id":"4bf58dd8d48988d1e0931735","name":"Coffee Shop","pluralName":"Coffee Shops","shortName":"Coffee Shop","icon":{"prefix":"https:\/\/ss3.4sqi.net\/img\/categories_v2\/food\/coffeeshop_","suffix":".png"},"primary":true}],"verified":true,"stats":{"checkinsCount":4653,"usersCount":1378,"tipCount":23},"url":"http:\/\/www.starbucks.com\/store\/14071","hasMenu":true,"menu":{"type":"Menu","label":"Menu","anchor":"View Menu","url":"https:\/\/foursquare.com\/v\/starbucks\/4b4cc7c9f964a52095be26e3\/menu","mobileUrl":"https:\/\/foursquare.com\/v\/4b4cc7c9f964a52095be26e3\/device_menu"},"allowMenuUrlEdit":true,"beenHere":{"lastCheckinExpiredAt":0},"specials":{"count":0,"items":[]},"storeId":"6961","referralId":"v-1483291037","venueChains":[{"id":"556f676fbd6a75a99038d8ec"}],"hasPerk":false},{"id":"49c83696f964a52002581fe3","name":"Nat's Early Bite Coffee Shop","contact":{"phone":"8187813040","formattedPhone":"(818) 781-3040"},"location":{"address":"14115 Burbank Blvd","crossStreet":"at Hazeltine Ave.","lat":34.17235984,"lng":-118.440513,"labeledLatLngs":[{"label":"display","lat":34.17235984,"lng":-118.440513}],"postalCode":"91401","cc":"US","city":"Sherman Oaks","state":"CA","country":"United States","formattedAddress":["14115 Burbank Blvd (at Hazeltine Ave.)","Sherman Oaks, CA 91401","United States"]},"categories":[{"id":"4bf58dd8d48988d147941735","name":"Diner","pluralName":"Diners","shortName":"Diner","icon":{"prefix":"https:\/\/ss3.4sqi.net\/img\/categories_v2\/food\/diner_","suffix":".png"},"primary":true}],"verified":false,"stats":{"checkinsCount":3815,"usersCount":1414,"tipCount":74},"url":"http:\/\/natsearlybite.com","hasMenu":true,"menu":{"type":"Menu","label":"Menu","anchor":"View Menu","url":"https:\/\/foursquare.com\/v\/nats-early-bite-coffee-shop\/49c83696f964a52002581fe3\/menu","mobileUrl":"https:\/\/foursquare.com\/v\/49c83696f964a52002581fe3\/device_menu"},"allowMenuUrlEdit":true,"beenHere":{"lastCheckinExpiredAt":0},"specials":{"count":0,"items":[]},"referralId":"v-1483291037","venueChains":[],"hasPerk":false},{"id":"49bdcdabf964a5209b541fe3","name":"The Stand","contact":{"phone":"8187882700","formattedPhone":"(818) 788-2700"},"location":{"address":"17000 Ventura Blvd","crossStreet":"at Genesta Ave.","lat":34.15975888823607,"lng":-118.50374497248595,"labeledLatLngs":[{"label":"display","lat":34.15975888823607,"lng":-118.50374497248595}],"postalCode":"91316","cc":"US","city":"Encino","state":"CA","country":"United States","formattedAddress":["17000 Ventura Blvd (at Genesta Ave.)","Encino, CA 91316","United States"]},"categories":[{"id":"4bf58dd8d48988d16f941735","name":"Hot Dog Joint","pluralName":"Hot Dog Joints","shortName":"Hot Dogs","icon":{"prefix":"https:\/\/ss3.4sqi.net\/img\/categories_v2\/food\/hotdog_","suffix":".png"},"primary":true}],"verified":true,"stats":{"checkinsCount":4233,"usersCount":1427,"tipCount":58},"url":"http:\/\/thestandlink.com","hasMenu":true,"menu":{"type":"Menu","label":"Menu","anchor":"View Menu","url":"https:\/\/foursquare.com\/v\/the-stand\/49bdcdabf964a5209b541fe3\/menu","mobileUrl":"https:\/\/foursquare.com\/v\/49bdcdabf964a5209b541fe3\/device_menu"},"allowMenuUrlEdit":true,"beenHere":{"lastCheckinExpiredAt":0},"specials":{"count":0,"items":[]},"referralId":"v-1483291037","venueChains":[{"id":"556e582dbd6a82902e28db7f"}],"hasPerk":false},{"id":"4be3873221d5a5930b891911","name":"7-Eleven","contact":{"phone":"8187806978","formattedPhone":"(818) 780-6978","twitter":"7eleven","facebook":"126349590797776","facebookUsername":"7ElevenVanNuys18949","facebookName":"7-Eleven"},"location":{"address":"14060 Oxnard St","crossStreet":"at Hazeltine Ave.","lat":34.17918730225217,"lng":-118.43972404148317,"labeledLatLngs":[{"label":"display","lat":34.17918730225217,"lng":-118.43972404148317}],"postalCode":"91401","cc":"US","city":"Van Nuys","state":"CA","country":"United States","formattedAddress":["14060 Oxnard St (at Hazeltine Ave.)","Van Nuys, CA 91401","United States"]},"categories":[{"id":"4d954b0ea243a5684a65b473","name":"Convenience Store","pluralName":"Convenience Stores","shortName":"Convenience Store","icon":{"prefix":"https:\/\/ss3.4sqi.net\/img\/categories_v2\/shops\/conveniencestore_","suffix":".png"},"primary":true}],"verified":true,"stats":{"checkinsCount":719,"usersCount":214,"tipCount":2},"url":"http:\/\/www.7-eleven.com","allowMenuUrlEdit":true,"beenHere":{"lastCheckinExpiredAt":0},"specials":{"count":0,"items":[]},"storeId":"18949","referralId":"v-1483291037","venueChains":[{"id":"556f676fbd6a75a99038d8e9"}],"hasPerk":false},{"id":"52ec5a2b11d2d0357c4f5481","name":"PizzaRev","contact":{"phone":"8189043417","formattedPhone":"(818) 904-3417","twitter":"pizzarevco"},"location":{"address":"5608 Van Nuys Blvd","crossStreet":"at Burbank Blvd.","lat":34.17248323576275,"lng":-118.44826843739979,"labeledLatLngs":[{"label":"display","lat":34.17248323576275,"lng":-118.44826843739979}],"postalCode":"91401","cc":"US","city":"Van Nuys","state":"CA","country":"United States","formattedAddress":["5608 Van Nuys Blvd (at Burbank Blvd.)","Van Nuys, CA 91401","United States"]},"categories":[{"id":"4bf58dd8d48988d1ca941735","name":"Pizza Place","pluralName":"Pizza Places","shortName":"Pizza","icon":{"prefix":"https:\/\/ss3.4sqi.net\/img\/categories_v2\/food\/pizza_","suffix":".png"},"primary":true}],"verified":true,"stats":{"checkinsCount":847,"usersCount":379,"tipCount":14},"url":"http:\/\/www.pizzarev.com","allowMenuUrlEdit":true,"beenHere":{"lastCheckinExpiredAt":0},"specials":{"count":0,"items":[]},"referralId":"v-1483291037","venueChains":[{"id":"556f41c8bd6a007c77386d1e"}],"hasPerk":false},{"id":"4a26b613f964a520c67e1fe3","name":"Barone's","contact":{"phone":"8187846226","formattedPhone":"(818) 784-6226"},"location":{"address":"13726 Oxnard St","crossStreet":"at Mammoth Ave","lat":34.17936334914416,"lng":-118.43193787835085,"labeledLatLngs":[{"label":"display","lat":34.17936334914416,"lng":-118.43193787835085}],"postalCode":"91401","cc":"US","city":"Van Nuys","state":"CA","country":"United States","formattedAddress":["13726 Oxnard St (at Mammoth Ave)","Van Nuys, CA 91401","United States"]},"categories":[{"id":"4bf58dd8d48988d1ca941735","name":"Pizza Place","pluralName":"Pizza Places","shortName":"Pizza","icon":{"prefix":"https:\/\/ss3.4sqi.net\/img\/categories_v2\/food\/pizza_","suffix":".png"},"primary":true}],"verified":false,"stats":{"checkinsCount":1680,"usersCount":766,"tipCount":23},"url":"http:\/\/www.baronesfamousitalian.com\/","hasMenu":true,"menu":{"type":"Menu","label":"Menu","anchor":"View Menu","url":"https:\/\/foursquare.com\/v\/barones\/4a26b613f964a520c67e1fe3\/menu","mobileUrl":"https:\/\/foursquare.com\/v\/4a26b613f964a520c67e1fe3\/device_menu"},"allowMenuUrlEdit":true,"beenHere":{"lastCheckinExpiredAt":0},"specials":{"count":0,"items":[]},"referralId":"v-1483291037","venueChains":[],"hasPerk":false},{"id":"4a4c0ba6f964a52001ad1fe3","name":"Chili's Grill & Bar","contact":{"phone":"8189068469","formattedPhone":"(818) 906-8469","twitter":"chilis","facebook":"106027143213","facebookUsername":"Chilis","facebookName":"Chili's Grill & Bar"},"location":{"address":"17240 Ventura Blvd","crossStreet":"at Louise Ave","lat":34.160451,"lng":-118.508954,"labeledLatLngs":[{"label":"display","lat":34.160451,"lng":-118.508954}],"postalCode":"91316","cc":"US","city":"Encino","state":"CA","country":"United States","formattedAddress":["17240 Ventura Blvd (at Louise Ave)","Encino, CA 91316","United States"]},"categories":[{"id":"56aa371ae4b08b9a8d5734ba","name":"Tex-Mex Restaurant","pluralName":"Tex-Mex Restaurants","shortName":"Tex-Mex","icon":{"prefix":"https:\/\/ss3.4sqi.net\/img\/categories_v2\/food\/mexican_","suffix":".png"},"primary":true}],"verified":true,"stats":{"checkinsCount":5292,"usersCount":2155,"tipCount":31},"url":"http:\/\/www.chilis.com","hasMenu":true,"menu":{"type":"Menu","label":"Menu","anchor":"View Menu","url":"https:\/\/foursquare.com\/v\/chilis-grill--bar\/4a4c0ba6f964a52001ad1fe3\/menu","mobileUrl":"https:\/\/foursquare.com\/v\/4a4c0ba6f964a52001ad1fe3\/device_menu","externalUrl":"http:\/\/www.listingextensions.com\/f43115baa3\/3785895388\/menu"},"allowMenuUrlEdit":true,"beenHere":{"lastCheckinExpiredAt":0},"specials":{"count":0,"items":[]},"storeId":"0010050876","referralId":"v-1483291037","venueChains":[{"id":"556df7e1a7c82e6b724d8229"}],"hasPerk":false},{"id":"4af5ba68f964a520fdfb21e3","name":"More Than Waffles","contact":{"phone":"8187895937","formattedPhone":"(818) 789-5937","twitter":"morethanwaffles"},"location":{"address":"17200 Ventura Blvd #109","crossStreet":"btw Louise Ave & Oak Park Ave.","lat":34.159887254922474,"lng":-118.5077565908432,"labeledLatLngs":[{"label":"display","lat":34.159887254922474,"lng":-118.5077565908432}],"postalCode":"91316","cc":"US","city":"Encino","state":"CA","country":"United States","formattedAddress":["17200 Ventura Blvd #109 (btw Louise Ave & Oak Park Ave.)","Encino, CA 91316","United States"]},"categories":[{"id":"4bf58dd8d48988d143941735","name":"Breakfast Spot","pluralName":"Breakfast Spots","shortName":"Breakfast","icon":{"prefix":"https:\/\/ss3.4sqi.net\/img\/categories_v2\/food\/breakfast_","suffix":".png"},"primary":true}],"verified":true,"stats":{"checkinsCount":4192,"usersCount":2327,"tipCount":78},"url":"http:\/\/morethanwaffles-hub.com","hasMenu":true,"menu":{"type":"Menu","label":"Menu","anchor":"View Menu","url":"https:\/\/foursquare.com\/v\/more-than-waffles\/4af5ba68f964a520fdfb21e3\/menu","mobileUrl":"https:\/\/foursquare.com\/v\/4af5ba68f964a520fdfb21e3\/device_menu"},"allowMenuUrlEdit":true,"beenHere":{"lastCheckinExpiredAt":0},"specials":{"count":0,"items":[]},"venuePage":{"id":"132300263"},"referralId":"v-1483291037","venueChains":[],"hasPerk":false},{"id":"4a648797f964a5203ec61fe3","name":"Starbucks","contact":{"phone":"8188954877","formattedPhone":"(818) 895-4877","twitter":"starbucks","facebook":"22092443056","facebookUsername":"Starbucks","facebookName":"Starbucks"},"location":{"address":"16222 Nordhoff Street","lat":34.235344,"lng":-118.485966,"labeledLatLngs":[{"label":"display","lat":34.235344,"lng":-118.485966}],"postalCode":"91343","cc":"US","city":"North Hills","state":"CA","country":"United States","formattedAddress":["16222 Nordhoff Street","North Hills, CA 91343","United States"]},"categories":[{"id":"4bf58dd8d48988d1e0931735","name":"Coffee Shop","pluralName":"Coffee Shops","shortName":"Coffee Shop","icon":{"prefix":"https:\/\/ss3.4sqi.net\/img\/categories_v2\/food\/coffeeshop_","suffix":".png"},"primary":true}],"verified":true,"stats":{"checkinsCount":3205,"usersCount":918,"tipCount":14},"url":"http:\/\/www.starbucks.com\/","hasMenu":true,"menu":{"type":"Menu","label":"Menu","anchor":"View Menu","url":"https:\/\/foursquare.com\/v\/starbucks\/4a648797f964a5203ec61fe3\/menu","mobileUrl":"https:\/\/foursquare.com\/v\/4a648797f964a5203ec61fe3\/device_menu"},"allowMenuUrlEdit":true,"beenHere":{"lastCheckinExpiredAt":0},"specials":{"count":0,"items":[]},"storeId":"6782","referralId":"v-1483291037","venueChains":[{"id":"556f676fbd6a75a99038d8ec"}],"hasPerk":false},{"id":"4afb7bbff964a5204b1e22e3","name":"Phá»Ÿ 999","contact":{"phone":"8187821999","formattedPhone":"(818) 782-1999"},"location":{"address":"6411 Sepulveda Blvd.","crossStreet":"at Victory Blvd.","lat":34.1873,"lng":-118.466871,"labeledLatLngs":[{"label":"display","lat":34.1873,"lng":-118.466871}],"postalCode":"91411","cc":"US","city":"Los Angeles","state":"CA","country":"United States","formattedAddress":["6411 Sepulveda Blvd. (at Victory Blvd.)","Los Angeles, CA 91411","United States"]},"categories":[{"id":"4bf58dd8d48988d14a941735","name":"Vietnamese Restaurant","pluralName":"Vietnamese Restaurants","shortName":"Vietnamese","icon":{"prefix":"https:\/\/ss3.4sqi.net\/img\/categories_v2\/food\/vietnamese_","suffix":".png"},"primary":true}],"verified":false,"stats":{"checkinsCount":2996,"usersCount":1271,"tipCount":24},"url":"http:\/\/pho999restaurants.com","hasMenu":true,"menu":{"type":"Menu","label":"Menu","anchor":"View Menu","url":"https:\/\/foursquare.com\/v\/ph%E1%BB%9F-999\/4afb7bbff964a5204b1e22e3\/menu","mobileUrl":"https:\/\/foursquare.com\/v\/4afb7bbff964a5204b1e22e3\/device_menu"},"allowMenuUrlEdit":true,"beenHere":{"lastCheckinExpiredAt":0},"specials":{"count":0,"items":[]},"referralId":"v-1483291037","venueChains":[],"hasPerk":false},{"id":"4a804be8f964a520e0f41fe3","name":"Starbucks","contact":{"phone":"8187870904","formattedPhone":"(818) 787-0904","twitter":"starbucks","facebook":"22092443056","facebookUsername":"Starbucks","facebookName":"Starbucks"},"location":{"address":"7902 Van Nuys Blvd","crossStreet":"Michaels","lat":34.214563,"lng":-118.448472,"labeledLatLngs":[{"label":"display","lat":34.214563,"lng":-118.448472}],"postalCode":"91402","cc":"US","city":"Van Nuys","state":"CA","country":"United States","formattedAddress":["7902 Van Nuys Blvd (Michaels)","Van Nuys, CA 91402","United States"]},"categories":[{"id":"4bf58dd8d48988d1e0931735","name":"Coffee Shop","pluralName":"Coffee Shops","shortName":"Coffee Shop","icon":{"prefix":"https:\/\/ss3.4sqi.net\/img\/categories_v2\/food\/coffeeshop_","suffix":".png"},"primary":true}],"verified":true,"stats":{"checkinsCount":3597,"usersCount":912,"tipCount":18},"url":"http:\/\/www.starbucks.com\/","hasMenu":true,"menu":{"type":"Menu","label":"Menu","anchor":"View Menu","url":"https:\/\/foursquare.com\/v\/starbucks\/4a804be8f964a520e0f41fe3\/menu","mobileUrl":"https:\/\/foursquare.com\/v\/4a804be8f964a520e0f41fe3\/device_menu"},"allowMenuUrlEdit":true,"beenHere":{"lastCheckinExpiredAt":0},"specials":{"count":0,"items":[]},"storeId":"9683","referralId":"v-1483291037","venueChains":[{"id":"556f676fbd6a75a99038d8ec"}],"hasPerk":false},{"id":"55eb60c1498ed22731d5616e","name":"AYCE GOGI","contact":{"phone":"8184653050","formattedPhone":"(818) 465-3050"},"location":{"address":"7128 Van Nuys Blvd","crossStreet":"Sherman Way","lat":34.20007585578235,"lng":-118.44789199127928,"labeledLatLngs":[{"label":"display","lat":34.20007585578235,"lng":-118.44789199127928}],"postalCode":"91405","cc":"US","city":"Van Nuys","state":"CA","country":"United States","formattedAddress":["7128 Van Nuys Blvd (Sherman Way)","Van Nuys, CA 91405","United States"]},"categories":[{"id":"4bf58dd8d48988d113941735","name":"Korean Restaurant","pluralName":"Korean Restaurants","shortName":"Korean","icon":{"prefix":"https:\/\/ss3.4sqi.net\/img\/categories_v2\/food\/korean_","suffix":".png"},"primary":true}],"verified":false,"stats":{"checkinsCount":239,"usersCount":162,"tipCount":5},"allowMenuUrlEdit":true,"beenHere":{"lastCheckinExpiredAt":0},"specials":{"count":0,"items":[]},"referralId":"v-1483291037","venueChains":[],"hasPerk":false},{"id":"4bdf1342e75c0f475dd0c903","name":"Beeps 50's Diner","contact":{"phone":"8187810830","formattedPhone":"(818) 781-0830","twitter":"beeps50sdiner"},"location":{"address":"16063 Sherman Way","crossStreet":"at Woodley Ave.","lat":34.20146077662012,"lng":-118.48345845937729,"labeledLatLngs":[{"label":"display","lat":34.20146077662012,"lng":-118.48345845937729}],"postalCode":"91406","cc":"US","city":"Van Nuys","state":"CA","country":"United States","formattedAddress":["16063 Sherman Way (at Woodley Ave.)","Van Nuys, CA 91406","United States"]},"categories":[{"id":"4bf58dd8d48988d143941735","name":"Breakfast Spot","pluralName":"Breakfast Spots","shortName":"Breakfast","icon":{"prefix":"https:\/\/ss3.4sqi.net\/img\/categories_v2\/food\/breakfast_","suffix":".png"},"primary":true}],"verified":true,"stats":{"checkinsCount":1638,"usersCount":679,"tipCount":32},"url":"http:\/\/www.beepsdiner.com","hasMenu":true,"menu":{"type":"Menu","label":"Menu","anchor":"View Menu","url":"https:\/\/foursquare.com\/v\/beeps-50s-diner\/4bdf1342e75c0f475dd0c903\/menu","mobileUrl":"https:\/\/foursquare.com\/v\/4bdf1342e75c0f475dd0c903\/device_menu"},"allowMenuUrlEdit":true,"beenHere":{"lastCheckinExpiredAt":0},"specials":{"count":0,"items":[]},"venuePage":{"id":"52862264"},"storeId":"","referralId":"v-1483291037","venueChains":[],"hasPerk":false}]}}