{"meta":{"code":200,"requestId":"58693999351e3d70342a1faf"},"response":{"venues":[{"id":"544c0db8498e300a736e4571","name":"Lincoln","contact":{"phone":"6267656746","formattedPhone":"(626) 765-6746"},"location":{"address":"1992 Lincoln Ave","lat":34.17991084104444,"lng":-118.1593614621075,"labeledLatLngs":[{"label":"display","lat":34.17991084104444,"lng":-118.1593614621075}],"postalCode":"91103","cc":"US","city":"Pasadena","state":"CA","country":"United States","formattedAddress":["1992 Lincoln Ave","Pasadena, CA 91103","United States"]},"categories":[{"id":"4bf58dd8d48988d16d941735","name":"Café","pluralName":"Cafés","shortName":"Café","icon":{"prefix":"https:\/\/ss3.4sqi.net\/img\/categories_v2\/food\/cafe_","suffix":".png"},"primary":true}],"verified":false,"stats":{"checkinsCount":1023,"usersCount":507,"tipCount":26},"url":"http:\/\/lincolnpasadena.com","menu":{"type":"Menu","label":"Menu","anchor":"View Menu","url":"http:\/\/lincolnpasadena.com\/menu\/","mobileUrl":"http:\/\/lincolnpasadena.com\/menu\/","externalUrl":"http:\/\/lincolnpasadena.com\/menu\/"},"allowMenuUrlEdit":true,"beenHere":{"lastCheckinExpiredAt":0},"specials":{"count":0,"items":[]},"referralId":"v-1483291034","venueChains":[],"hasPerk":false},{"id":"4b8aefe8f964a5202b8a32e3","name":"Starbucks","contact":{"phone":"8187904681","formattedPhone":"(818) 790-4681","twitter":"starbucks","facebook":"22092443056","facebookUsername":"Starbucks","facebookName":"Starbucks"},"location":{"address":"1929 Verdugo Blvd","lat":34.20600648053391,"lng":-118.21764006952502,"labeledLatLngs":[{"label":"display","lat":34.20600648053391,"lng":-118.21764006952502}],"postalCode":"91011","cc":"US","city":"Glendale","state":"CA","country":"United States","formattedAddress":["1929 Verdugo Blvd","Glendale, CA 91011","United States"]},"categories":[{"id":"4bf58dd8d48988d1e0931735","name":"Coffee Shop","pluralName":"Coffee Shops","shortName":"Coffee Shop","icon":{"prefix":"https:\/\/ss3.4sqi.net\/img\/categories_v2\/food\/coffeeshop_","suffix":".png"},"primary":true}],"verified":true,"stats":{"checkinsCount":3862,"usersCount":1032,"tipCount":9},"url":"http:\/\/www.starbucks.com\/","hasMenu":true,"menu":{"type":"Menu","label":"Menu","anchor":"View Menu","url":"https:\/\/foursquare.com\/v\/starbucks\/4b8aefe8f964a5202b8a32e3\/menu","mobileUrl":"https:\/\/foursquare.com\/v\/4b8aefe8f964a5202b8a32e3\/device_menu"},"allowMenuUrlEdit":true,"beenHere":{"lastCheckinExpiredAt":0},"specials":{"count":0,"items":[]},"storeId":"5705","referralId":"v-1483291034","venueChains":[{"id":"556f676fbd6a75a99038d8ec"}],"hasPerk":false},{"id":"4b86ec6ff964a52024a631e3","name":"McDonald's","contact":{"phone":"8187905043","formattedPhone":"(818) 790-5043"},"location":{"address":"449 Foothill Blvd","crossStreet":"Vineta","lat":34.19907861229472,"lng":-118.18768633683969,"labeledLatLngs":[{"label":"display","lat":34.19907861229472,"lng":-118.18768633683969}],"postalCode":"91011","cc":"US","city":"La Cañada Flintridge","state":"CA","country":"United States","formattedAddress":["449 Foothill Blvd (Vineta)","La Cañada Flintridge, CA 91011","United States"]},"categories":[{"id":"4bf58dd8d48988d16e941735","name":"Fast Food Restaurant","pluralName":"Fast Food Restaurants","shortName":"Fast Food","icon":{"prefix":"https:\/\/ss3.4sqi.net\/img\/categories_v2\/food\/fastfood_","suffix":".png"},"primary":true}],"verified":true,"stats":{"checkinsCount":1219,"usersCount":385,"tipCount":6},"url":"http:\/\/mcdonalds.com","hasMenu":true,"menu":{"type":"Menu","label":"Menu","anchor":"View Menu","url":"https:\/\/foursquare.com\/v\/mcdonalds\/4b86ec6ff964a52024a631e3\/menu","mobileUrl":"https:\/\/foursquare.com\/v\/4b86ec6ff964a52024a631e3\/device_menu"},"allowMenuUrlEdit":true,"beenHere":{"lastCheckinExpiredAt":0},"specials":{"count":0,"items":[]},"referralId":"v-1483291034","venueChains":[{"id":"556f7a12bd6a75a9903bddb2"}],"hasPerk":false},{"id":"4572c5baf964a520753e1fe3","name":"Los Gringos Locos","contact":{"phone":"8187902696","formattedPhone":"(818) 790-2696"},"location":{"address":"631 Foothill Blvd","crossStreet":"at Oakwood Ave.","lat":34.20131787230289,"lng":-118.19282179491356,"labeledLatLngs":[{"label":"display","lat":34.20131787230289,"lng":-118.19282179491356}],"postalCode":"91011","cc":"US","city":"La Cañada","state":"CA","country":"United States","formattedAddress":["631 Foothill Blvd (at Oakwood Ave.)","La Cañada, CA 91011","United States"]},"categories":[{"id":"4bf58dd8d48988d1c1941735","name":"Mexican Restaurant","pluralName":"Mexican Restaurants","shortName":"Mexican","icon":{"prefix":"https:\/\/ss3.4sqi.net\/img\/categories_v2\/food\/mexican_","suffix":".png"},"primary":true}],"verified":true,"stats":{"checkinsCount":2752,"usersCount":787,"tipCount":34},"url":"http:\/\/www.losgringoslocos.com\/","hasMenu":true,"menu":{"type":"Menu","label":"Menu","anchor":"View Menu","url":"https:\/\/foursquare.com\/v\/los-gringos-locos\/4572c5baf964a520753e1fe3\/menu","mobileUrl":"https:\/\/foursquare.com\/v\/4572c5baf964a520753e1fe3\/device_menu"},"allowMenuUrlEdit":true,"beenHere":{"lastCheckinExpiredAt":0},"specials":{"count":0,"items":[]},"venuePage":{"id":"156701268"},"storeId":"","referralId":"v-1483291034","venueChains":[],"hasPerk":false},{"id":"524f72d4498ec2e277fbe731","name":"Basin 141","contact":{"phone":"8182364810","formattedPhone":"(818) 236-4810","twitter":"basin141","facebook":"148489262013999","facebookUsername":"Basin141","facebookName":"Basin 141"},"location":{"address":"2265 Honolulu Ave","lat":34.205377187886945,"lng":-118.22712661702988,"labeledLatLngs":[{"label":"display","lat":34.205377187886945,"lng":-118.22712661702988}],"postalCode":"91020","cc":"US","city":"Glendale","state":"CA","country":"United States","formattedAddress":["2265 Honolulu Ave","Glendale, CA 91020","United States"]},"categories":[{"id":"4bf58dd8d48988d157941735","name":"New American Restaurant","pluralName":"New American Restaurants","shortName":"New American","icon":{"prefix":"https:\/\/ss3.4sqi.net\/img\/categories_v2\/food\/newamerican_","suffix":".png"},"primary":true}],"verified":true,"stats":{"checkinsCount":1188,"usersCount":382,"tipCount":14},"url":"http:\/\/www.basin141.com","allowMenuUrlEdit":true,"beenHere":{"lastCheckinExpiredAt":0},"specials":{"count":0,"items":[]},"venuePage":{"id":"83376963"},"referralId":"v-1483291034","venueChains":[],"hasPerk":false},{"id":"44fa0ac2f964a52072381fe3","name":"Starbucks","contact":{"phone":"8187907151","formattedPhone":"(818) 790-7151","twitter":"starbucks","facebook":"22092443056","facebookUsername":"Starbucks","facebookName":"Starbucks"},"location":{"address":"475 Foothill Blvd","lat":34.200401368560904,"lng":-118.18910874262093,"labeledLatLngs":[{"label":"display","lat":34.200401368560904,"lng":-118.18910874262093}],"postalCode":"91011","cc":"US","city":"La Cañada","state":"CA","country":"United States","formattedAddress":["475 Foothill Blvd","La Cañada, CA 91011","United States"]},"categories":[{"id":"4bf58dd8d48988d1e0931735","name":"Coffee Shop","pluralName":"Coffee Shops","shortName":"Coffee Shop","icon":{"prefix":"https:\/\/ss3.4sqi.net\/img\/categories_v2\/food\/coffeeshop_","suffix":".png"},"primary":true}],"verified":true,"stats":{"checkinsCount":3402,"usersCount":859,"tipCount":13},"url":"http:\/\/www.starbucks.com\/","hasMenu":true,"menu":{"type":"Menu","label":"Menu","anchor":"View Menu","url":"https:\/\/foursquare.com\/v\/starbucks\/44fa0ac2f964a52072381fe3\/menu","mobileUrl":"https:\/\/foursquare.com\/v\/44fa0ac2f964a52072381fe3\/device_menu"},"allowMenuUrlEdit":true,"beenHere":{"lastCheckinExpiredAt":0},"specials":{"count":0,"items":[]},"storeId":"649","referralId":"v-1483291034","venueChains":[{"id":"556f676fbd6a75a99038d8ec"}],"hasPerk":false},{"id":"4c0ac7c5a1b32d7f71f999f0","name":"The Coffee Bean & Tea Leaf","contact":{"phone":"8182497848","formattedPhone":"(818) 249-7848","twitter":"thecoffeebean"},"location":{"address":"3701 Ocean View Blvd","crossStreet":"at Honolulu","lat":34.20532697,"lng":-118.2282526,"labeledLatLngs":[{"label":"display","lat":34.20532697,"lng":-118.2282526}],"postalCode":"91020","cc":"US","city":"Montrose","state":"CA","country":"United States","formattedAddress":["3701 Ocean View Blvd (at Honolulu)","Montrose, CA 91020","United States"]},"categories":[{"id":"4bf58dd8d48988d1e0931735","name":"Coffee Shop","pluralName":"Coffee Shops","shortName":"Coffee Shop","icon":{"prefix":"https:\/\/ss3.4sqi.net\/img\/categories_v2\/food\/coffeeshop_","suffix":".png"},"primary":true}],"verified":true,"stats":{"checkinsCount":3170,"usersCount":1003,"tipCount":14},"url":"http:\/\/www.coffeebean.com","hasMenu":true,"menu":{"type":"Menu","label":"Menu","anchor":"View Menu","url":"https:\/\/foursquare.com\/v\/the-coffee-bean--tea-leaf\/4c0ac7c5a1b32d7f71f999f0\/menu","mobileUrl":"https:\/\/foursquare.com\/v\/4c0ac7c5a1b32d7f71f999f0\/device_menu"},"allowMenuUrlEdit":true,"beenHere":{"lastCheckinExpiredAt":0},"specials":{"count":0,"items":[]},"storeId":"95","referralId":"v-1483291034","venueChains":[{"id":"556a4e08a7c8957d73d6ce60"}],"hasPerk":false},{"id":"4a916734f964a520181a20e3","name":"The Black Cow","contact":{"phone":"8189575282","formattedPhone":"(818) 957-5282","twitter":"theblackcowcafe"},"location":{"address":"2219 Honolulu Ave","crossStreet":"Verdugo","lat":34.20529003,"lng":-118.22596,"labeledLatLngs":[{"label":"display","lat":34.20529003,"lng":-118.22596}],"postalCode":"91020","cc":"US","city":"Montrose","state":"CA","country":"United States","formattedAddress":["2219 Honolulu Ave (Verdugo)","Montrose, CA 91020","United States"]},"categories":[{"id":"4bf58dd8d48988d14e941735","name":"American Restaurant","pluralName":"American Restaurants","shortName":"American","icon":{"prefix":"https:\/\/ss3.4sqi.net\/img\/categories_v2\/food\/default_","suffix":".png"},"primary":true}],"verified":false,"stats":{"checkinsCount":3093,"usersCount":1567,"tipCount":44},"url":"http:\/\/www.whatscookninc.com\/black_cow1.htm","hasMenu":true,"menu":{"type":"Menu","label":"Menu","anchor":"View Menu","url":"https:\/\/foursquare.com\/v\/the-black-cow\/4a916734f964a520181a20e3\/menu","mobileUrl":"https:\/\/foursquare.com\/v\/4a916734f964a520181a20e3\/device_menu"},"allowMenuUrlEdit":true,"beenHere":{"lastCheckinExpiredAt":0},"specials":{"count":0,"items":[]},"referralId":"v-1483291034","venueChains":[],"hasPerk":false},{"id":"504a5f5de4b00f8c37502363","name":"Starbucks","contact":{"phone":"8182487001","formattedPhone":"(818) 248-7001","twitter":"starbucks","facebook":"22092443056","facebookUsername":"Starbucks","facebookName":"Starbucks"},"location":{"address":"2284 Honolulu Ave","lat":34.205290351241004,"lng":-118.22786335889873,"labeledLatLngs":[{"label":"display","lat":34.205290351241004,"lng":-118.22786335889873}],"postalCode":"91020","cc":"US","city":"Montrose","state":"CA","country":"United States","formattedAddress":["2284 Honolulu Ave","Montrose, CA 91020","United States"]},"categories":[{"id":"4bf58dd8d48988d1e0931735","name":"Coffee Shop","pluralName":"Coffee Shops","shortName":"Coffee Shop","icon":{"prefix":"https:\/\/ss3.4sqi.net\/img\/categories_v2\/food\/coffeeshop_","suffix":".png"},"primary":true}],"verified":true,"stats":{"checkinsCount":2371,"usersCount":460,"tipCount":11},"url":"http:\/\/www.starbucks.com\/","allowMenuUrlEdit":true,"beenHere":{"lastCheckinExpiredAt":0},"specials":{"count":0,"items":[]},"storeId":"16782","referralId":"v-1483291034","venueChains":[{"id":"556f676fbd6a75a99038d8ec"}],"hasPerk":false},{"id":"4abd3a1af964a5201e8920e3","name":"The Coffee Bean & Tea Leaf","contact":{"phone":"8189568303","formattedPhone":"(818) 956-8303","twitter":"thecoffeebean"},"location":{"address":"1500 Canada Blvd Ste C","crossStreet":"Verdugo","lat":34.16863458,"lng":-118.2290676,"labeledLatLngs":[{"label":"display","lat":34.16863458,"lng":-118.2290676}],"postalCode":"91208","cc":"US","city":"Glendale","state":"CA","country":"United States","formattedAddress":["1500 Canada Blvd Ste C (Verdugo)","Glendale, CA 91208","United States"]},"categories":[{"id":"4bf58dd8d48988d1e0931735","name":"Coffee Shop","pluralName":"Coffee Shops","shortName":"Coffee Shop","icon":{"prefix":"https:\/\/ss3.4sqi.net\/img\/categories_v2\/food\/coffeeshop_","suffix":".png"},"primary":true}],"verified":true,"stats":{"checkinsCount":1888,"usersCount":512,"tipCount":11},"url":"http:\/\/www.coffeebean.com","hasMenu":true,"menu":{"type":"Menu","label":"Menu","anchor":"View Menu","url":"https:\/\/foursquare.com\/v\/the-coffee-bean--tea-leaf\/4abd3a1af964a5201e8920e3\/menu","mobileUrl":"https:\/\/foursquare.com\/v\/4abd3a1af964a5201e8920e3\/device_menu"},"allowMenuUrlEdit":true,"beenHere":{"lastCheckinExpiredAt":0},"specials":{"count":0,"items":[]},"storeId":"174","referralId":"v-1483291034","venueChains":[{"id":"556a4e08a7c8957d73d6ce60"}],"hasPerk":false},{"id":"57040d4a498e5662bd8aea29","name":"Honeybird","contact":{"phone":"8184150489","formattedPhone":"(818) 415-0489"},"location":{"address":"714 Foothill Blvd","crossStreet":"btwn Hobbs Dr & Oakwood Ave","lat":34.20150958062575,"lng":-118.19417953491211,"labeledLatLngs":[{"label":"display","lat":34.20150958062575,"lng":-118.19417953491211}],"postalCode":"91011","cc":"US","city":"La Cañada","state":"CA","country":"United States","formattedAddress":["714 Foothill Blvd (btwn Hobbs Dr & Oakwood Ave)","La Cañada, CA 91011","United States"]},"categories":[{"id":"4bf58dd8d48988d14f941735","name":"Southern \/ Soul Food Restaurant","pluralName":"Southern \/ Soul Food Restaurants","shortName":"Southern \/ Soul","icon":{"prefix":"https:\/\/ss3.4sqi.net\/img\/categories_v2\/food\/southern_","suffix":".png"},"primary":true}],"verified":false,"stats":{"checkinsCount":149,"usersCount":101,"tipCount":3},"url":"http:\/\/www.honeybirdla.com","menu":{"type":"Menu","label":"Menu","anchor":"View Menu","url":"http:\/\/www.honeybirdla.com","mobileUrl":"http:\/\/www.honeybirdla.com","externalUrl":"http:\/\/www.honeybirdla.com"},"allowMenuUrlEdit":true,"beenHere":{"lastCheckinExpiredAt":0},"specials":{"count":0,"items":[]},"referralId":"v-1483291034","venueChains":[],"hasPerk":false},{"id":"4fec7a36e4b08f550ac3da6c","name":"7-Eleven","contact":{"phone":"8189525369","formattedPhone":"(818) 952-5369","twitter":"7eleven","facebook":"590868854275108","facebookUsername":"7ElevenLaCanadaFlintridge35684","facebookName":"7-Eleven"},"location":{"address":"1001 Foothill Blvd","crossStreet":"at Angeles Crest Hwy","lat":34.205036704404215,"lng":-118.20063427090645,"labeledLatLngs":[{"label":"display","lat":34.205036704404215,"lng":-118.20063427090645}],"postalCode":"91011","cc":"US","city":"La Cañada Flintridge","state":"CA","country":"United States","formattedAddress":["1001 Foothill Blvd (at Angeles Crest Hwy)","La Cañada Flintridge, CA 91011","United States"]},"categories":[{"id":"4d954b0ea243a5684a65b473","name":"Convenience Store","pluralName":"Convenience Stores","shortName":"Convenience Store","icon":{"prefix":"https:\/\/ss3.4sqi.net\/img\/categories_v2\/shops\/conveniencestore_","suffix":".png"},"primary":true}],"verified":true,"stats":{"checkinsCount":281,"usersCount":110,"tipCount":2},"url":"http:\/\/www.7-eleven.com","allowMenuUrlEdit":true,"beenHere":{"lastCheckinExpiredAt":0},"specials":{"count":0,"items":[]},"referralId":"v-1483291034","venueChains":[{"id":"556f676fbd6a75a99038d8e9"}],"hasPerk":false},{"id":"4abc516bf964a520078720e3","name":"Chipotle Mexican Grill","contact":{"phone":"8187908127","formattedPhone":"(818) 790-8127","twitter":"chipotletweets"},"location":{"address":"895 Foothill Blvd","crossStreet":"Foothill Blvd & Angeles Crest Hwy","lat":34.203816646836664,"lng":-118.19825649261475,"labeledLatLngs":[{"label":"display","lat":34.203816646836664,"lng":-118.19825649261475}],"postalCode":"91011","cc":"US","city":"La Cañada","state":"CA","country":"United States","formattedAddress":["895 Foothill Blvd (Foothill Blvd & Angeles Crest Hwy)","La Cañada, CA 91011","United States"]},"categories":[{"id":"4bf58dd8d48988d1c1941735","name":"Mexican Restaurant","pluralName":"Mexican Restaurants","shortName":"Mexican","icon":{"prefix":"https:\/\/ss3.4sqi.net\/img\/categories_v2\/food\/mexican_","suffix":".png"},"primary":true}],"verified":true,"stats":{"checkinsCount":2620,"usersCount":865,"tipCount":19},"url":"http:\/\/www.chipotle.com","allowMenuUrlEdit":true,"beenHere":{"lastCheckinExpiredAt":0},"specials":{"count":0,"items":[]},"storeId":"1223","referralId":"v-1483291034","venueChains":[{"id":"556e0f6fa7c82e6b724f8c82"}],"hasPerk":false},{"id":"50ba59ffe4b01cb32b212303","name":"The Habit Burger Grill","contact":{"phone":"8189522910","formattedPhone":"(818) 952-2910","twitter":"habitburger"},"location":{"address":"990 Town Center Dr.","crossStreet":"at Angeles Crest Hwy.","lat":34.20483749,"lng":-118.1998794,"labeledLatLngs":[{"label":"display","lat":34.20483749,"lng":-118.1998794}],"postalCode":"91101","cc":"US","city":"La Cañada","state":"CA","country":"United States","formattedAddress":["990 Town Center Dr. (at Angeles Crest Hwy.)","La Cañada, CA 91101","United States"]},"categories":[{"id":"4bf58dd8d48988d16c941735","name":"Burger Joint","pluralName":"Burger Joints","shortName":"Burgers","icon":{"prefix":"https:\/\/ss3.4sqi.net\/img\/categories_v2\/food\/burger_","suffix":".png"},"primary":true}],"verified":true,"stats":{"checkinsCount":1180,"usersCount":492,"tipCount":12},"url":"http:\/\/t.co\/PuJauMBn4S","allowMenuUrlEdit":true,"beenHere":{"lastCheckinExpiredAt":0},"specials":{"count":0,"items":[]},"storeId":"63","referralId":"v-1483291034","venueChains":[{"id":"556a341fa7c8957d73d4cad4"}],"hasPerk":false},{"id":"4b47fae7f964a520a34526e3","name":"Hill Street Cafe","contact":{"phone":"8189521019","formattedPhone":"(818) 952-1019"},"location":{"address":"1004 Foothill Blvd","crossStreet":"Angeles Crest Hwy","lat":34.20425269159107,"lng":-118.20044758275078,"labeledLatLngs":[{"label":"display","lat":34.20425269159107,"lng":-118.20044758275078}],"postalCode":"91011","cc":"US","city":"La Cañada Flintridge","state":"CA","country":"United States","formattedAddress":["1004 Foothill Blvd (Angeles Crest Hwy)","La Cañada Flintridge, CA 91011","United States"]},"categories":[{"id":"4bf58dd8d48988d16d941735","name":"Café","pluralName":"Cafés","shortName":"Café","icon":{"prefix":"https:\/\/ss3.4sqi.net\/img\/categories_v2\/food\/cafe_","suffix":".png"},"primary":true}],"verified":true,"stats":{"checkinsCount":2077,"usersCount":820,"tipCount":24},"url":"http:\/\/www.hillstreetcafelacanada.com","hasMenu":true,"menu":{"type":"Menu","label":"Menu","anchor":"View Menu","url":"https:\/\/foursquare.com\/v\/hill-street-cafe\/4b47fae7f964a520a34526e3\/menu","mobileUrl":"https:\/\/foursquare.com\/v\/4b47fae7f964a520a34526e3\/device_menu"},"allowMenuUrlEdit":true,"beenHere":{"lastCheckinExpiredAt":0},"specials":{"count":0,"items":[]},"venuePage":{"id":"90485370"},"referralId":"v-1483291034","venueChains":[],"hasPerk":false},{"id":"50e9c7fbe4b0aa6e0788141f","name":"Flintridge Proper Restaurant and Bar","contact":{"phone":"8187904888","formattedPhone":"(818) 790-4888","twitter":"theproper","facebook":"448001265268099","facebookUsername":"FlintridgeProper","facebookName":"The Flintridge Proper"},"location":{"address":"464 Foothill Blvd","crossStreet":"Gould Ave.","lat":34.199025,"lng":-118.18876,"labeledLatLngs":[{"label":"display","lat":34.199025,"lng":-118.18876}],"postalCode":"91011","cc":"US","city":"La Cañada Flintridge","state":"CA","country":"United States","formattedAddress":["464 Foothill Blvd (Gould Ave.)","La Cañada Flintridge, CA 91011","United States"]},"categories":[{"id":"4bf58dd8d48988d14e941735","name":"American Restaurant","pluralName":"American Restaurants","shortName":"American","icon":{"prefix":"https:\/\/ss3.4sqi.net\/img\/categories_v2\/food\/default_","suffix":".png"},"primary":true}],"verified":false,"stats":{"checkinsCount":853,"usersCount":409,"tipCount":22},"url":"http:\/\/www.theproper.com","menu":{"type":"Menu","label":"Menu","anchor":"View Menu","url":"http:\/\/theproper.com\/proper-dinner\/","mobileUrl":"http:\/\/theproper.com\/proper-dinner\/","externalUrl":"http:\/\/theproper.com\/proper-dinner\/"},"allowMenuUrlEdit":true,"beenHere":{"lastCheckinExpiredAt":0},"specials":{"count":0,"items":[]},"referralId":"v-1483291034","venueChains":[],"hasPerk":false},{"id":"4b8d3d60f964a52045ef32e3","name":"Starbucks","contact":{"phone":"8185411477","formattedPhone":"(818) 541-1477","twitter":"starbucks","facebook":"22092443056","facebookUsername":"Starbucks","facebookName":"Starbucks"},"location":{"address":"2627 Foothill Blvd","lat":34.222932,"lng":-118.236195,"labeledLatLngs":[{"label":"display","lat":34.222932,"lng":-118.236195}],"postalCode":"91214","cc":"US","city":"La Crescenta","state":"CA","country":"United States","formattedAddress":["2627 Foothill Blvd","La Crescenta, CA 91214","United States"]},"categories":[{"id":"4bf58dd8d48988d1e0931735","name":"Coffee Shop","pluralName":"Coffee Shops","shortName":"Coffee Shop","icon":{"prefix":"https:\/\/ss3.4sqi.net\/img\/categories_v2\/food\/coffeeshop_","suffix":".png"},"primary":true}],"verified":true,"stats":{"checkinsCount":2278,"usersCount":530,"tipCount":11},"url":"http:\/\/www.starbucks.com\/","hasMenu":true,"menu":{"type":"Menu","label":"Menu","anchor":"View Menu","url":"https:\/\/foursquare.com\/v\/starbucks\/4b8d3d60f964a52045ef32e3\/menu","mobileUrl":"https:\/\/foursquare.com\/v\/4b8d3d60f964a52045ef32e3\/device_menu"},"allowMenuUrlEdit":true,"beenHere":{"lastCheckinExpiredAt":0},"specials":{"count":0,"items":[]},"storeId":"5301","referralId":"v-1483291034","venueChains":[{"id":"556f676fbd6a75a99038d8ec"}],"hasPerk":false},{"id":"4b319581f964a5205e0925e3","name":"New Moon Restaurant","contact":{"phone":"8182494393","formattedPhone":"(818) 249-4393"},"location":{"address":"2138 Verdugo Blvd","lat":34.20468531666667,"lng":-118.224474,"labeledLatLngs":[{"label":"display","lat":34.20468531666667,"lng":-118.224474}],"postalCode":"91020","cc":"US","city":"Glendale","state":"CA","country":"United States","formattedAddress":["2138 Verdugo Blvd","Glendale, CA 91020","United States"]},"categories":[{"id":"4bf58dd8d48988d145941735","name":"Chinese Restaurant","pluralName":"Chinese Restaurants","shortName":"Chinese","icon":{"prefix":"https:\/\/ss3.4sqi.net\/img\/categories_v2\/food\/asian_","suffix":".png"},"primary":true}],"verified":true,"stats":{"checkinsCount":1720,"usersCount":684,"tipCount":31},"url":"http:\/\/newmoonrestaurants.com\/","hasMenu":true,"menu":{"type":"Menu","label":"Menu","anchor":"View Menu","url":"https:\/\/foursquare.com\/v\/new-moon-restaurant\/4b319581f964a5205e0925e3\/menu","mobileUrl":"https:\/\/foursquare.com\/v\/4b319581f964a5205e0925e3\/device_menu"},"allowMenuUrlEdit":true,"beenHere":{"lastCheckinExpiredAt":0},"specials":{"count":0,"items":[]},"venuePage":{"id":"71489410"},"referralId":"v-1483291034","venueChains":[],"hasPerk":false},{"id":"4b04ed77f964a520e35622e3","name":"McDonald's","contact":{"phone":"6263989966","formattedPhone":"(626) 398-9966"},"location":{"address":"2157 Lincoln Ave","crossStreet":"Woodbury Ave","lat":34.18269164679647,"lng":-118.160024218786,"labeledLatLngs":[{"label":"display","lat":34.18269164679647,"lng":-118.160024218786}],"postalCode":"91001","cc":"US","city":"Altadena","state":"CA","country":"United States","formattedAddress":["2157 Lincoln Ave (Woodbury Ave)","Altadena, CA 91001","United States"]},"categories":[{"id":"4bf58dd8d48988d16e941735","name":"Fast Food Restaurant","pluralName":"Fast Food Restaurants","shortName":"Fast Food","icon":{"prefix":"https:\/\/ss3.4sqi.net\/img\/categories_v2\/food\/fastfood_","suffix":".png"},"primary":true}],"verified":true,"stats":{"checkinsCount":1010,"usersCount":374,"tipCount":4},"url":"http:\/\/mcdonalds.com","hasMenu":true,"menu":{"type":"Menu","label":"Menu","anchor":"View Menu","url":"https:\/\/foursquare.com\/v\/mcdonalds\/4b04ed77f964a520e35622e3\/menu","mobileUrl":"https:\/\/foursquare.com\/v\/4b04ed77f964a520e35622e3\/device_menu"},"allowMenuUrlEdit":true,"beenHere":{"lastCheckinExpiredAt":0},"specials":{"count":0,"items":[]},"referralId":"v-1483291034","venueChains":[{"id":"556f7a12bd6a75a9903bddb2"}],"hasPerk":false},{"id":"57b384a3498eaecf696aa503","name":"Art Center College of Design Cafeteria","contact":{},"location":{"address":"1700 Lida St","lat":34.169838,"lng":-118.18539,"labeledLatLngs":[{"label":"display","lat":34.169838,"lng":-118.18539}],"postalCode":"91103","cc":"US","city":"Pasadena","state":"CA","country":"United States","formattedAddress":["1700 Lida St","Pasadena, CA 91103","United States"]},"categories":[{"id":"4bf58dd8d48988d128941735","name":"Cafeteria","pluralName":"Cafeterias","shortName":"Cafeteria","icon":{"prefix":"https:\/\/ss3.4sqi.net\/img\/categories_v2\/education\/cafeteria_","suffix":".png"},"primary":true}],"verified":false,"stats":{"checkinsCount":80,"usersCount":6,"tipCount":0},"venueRatingBlacklisted":true,"allowMenuUrlEdit":true,"beenHere":{"lastCheckinExpiredAt":0},"specials":{"count":0,"items":[]},"referralId":"v-1483291034","venueChains":[],"hasPerk":false},{"id":"4b329d3ef964a520071025e3","name":"Jack in the Box","contact":{"phone":"8189571963","formattedPhone":"(818) 957-1963","twitter":"jackbox","facebook":"46895347303","facebookName":"Jack in the Box"},"location":{"address":"2225 Foothill Blvd","lat":34.216702,"lng":-118.22575986385345,"labeledLatLngs":[{"label":"display","lat":34.216702,"lng":-118.22575986385345}],"postalCode":"91011","cc":"US","city":"La Cañada","state":"CA","country":"United States","formattedAddress":["2225 Foothill Blvd","La Cañada, CA 91011","United States"]},"categories":[{"id":"4bf58dd8d48988d16c941735","name":"Burger Joint","pluralName":"Burger Joints","shortName":"Burgers","icon":{"prefix":"https:\/\/ss3.4sqi.net\/img\/categories_v2\/food\/burger_","suffix":".png"},"primary":true}],"verified":true,"stats":{"checkinsCount":870,"usersCount":223,"tipCount":1},"url":"http:\/\/www.jackinthebox.com","hasMenu":true,"menu":{"type":"Menu","label":"Menu","anchor":"View Menu","url":"https:\/\/foursquare.com\/v\/jack-in-the-box\/4b329d3ef964a520071025e3\/menu","mobileUrl":"https:\/\/foursquare.com\/v\/4b329d3ef964a520071025e3\/device_menu"},"allowMenuUrlEdit":true,"beenHere":{"lastCheckinExpiredAt":0},"specials":{"count":0,"items":[]},"storeId":"303","referralId":"v-1483291034","venueChains":[{"id":"556e1846a7c82e6b72513d66"}],"hasPerk":false},{"id":"4b096ea1f964a520361723e3","name":"Goldstein's Bagel Bakery La Canada","contact":{"phone":"8189522457","formattedPhone":"(818) 952-2457"},"location":{"address":"1939 Verdugo Blvd","lat":34.20573323844227,"lng":-118.21769714355469,"labeledLatLngs":[{"label":"display","lat":34.20573323844227,"lng":-118.21769714355469}],"postalCode":"91011","cc":"US","city":"La Cañada Flintridge","state":"CA","country":"United States","formattedAddress":["1939 Verdugo Blvd","La Cañada Flintridge, CA 91011","United States"]},"categories":[{"id":"4bf58dd8d48988d179941735","name":"Bagel Shop","pluralName":"Bagel Shops","shortName":"Bagels","icon":{"prefix":"https:\/\/ss3.4sqi.net\/img\/categories_v2\/food\/bagels_","suffix":".png"},"primary":true}],"verified":true,"stats":{"checkinsCount":1508,"usersCount":646,"tipCount":11},"url":"http:\/\/goldsteinsbagelbakery.com","hasMenu":true,"menu":{"type":"Menu","label":"Menu","anchor":"View Menu","url":"https:\/\/foursquare.com\/v\/goldsteins-bagel-bakery-la-canada\/4b096ea1f964a520361723e3\/menu","mobileUrl":"https:\/\/foursquare.com\/v\/4b096ea1f964a520361723e3\/device_menu"},"allowMenuUrlEdit":true,"beenHere":{"lastCheckinExpiredAt":0},"specials":{"count":0,"items":[]},"storeId":"2","referralId":"v-1483291034","venueChains":[{"id":"5568ec06a7c8a9cf8ec380aa"}],"hasPerk":false},{"id":"4b09e09cf964a520101f23e3","name":"Sakura Japanese Steakhouse & Sushi","contact":{"phone":"8187901013","formattedPhone":"(818) 790-1013"},"location":{"address":"985 Foothill Blvd","crossStreet":"at Chevy Chase","lat":34.204617,"lng":-118.199741,"labeledLatLngs":[{"label":"display","lat":34.204617,"lng":-118.199741}],"postalCode":"91011","cc":"US","city":"La Cañada","state":"CA","country":"United States","formattedAddress":["985 Foothill Blvd (at Chevy Chase)","La Cañada, CA 91011","United States"]},"categories":[{"id":"4bf58dd8d48988d111941735","name":"Japanese Restaurant","pluralName":"Japanese Restaurants","shortName":"Japanese","icon":{"prefix":"https:\/\/ss3.4sqi.net\/img\/categories_v2\/food\/japanese_","suffix":".png"},"primary":true}],"verified":false,"stats":{"checkinsCount":1608,"usersCount":780,"tipCount":17},"url":"http:\/\/www.sakurasteakhouse.com","allowMenuUrlEdit":true,"beenHere":{"lastCheckinExpiredAt":0},"specials":{"count":0,"items":[]},"referralId":"v-1483291034","venueChains":[],"hasPerk":false},{"id":"4bc948b768f976b0fa335d83","name":"Jack in the Box","contact":{"phone":"6267910932","formattedPhone":"(626) 791-0932","twitter":"jackbox","facebook":"46895347303","facebookName":"Jack in the Box"},"location":{"address":"2125 Windsor Ave","lat":34.18214269819978,"lng":-118.16910258778567,"labeledLatLngs":[{"label":"display","lat":34.18214269819978,"lng":-118.16910258778567}],"postalCode":"91001","cc":"US","city":"Altadena","state":"CA","country":"United States","formattedAddress":["2125 Windsor Ave","Altadena, CA 91001","United States"]},"categories":[{"id":"4bf58dd8d48988d16c941735","name":"Burger Joint","pluralName":"Burger Joints","shortName":"Burgers","icon":{"prefix":"https:\/\/ss3.4sqi.net\/img\/categories_v2\/food\/burger_","suffix":".png"},"primary":true}],"verified":true,"stats":{"checkinsCount":1016,"usersCount":458,"tipCount":1},"url":"http:\/\/www.jackinthebox.com","hasMenu":true,"menu":{"type":"Menu","label":"Menu","anchor":"View Menu","url":"https:\/\/foursquare.com\/v\/jack-in-the-box\/4bc948b768f976b0fa335d83\/menu","mobileUrl":"https:\/\/foursquare.com\/v\/4bc948b768f976b0fa335d83\/device_menu"},"allowMenuUrlEdit":true,"beenHere":{"lastCheckinExpiredAt":0},"specials":{"count":0,"items":[]},"storeId":"3319","referralId":"v-1483291034","venueChains":[{"id":"556e1846a7c82e6b72513d66"}],"hasPerk":false},{"id":"4a8705e3f964a520270220e3","name":"Zeke's Smokehouse","contact":{"phone":"8189577045","formattedPhone":"(818) 957-7045"},"location":{"address":"2209 Honolulu Ave","crossStreet":"Verdugo Rd","lat":34.20532736038261,"lng":-118.22569310248171,"labeledLatLngs":[{"label":"display","lat":34.20532736038261,"lng":-118.22569310248171}],"postalCode":"91020","cc":"US","city":"Montrose","state":"CA","country":"United States","formattedAddress":["2209 Honolulu Ave (Verdugo Rd)","Montrose, CA 91020","United States"]},"categories":[{"id":"4bf58dd8d48988d1df931735","name":"BBQ Joint","pluralName":"BBQ Joints","shortName":"BBQ","icon":{"prefix":"https:\/\/ss3.4sqi.net\/img\/categories_v2\/food\/bbqalt_","suffix":".png"},"primary":true}],"verified":false,"stats":{"checkinsCount":1684,"usersCount":766,"tipCount":16},"url":"http:\/\/zekessmokehouse.com\/","hasMenu":true,"menu":{"type":"Menu","label":"Menu","anchor":"View Menu","url":"https:\/\/foursquare.com\/v\/zekes-smokehouse\/4a8705e3f964a520270220e3\/menu","mobileUrl":"https:\/\/foursquare.com\/v\/4a8705e3f964a520270220e3\/device_menu"},"allowMenuUrlEdit":true,"beenHere":{"lastCheckinExpiredAt":0},"specials":{"count":0,"items":[]},"referralId":"v-1483291034","venueChains":[],"hasPerk":false},{"id":"4ac00639f964a520819320e3","name":"Joselito's Mexican Food","contact":{"phone":"8189571901","formattedPhone":"(818) 957-1901","twitter":"josiesmontrose"},"location":{"address":"2345 Honolulu Ave","lat":34.20631728696003,"lng":-118.22983369953779,"labeledLatLngs":[{"label":"display","lat":34.20631728696003,"lng":-118.22983369953779}],"postalCode":"91020","cc":"US","city":"Montrose","state":"CA","country":"United States","formattedAddress":["2345 Honolulu Ave","Montrose, CA 91020","United States"]},"categories":[{"id":"4bf58dd8d48988d1c1941735","name":"Mexican Restaurant","pluralName":"Mexican Restaurants","shortName":"Mexican","icon":{"prefix":"https:\/\/ss3.4sqi.net\/img\/categories_v2\/food\/mexican_","suffix":".png"},"primary":true}],"verified":true,"stats":{"checkinsCount":2027,"usersCount":656,"tipCount":26},"url":"http:\/\/joselitosmontrose.com","hasMenu":true,"menu":{"type":"Menu","label":"Menu","anchor":"View Menu","url":"https:\/\/foursquare.com\/v\/joselitos-mexican-food\/4ac00639f964a520819320e3\/menu","mobileUrl":"https:\/\/foursquare.com\/v\/4ac00639f964a520819320e3\/device_menu"},"allowMenuUrlEdit":true,"beenHere":{"lastCheckinExpiredAt":0},"specials":{"count":0,"items":[]},"venuePage":{"id":"89008390"},"referralId":"v-1483291034","venueChains":[],"hasPerk":false},{"id":"4aca2bccf964a520b9c020e3","name":"DISH","contact":{"phone":"8187905355","formattedPhone":"(818) 790-5355","twitter":"dish"},"location":{"address":"734 Foothill Blvd","lat":34.201833341129955,"lng":-118.19483823449,"labeledLatLngs":[{"label":"display","lat":34.201833341129955,"lng":-118.19483823449}],"postalCode":"91011","cc":"US","city":"La Cañada","state":"CA","country":"United States","formattedAddress":["734 Foothill Blvd","La Cañada, CA 91011","United States"]},"categories":[{"id":"4bf58dd8d48988d14e941735","name":"American Restaurant","pluralName":"American Restaurants","shortName":"American","icon":{"prefix":"https:\/\/ss3.4sqi.net\/img\/categories_v2\/food\/default_","suffix":".png"},"primary":true}],"verified":false,"stats":{"checkinsCount":3001,"usersCount":1061,"tipCount":36},"url":"http:\/\/dishbreakfastlunchanddinner.com\/","hasMenu":true,"menu":{"type":"Menu","label":"Menu","anchor":"View Menu","url":"https:\/\/foursquare.com\/v\/dish\/4aca2bccf964a520b9c020e3\/menu","mobileUrl":"https:\/\/foursquare.com\/v\/4aca2bccf964a520b9c020e3\/device_menu"},"allowMenuUrlEdit":true,"beenHere":{"lastCheckinExpiredAt":0},"specials":{"count":0,"items":[]},"referralId":"v-1483291034","venueChains":[],"hasPerk":false},{"id":"4583e528f964a520893f1fe3","name":"La Cabañita","contact":{"phone":"8189572711","formattedPhone":"(818) 957-2711","twitter":"lacabanitaca","facebook":"153250758026966","facebookUsername":"lacabanitaca","facebookName":"La Cabanita"},"location":{"address":"3447 N Verdugo Rd","crossStreet":"at Ocean View Blvd","lat":34.20153620098055,"lng":-118.22784662246704,"labeledLatLngs":[{"label":"display","lat":34.20153620098055,"lng":-118.22784662246704}],"postalCode":"91208","cc":"US","city":"Glendale","state":"CA","country":"United States","formattedAddress":["3447 N Verdugo Rd (at Ocean View Blvd)","Glendale, CA 91208","United States"]},"categories":[{"id":"4bf58dd8d48988d151941735","name":"Taco Place","pluralName":"Taco Places","shortName":"Tacos","icon":{"prefix":"https:\/\/ss3.4sqi.net\/img\/categories_v2\/food\/taco_","suffix":".png"},"primary":true}],"verified":true,"stats":{"checkinsCount":2216,"usersCount":1015,"tipCount":42},"url":"http:\/\/lacabanita.com\/","hasMenu":true,"menu":{"type":"Menu","label":"Menu","anchor":"View Menu","url":"https:\/\/foursquare.com\/v\/la-caba%C3%B1ita\/4583e528f964a520893f1fe3\/menu","mobileUrl":"https:\/\/foursquare.com\/v\/4583e528f964a520893f1fe3\/device_menu"},"allowMenuUrlEdit":true,"beenHere":{"lastCheckinExpiredAt":0},"specials":{"count":0,"items":[]},"venuePage":{"id":"73101223"},"referralId":"v-1483291034","venueChains":[],"hasPerk":false},{"id":"4c648deae0c4be9a49e98558","name":"See's Candies","contact":{"phone":"8187907022","formattedPhone":"(818) 790-7022","twitter":"seescandies","facebook":"174917280644","facebookUsername":"Sees.Candies","facebookName":"See's Candies"},"location":{"address":"1133 Foothill Blvd","lat":34.20631911852592,"lng":-118.20394333689427,"labeledLatLngs":[{"label":"display","lat":34.20631911852592,"lng":-118.20394333689427}],"postalCode":"91011","cc":"US","city":"La Cañada Flintridge","state":"CA","country":"United States","formattedAddress":["1133 Foothill Blvd","La Cañada Flintridge, CA 91011","United States"]},"categories":[{"id":"4bf58dd8d48988d117951735","name":"Candy Store","pluralName":"Candy Stores","shortName":"Candy Store","icon":{"prefix":"https:\/\/ss3.4sqi.net\/img\/categories_v2\/shops\/candystore_","suffix":".png"},"primary":true}],"verified":true,"stats":{"checkinsCount":291,"usersCount":159,"tipCount":2},"url":"http:\/\/www.sees.com","allowMenuUrlEdit":true,"beenHere":{"lastCheckinExpiredAt":0},"specials":{"count":0,"items":[]},"storeId":"","referralId":"v-1483291034","venueChains":[{"id":"556ca00ca7c87f63786a2028"}],"hasPerk":false},{"id":"4c3d304cb36ac92898370586","name":"Panera Bread","contact":{"phone":"8189522190","formattedPhone":"(818) 952-2190","twitter":"panerabread","facebook":"99044554628","facebookUsername":"panerabread","facebookName":"Panera Bread"},"location":{"address":"990 Town Center, Suite A","lat":34.2049524100856,"lng":-118.19980144500732,"labeledLatLngs":[{"label":"display","lat":34.2049524100856,"lng":-118.19980144500732}],"postalCode":"91011","cc":"US","city":"La Cañada","state":"CA","country":"United States","formattedAddress":["990 Town Center, Suite A","La Cañada, CA 91011","United States"]},"categories":[{"id":"4bf58dd8d48988d1c5941735","name":"Sandwich Place","pluralName":"Sandwich Places","shortName":"Sandwiches","icon":{"prefix":"https:\/\/ss3.4sqi.net\/img\/categories_v2\/food\/deli_","suffix":".png"},"primary":true}],"verified":true,"stats":{"checkinsCount":2926,"usersCount":954,"tipCount":12},"url":"http:\/\/www.panerabread.com","hasMenu":true,"menu":{"type":"Menu","label":"Menu","anchor":"View Menu","url":"https:\/\/foursquare.com\/v\/panera-bread\/4c3d304cb36ac92898370586\/menu","mobileUrl":"https:\/\/foursquare.com\/v\/4c3d304cb36ac92898370586\/device_menu","externalUrl":"https:\/\/www.panerabread.com\/en-us\/menu-categories\/sandwiches-panini.html"},"allowMenuUrlEdit":true,"beenHere":{"lastCheckinExpiredAt":0},"specials":{"count":0,"items":[]},"storeId":"1402","referralId":"v-1483291034","venueChains":[{"id":"556e0f6fa7c82e6b724f8c8a"}],"hasPerk":false}]}}