{"meta":{"code":200,"requestId":"5869399f9fb6b73bd124f067"},"response":{"venues":[{"id":"4b5b3989f964a52080ec28e3","name":"VONS","contact":{"phone":"8187035959","formattedPhone":"(818) 703-5959"},"location":{"address":"8201 Topanga Canyon Blvd","crossStreet":"Roscoe","lat":34.21827873852158,"lng":-118.60684275627136,"labeledLatLngs":[{"label":"display","lat":34.21827873852158,"lng":-118.60684275627136}],"postalCode":"91304","cc":"US","city":"Canoga Park","state":"CA","country":"United States","formattedAddress":["8201 Topanga Canyon Blvd (Roscoe)","Canoga Park, CA 91304","United States"]},"categories":[{"id":"4bf58dd8d48988d118951735","name":"Grocery Store","pluralName":"Grocery Stores","shortName":"Grocery Store","icon":{"prefix":"https:\/\/ss3.4sqi.net\/img\/categories_v2\/shops\/food_grocery_","suffix":".png"},"primary":true}],"verified":true,"stats":{"checkinsCount":3507,"usersCount":748,"tipCount":8},"allowMenuUrlEdit":true,"beenHere":{"lastCheckinExpiredAt":0},"specials":{"count":0,"items":[]},"storeId":"1673","referralId":"v-1483291040","venueChains":[{"id":"556c9b97a7c87f637869e1a1"}],"hasPerk":false},{"id":"4a5bbca3f964a520b6bb1fe3","name":"The Habit Burger Grill","contact":{"phone":"8182252231","formattedPhone":"(818) 225-2231","twitter":"habitburger"},"location":{"address":"22651 Ventura Blvd.","crossStreet":"at Ponce Ave.","lat":34.16722236,"lng":-118.6207754,"labeledLatLngs":[{"label":"display","lat":34.16722236,"lng":-118.6207754}],"postalCode":"91364","cc":"US","city":"Woodland Hills","state":"CA","country":"United States","formattedAddress":["22651 Ventura Blvd. (at Ponce Ave.)","Woodland Hills, CA 91364","United States"]},"categories":[{"id":"4bf58dd8d48988d16c941735","name":"Burger Joint","pluralName":"Burger Joints","shortName":"Burgers","icon":{"prefix":"https:\/\/ss3.4sqi.net\/img\/categories_v2\/food\/burger_","suffix":".png"},"primary":true}],"verified":true,"stats":{"checkinsCount":2763,"usersCount":1124,"tipCount":14},"url":"http:\/\/t.co\/PuJauMBn4S","allowMenuUrlEdit":true,"beenHere":{"lastCheckinExpiredAt":0},"specials":{"count":0,"items":[]},"storeId":"7","referralId":"v-1483291040","venueChains":[{"id":"556a341fa7c8957d73d4cad4"}],"hasPerk":false},{"id":"4b3a68d6f964a520ab6625e3","name":"Starbucks","contact":{"phone":"8188830567","formattedPhone":"(818) 883-0567","twitter":"starbucks","facebook":"22092443056","facebookUsername":"Starbucks","facebookName":"Starbucks"},"location":{"address":"22815 Victory Blvd","lat":34.186739,"lng":-118.624243,"labeledLatLngs":[{"label":"display","lat":34.186739,"lng":-118.624243}],"postalCode":"91307","cc":"US","city":"West Hills","state":"CA","country":"United States","formattedAddress":["22815 Victory Blvd","West Hills, CA 91307","United States"]},"categories":[{"id":"4bf58dd8d48988d1e0931735","name":"Coffee Shop","pluralName":"Coffee Shops","shortName":"Coffee Shop","icon":{"prefix":"https:\/\/ss3.4sqi.net\/img\/categories_v2\/food\/coffeeshop_","suffix":".png"},"primary":true}],"verified":true,"stats":{"checkinsCount":3772,"usersCount":1103,"tipCount":11},"url":"http:\/\/www.starbucks.com\/","hasMenu":true,"menu":{"type":"Menu","label":"Menu","anchor":"View Menu","url":"https:\/\/foursquare.com\/v\/starbucks\/4b3a68d6f964a520ab6625e3\/menu","mobileUrl":"https:\/\/foursquare.com\/v\/4b3a68d6f964a520ab6625e3\/device_menu"},"allowMenuUrlEdit":true,"beenHere":{"lastCheckinExpiredAt":0},"specials":{"count":0,"items":[]},"storeId":"5759","referralId":"v-1483291040","venueChains":[{"id":"556f676fbd6a75a99038d8ec"}],"hasPerk":false},{"id":"5181a57f498e53155dbe0d86","name":"Starbucks","contact":{"phone":"8185911380","formattedPhone":"(818) 591-1380","twitter":"starbucks","facebook":"22092443056","facebookUsername":"Starbucks","facebookName":"Starbucks"},"location":{"address":"23335 Mulholland Drive","lat":34.157969,"lng":-118.634669,"labeledLatLngs":[{"label":"display","lat":34.157969,"lng":-118.634669}],"postalCode":"91364","cc":"US","city":"Woodland Hills","state":"CA","country":"United States","formattedAddress":["23335 Mulholland Drive","Woodland Hills, CA 91364","United States"]},"categories":[{"id":"4bf58dd8d48988d1e0931735","name":"Coffee Shop","pluralName":"Coffee Shops","shortName":"Coffee Shop","icon":{"prefix":"https:\/\/ss3.4sqi.net\/img\/categories_v2\/food\/coffeeshop_","suffix":".png"},"primary":true}],"verified":true,"stats":{"checkinsCount":556,"usersCount":249,"tipCount":4},"url":"http:\/\/www.starbucks.com\/","hasMenu":true,"menu":{"type":"Menu","label":"Menu","anchor":"View Menu","url":"https:\/\/foursquare.com\/v\/starbucks\/5181a57f498e53155dbe0d86\/menu","mobileUrl":"https:\/\/foursquare.com\/v\/5181a57f498e53155dbe0d86\/device_menu"},"allowMenuUrlEdit":true,"beenHere":{"lastCheckinExpiredAt":0},"specials":{"count":0,"items":[]},"storeId":"18869","referralId":"v-1483291040","venueChains":[{"id":"556f676fbd6a75a99038d8ec"}],"hasPerk":false},{"id":"4a46a89ff964a52041a91fe3","name":"Stonefire Grill","contact":{"phone":"8188874145","formattedPhone":"(818) 887-4145"},"location":{"address":"6405 Fallbrook Ave","crossStreet":"near Victory Blvd","lat":34.18724786407948,"lng":-118.6238780733303,"labeledLatLngs":[{"label":"display","lat":34.18724786407948,"lng":-118.6238780733303}],"postalCode":"91307","cc":"US","city":"West Hills","state":"CA","country":"United States","formattedAddress":["6405 Fallbrook Ave (near Victory Blvd)","West Hills, CA 91307","United States"]},"categories":[{"id":"4bf58dd8d48988d14e941735","name":"American Restaurant","pluralName":"American Restaurants","shortName":"American","icon":{"prefix":"https:\/\/ss3.4sqi.net\/img\/categories_v2\/food\/default_","suffix":".png"},"primary":true}],"verified":true,"stats":{"checkinsCount":3831,"usersCount":1657,"tipCount":27},"url":"http:\/\/stonefiregrill.com","hasMenu":true,"menu":{"type":"Menu","label":"Menu","anchor":"View Menu","url":"https:\/\/foursquare.com\/v\/stonefire-grill\/4a46a89ff964a52041a91fe3\/menu","mobileUrl":"https:\/\/foursquare.com\/v\/4a46a89ff964a52041a91fe3\/device_menu"},"allowMenuUrlEdit":true,"beenHere":{"lastCheckinExpiredAt":0},"specials":{"count":0,"items":[]},"referralId":"v-1483291040","venueChains":[{"id":"556f3d60bd6a007c7737ed5b"}],"hasPerk":false},{"id":"5070a1c3e4b0245aeb599fce","name":"Starbucks","contact":{"phone":"8183463085","formattedPhone":"(818) 346-3085","twitter":"starbucks","facebook":"22092443056","facebookUsername":"Starbucks","facebookName":"Starbucks"},"location":{"address":"6516 Platt Ave","lat":34.188642091981755,"lng":-118.64152908325195,"labeledLatLngs":[{"label":"display","lat":34.188642091981755,"lng":-118.64152908325195}],"postalCode":"91307","cc":"US","city":"West Hills","state":"CA","country":"United States","formattedAddress":["6516 Platt Ave","West Hills, CA 91307","United States"]},"categories":[{"id":"4bf58dd8d48988d1e0931735","name":"Coffee Shop","pluralName":"Coffee Shops","shortName":"Coffee Shop","icon":{"prefix":"https:\/\/ss3.4sqi.net\/img\/categories_v2\/food\/coffeeshop_","suffix":".png"},"primary":true}],"verified":true,"stats":{"checkinsCount":1449,"usersCount":247,"tipCount":3},"url":"http:\/\/www.starbucks.com\/","hasMenu":true,"menu":{"type":"Menu","label":"Menu","anchor":"View Menu","url":"https:\/\/foursquare.com\/v\/starbucks\/5070a1c3e4b0245aeb599fce\/menu","mobileUrl":"https:\/\/foursquare.com\/v\/5070a1c3e4b0245aeb599fce\/device_menu"},"allowMenuUrlEdit":true,"beenHere":{"lastCheckinExpiredAt":0},"specials":{"count":0,"items":[]},"storeId":"563","referralId":"v-1483291040","venueChains":[{"id":"556f676fbd6a75a99038d8ec"}],"hasPerk":false},{"id":"4a6f0fabf964a5203ed51fe3","name":"McDonald's","contact":{"phone":"8182243996","formattedPhone":"(818) 224-3996","twitter":"mcdonalds"},"location":{"address":"23340 Avenue San Luis","crossStreet":"at Mulholland","lat":34.15929243810582,"lng":-118.63556385040283,"labeledLatLngs":[{"label":"display","lat":34.15929243810582,"lng":-118.63556385040283}],"postalCode":"91364","cc":"US","city":"Woodland Hills","state":"CA","country":"United States","formattedAddress":["23340 Avenue San Luis (at Mulholland)","Woodland Hills, CA 91364","United States"]},"categories":[{"id":"4bf58dd8d48988d16e941735","name":"Fast Food Restaurant","pluralName":"Fast Food Restaurants","shortName":"Fast Food","icon":{"prefix":"https:\/\/ss3.4sqi.net\/img\/categories_v2\/food\/fastfood_","suffix":".png"},"primary":true}],"verified":true,"stats":{"checkinsCount":878,"usersCount":410,"tipCount":4},"url":"http:\/\/mcdonalds.com","hasMenu":true,"menu":{"type":"Menu","label":"Menu","anchor":"View Menu","url":"https:\/\/foursquare.com\/v\/mcdonalds\/4a6f0fabf964a5203ed51fe3\/menu","mobileUrl":"https:\/\/foursquare.com\/v\/4a6f0fabf964a5203ed51fe3\/device_menu"},"allowMenuUrlEdit":true,"beenHere":{"lastCheckinExpiredAt":0},"specials":{"count":0,"items":[]},"referralId":"v-1483291040","venueChains":[{"id":"556f7a12bd6a75a9903bddb2"}],"hasPerk":false},{"id":"4bc35b0074a9a593aa6bd4f6","name":"The Coffee Bean & Tea Leaf","contact":{"phone":"8187045867","formattedPhone":"(818) 704-5867","twitter":"thecoffeebean"},"location":{"address":"6401 Platt Ave","crossStreet":"at Victory Blvd","lat":34.18682583,"lng":-118.6433198,"labeledLatLngs":[{"label":"display","lat":34.18682583,"lng":-118.6433198}],"postalCode":"91307","cc":"US","city":"West Hills","state":"CA","country":"United States","formattedAddress":["6401 Platt Ave (at Victory Blvd)","West Hills, CA 91307","United States"]},"categories":[{"id":"4bf58dd8d48988d1e0931735","name":"Coffee Shop","pluralName":"Coffee Shops","shortName":"Coffee Shop","icon":{"prefix":"https:\/\/ss3.4sqi.net\/img\/categories_v2\/food\/coffeeshop_","suffix":".png"},"primary":true}],"verified":true,"stats":{"checkinsCount":2524,"usersCount":367,"tipCount":7},"url":"http:\/\/www.coffeebean.com","allowMenuUrlEdit":true,"beenHere":{"lastCheckinExpiredAt":0},"specials":{"count":0,"items":[]},"storeId":"202","referralId":"v-1483291040","venueChains":[{"id":"556a4e08a7c8957d73d6ce60"}],"hasPerk":false},{"id":"4a83307df964a52055fa1fe3","name":"California Chicken Cafe","contact":{"phone":"8187166170","formattedPhone":"(818) 716-6170","twitter":"ccc411"},"location":{"address":"22333 Ventura Blvd","crossStreet":"at Shoup Ave","lat":34.169226217286315,"lng":-118.61367166042328,"labeledLatLngs":[{"label":"display","lat":34.169226217286315,"lng":-118.61367166042328}],"postalCode":"91364","cc":"US","city":"Woodland Hills","state":"CA","country":"United States","formattedAddress":["22333 Ventura Blvd (at Shoup Ave)","Woodland Hills, CA 91364","United States"]},"categories":[{"id":"4bf58dd8d48988d14e941735","name":"American Restaurant","pluralName":"American Restaurants","shortName":"American","icon":{"prefix":"https:\/\/ss3.4sqi.net\/img\/categories_v2\/food\/default_","suffix":".png"},"primary":true}],"verified":false,"stats":{"checkinsCount":4551,"usersCount":1263,"tipCount":41},"url":"http:\/\/californiachickencafe.com","hasMenu":true,"menu":{"type":"Menu","label":"Menu","anchor":"View Menu","url":"https:\/\/foursquare.com\/v\/california-chicken-cafe\/4a83307df964a52055fa1fe3\/menu","mobileUrl":"https:\/\/foursquare.com\/v\/4a83307df964a52055fa1fe3\/device_menu"},"allowMenuUrlEdit":true,"beenHere":{"lastCheckinExpiredAt":0},"specials":{"count":0,"items":[]},"referralId":"v-1483291040","venueChains":[],"hasPerk":false},{"id":"4a3adcdef964a52060a01fe3","name":"7-Eleven","contact":{"phone":"8188844500","formattedPhone":"(818) 884-4500","twitter":"7eleven","facebook":"169132026497070","facebookUsername":"7ElevenWoodlandHills29415","facebookName":"7-Eleven"},"location":{"address":"22401 Ventura Blvd Ste A","crossStreet":"at Shoup Ave.","lat":34.168842987938476,"lng":-118.61517136621133,"labeledLatLngs":[{"label":"display","lat":34.168842987938476,"lng":-118.61517136621133}],"postalCode":"91364","cc":"US","city":"Woodland Hills","state":"CA","country":"United States","formattedAddress":["22401 Ventura Blvd Ste A (at Shoup Ave.)","Woodland Hills, CA 91364","United States"]},"categories":[{"id":"4d954b0ea243a5684a65b473","name":"Convenience Store","pluralName":"Convenience Stores","shortName":"Convenience Store","icon":{"prefix":"https:\/\/ss3.4sqi.net\/img\/categories_v2\/shops\/conveniencestore_","suffix":".png"},"primary":true}],"verified":true,"stats":{"checkinsCount":700,"usersCount":189,"tipCount":4},"url":"http:\/\/www.7-eleven.com","allowMenuUrlEdit":true,"beenHere":{"lastCheckinExpiredAt":0},"specials":{"count":0,"items":[]},"storeId":"29415","referralId":"v-1483291040","venueChains":[{"id":"556f676fbd6a75a99038d8e9"}],"hasPerk":false},{"id":"4ba51e7bf964a520d2df38e3","name":"Health Nut","contact":{"phone":"8182227391","formattedPhone":"(818) 222-7391","twitter":"healthnutla"},"location":{"address":"23373 Mulholland Dr","lat":34.15872999,"lng":-118.63471627235413,"labeledLatLngs":[{"label":"display","lat":34.15872999,"lng":-118.63471627235413}],"postalCode":"91364","cc":"US","city":"Woodland Hills","state":"CA","country":"United States","formattedAddress":["23373 Mulholland Dr","Woodland Hills, CA 91364","United States"]},"categories":[{"id":"4bf58dd8d48988d1bd941735","name":"Salad Place","pluralName":"Salad Places","shortName":"Salad","icon":{"prefix":"https:\/\/ss3.4sqi.net\/img\/categories_v2\/food\/salad_","suffix":".png"},"primary":true}],"verified":true,"stats":{"checkinsCount":587,"usersCount":237,"tipCount":14},"url":"http:\/\/healthnutla.com","hasMenu":true,"menu":{"type":"Menu","label":"Menu","anchor":"View Menu","url":"https:\/\/foursquare.com\/v\/health-nut\/4ba51e7bf964a520d2df38e3\/menu","mobileUrl":"https:\/\/foursquare.com\/v\/4ba51e7bf964a520d2df38e3\/device_menu"},"allowMenuUrlEdit":true,"beenHere":{"lastCheckinExpiredAt":0},"specials":{"count":0,"items":[]},"venuePage":{"id":"351023447"},"referralId":"v-1483291040","venueChains":[],"hasPerk":false},{"id":"51ddb2bb498e6aab7911a5f7","name":"Pho So 1","contact":{"phone":"8188848356","formattedPhone":"(818) 884-8356"},"location":{"address":"22902 Vanowen St","lat":34.193375749983865,"lng":-118.62590641552471,"labeledLatLngs":[{"label":"display","lat":34.193375749983865,"lng":-118.62590641552471}],"postalCode":"91307","cc":"US","city":"West Hills","state":"CA","country":"United States","formattedAddress":["22902 Vanowen St","West Hills, CA 91307","United States"]},"categories":[{"id":"4bf58dd8d48988d14a941735","name":"Vietnamese Restaurant","pluralName":"Vietnamese Restaurants","shortName":"Vietnamese","icon":{"prefix":"https:\/\/ss3.4sqi.net\/img\/categories_v2\/food\/vietnamese_","suffix":".png"},"primary":true}],"verified":false,"stats":{"checkinsCount":788,"usersCount":277,"tipCount":8},"url":"http:\/\/www.phoso1.com","allowMenuUrlEdit":true,"beenHere":{"lastCheckinExpiredAt":0},"specials":{"count":0,"items":[]},"referralId":"v-1483291040","venueChains":[],"hasPerk":false},{"id":"4e26404145ddb79afc60295e","name":"Leo & Lily","contact":{"phone":"8182226622","formattedPhone":"(818) 222-6622"},"location":{"address":"22420 Ventura Blvd","crossStreet":"at Shoup Pl.","lat":34.16824221611023,"lng":-118.61516833305359,"labeledLatLngs":[{"label":"display","lat":34.16824221611023,"lng":-118.61516833305359}],"postalCode":"91364","cc":"US","city":"Woodland Hills","state":"CA","country":"United States","formattedAddress":["22420 Ventura Blvd (at Shoup Pl.)","Woodland Hills, CA 91364","United States"]},"categories":[{"id":"4bf58dd8d48988d16d941735","name":"Café","pluralName":"Cafés","shortName":"Café","icon":{"prefix":"https:\/\/ss3.4sqi.net\/img\/categories_v2\/food\/cafe_","suffix":".png"},"primary":true}],"verified":false,"stats":{"checkinsCount":2238,"usersCount":1130,"tipCount":40},"url":"http:\/\/leonlily.com","hasMenu":true,"menu":{"type":"Menu","label":"Menu","anchor":"View Menu","url":"https:\/\/foursquare.com\/v\/leo--lily\/4e26404145ddb79afc60295e\/menu","mobileUrl":"https:\/\/foursquare.com\/v\/4e26404145ddb79afc60295e\/device_menu"},"allowMenuUrlEdit":true,"beenHere":{"lastCheckinExpiredAt":0},"specials":{"count":0,"items":[]},"referralId":"v-1483291040","venueChains":[],"hasPerk":false},{"id":"4faf13cee4b0c8d288712ea1","name":"The Villa Restaurant of Woodland Hills","contact":{"phone":"8187041185","formattedPhone":"(818) 704-1185"},"location":{"address":"22160 Ventura Blvd","crossStreet":"at San Feliciano Dr","lat":34.16838312002385,"lng":-118.61026017558409,"labeledLatLngs":[{"label":"display","lat":34.16838312002385,"lng":-118.61026017558409}],"postalCode":"91364","cc":"US","city":"Woodland Hills","state":"CA","country":"United States","formattedAddress":["22160 Ventura Blvd (at San Feliciano Dr)","Woodland Hills, CA 91364","United States"]},"categories":[{"id":"4bf58dd8d48988d110941735","name":"Italian Restaurant","pluralName":"Italian Restaurants","shortName":"Italian","icon":{"prefix":"https:\/\/ss3.4sqi.net\/img\/categories_v2\/food\/italian_","suffix":".png"},"primary":true}],"verified":false,"stats":{"checkinsCount":612,"usersCount":399,"tipCount":10},"url":"http:\/\/www.thevillawoodlandhills.com","hasMenu":true,"menu":{"type":"Menu","label":"Menu","anchor":"View Menu","url":"https:\/\/foursquare.com\/v\/the-villa-restaurant-of-woodland-hills\/4faf13cee4b0c8d288712ea1\/menu","mobileUrl":"https:\/\/foursquare.com\/v\/4faf13cee4b0c8d288712ea1\/device_menu"},"allowMenuUrlEdit":true,"beenHere":{"lastCheckinExpiredAt":0},"specials":{"count":0,"items":[]},"referralId":"v-1483291040","venueChains":[],"hasPerk":false},{"id":"518731b2498e4b3d522bdf8d","name":"The Local Peasant","contact":{"phone":"8188760105","formattedPhone":"(818) 876-0105","facebook":"167338999954976","facebookUsername":"TheLocalPeasant","facebookName":"The Local Peasant - Sherman Oaks"},"location":{"address":"22901 Ventura Blvd","crossStreet":"Fallbrook","lat":34.165574324170336,"lng":-118.62537654206304,"labeledLatLngs":[{"label":"display","lat":34.165574324170336,"lng":-118.62537654206304}],"postalCode":"91364","cc":"US","city":"Woodland Hills","state":"CA","country":"United States","formattedAddress":["22901 Ventura Blvd (Fallbrook)","Woodland Hills, CA 91364","United States"]},"categories":[{"id":"4bf58dd8d48988d155941735","name":"Gastropub","pluralName":"Gastropubs","shortName":"Gastropub","icon":{"prefix":"https:\/\/ss3.4sqi.net\/img\/categories_v2\/food\/gastropub_","suffix":".png"},"primary":true}],"verified":true,"stats":{"checkinsCount":2283,"usersCount":1268,"tipCount":50},"url":"http:\/\/www.thelocalpeasant.com\/","allowMenuUrlEdit":true,"beenHere":{"lastCheckinExpiredAt":0},"specials":{"count":0,"items":[]},"storeId":"","referralId":"v-1483291040","venueChains":[{"id":"556e551bbd6a82902e287722"}],"hasPerk":false},{"id":"4a304d05f964a52048991fe3","name":"Sagebrush Cantina","contact":{"phone":"8182226062","formattedPhone":"(818) 222-6062","twitter":"sagebrushca"},"location":{"address":"23527 Calabasas Rd","lat":34.157645572670916,"lng":-118.63935112953186,"labeledLatLngs":[{"label":"display","lat":34.157645572670916,"lng":-118.63935112953186}],"postalCode":"91302","cc":"US","city":"Calabasas","state":"CA","country":"United States","formattedAddress":["23527 Calabasas Rd","Calabasas, CA 91302","United States"]},"categories":[{"id":"4bf58dd8d48988d1c1941735","name":"Mexican Restaurant","pluralName":"Mexican Restaurants","shortName":"Mexican","icon":{"prefix":"https:\/\/ss3.4sqi.net\/img\/categories_v2\/food\/mexican_","suffix":".png"},"primary":true}],"verified":true,"stats":{"checkinsCount":5749,"usersCount":3354,"tipCount":49},"url":"http:\/\/www.sagebrushcantina-hub.com","hasMenu":true,"menu":{"type":"Menu","label":"Menu","anchor":"View Menu","url":"https:\/\/foursquare.com\/v\/sagebrush-cantina\/4a304d05f964a52048991fe3\/menu","mobileUrl":"https:\/\/foursquare.com\/v\/4a304d05f964a52048991fe3\/device_menu"},"allowMenuUrlEdit":true,"beenHere":{"lastCheckinExpiredAt":0},"specials":{"count":0,"items":[]},"venuePage":{"id":"140804134"},"referralId":"v-1483291040","venueChains":[],"hasPerk":false},{"id":"4b43d183f964a520edea25e3","name":"McDonald's","contact":{"phone":"8183464282","formattedPhone":"(818) 346-4282"},"location":{"address":"22030 Roscoe Blvd","crossStreet":"at Topanga Canyon Blvd.","lat":34.21929232272847,"lng":-118.60707879066467,"labeledLatLngs":[{"label":"display","lat":34.21929232272847,"lng":-118.60707879066467}],"postalCode":"91304","cc":"US","city":"Canoga Park","state":"CA","country":"United States","formattedAddress":["22030 Roscoe Blvd (at Topanga Canyon Blvd.)","Canoga Park, CA 91304","United States"]},"categories":[{"id":"4bf58dd8d48988d16e941735","name":"Fast Food Restaurant","pluralName":"Fast Food Restaurants","shortName":"Fast Food","icon":{"prefix":"https:\/\/ss3.4sqi.net\/img\/categories_v2\/food\/fastfood_","suffix":".png"},"primary":true}],"verified":true,"stats":{"checkinsCount":1541,"usersCount":476,"tipCount":22},"url":"http:\/\/mcdonalds.com","hasMenu":true,"menu":{"type":"Menu","label":"Menu","anchor":"View Menu","url":"https:\/\/foursquare.com\/v\/mcdonalds\/4b43d183f964a520edea25e3\/menu","mobileUrl":"https:\/\/foursquare.com\/v\/4b43d183f964a520edea25e3\/device_menu"},"allowMenuUrlEdit":true,"beenHere":{"lastCheckinExpiredAt":0},"specials":{"count":0,"items":[]},"referralId":"v-1483291040","venueChains":[{"id":"556f7a12bd6a75a9903bddb2"}],"hasPerk":false},{"id":"4a75e55df964a5208ae11fe3","name":"IHOP","contact":{"phone":"8187109452","formattedPhone":"(818) 710-9452","twitter":"IHOP","facebook":"10036618151","facebookUsername":"IHOP","facebookName":"IHOP"},"location":{"address":"22810 Vanowen St","crossStreet":"at Fallbrook Ave","lat":34.19361,"lng":-118.6236,"labeledLatLngs":[{"label":"display","lat":34.19361,"lng":-118.6236}],"postalCode":"91307","cc":"US","city":"West Hills","state":"CA","country":"United States","formattedAddress":["22810 Vanowen St (at Fallbrook Ave)","West Hills, CA 91307","United States"]},"categories":[{"id":"4bf58dd8d48988d143941735","name":"Breakfast Spot","pluralName":"Breakfast Spots","shortName":"Breakfast","icon":{"prefix":"https:\/\/ss3.4sqi.net\/img\/categories_v2\/food\/breakfast_","suffix":".png"},"primary":true}],"verified":true,"stats":{"checkinsCount":1507,"usersCount":763,"tipCount":11},"url":"http:\/\/restaurants.ihop.com\/ca\/west-hills\/778\/","hasMenu":true,"menu":{"type":"Menu","label":"Menu","anchor":"View Menu","url":"http:\/\/www.ihop.com\/menus\/main-menu","mobileUrl":"http:\/\/www.ihop.com\/menus\/main-menu","externalUrl":"http:\/\/www.ihop.com\/menus\/main-menu"},"allowMenuUrlEdit":true,"beenHere":{"lastCheckinExpiredAt":0},"specials":{"count":0,"items":[]},"storeId":"778","referralId":"v-1483291040","venueChains":[{"id":"556e0f6fa7c82e6b724f8c84"}],"hasPerk":false},{"id":"4b7b62baf964a52038612fe3","name":"Red Lobster","contact":{"phone":"8187139297","formattedPhone":"(818) 713-9297","twitter":"redlobster"},"location":{"address":"22800 Vanowen St","crossStreet":"at Fallbrook Ave","lat":34.193404,"lng":-118.6236835,"labeledLatLngs":[{"label":"display","lat":34.193404,"lng":-118.6236835}],"postalCode":"91307","cc":"US","city":"Canoga Park","state":"CA","country":"United States","formattedAddress":["22800 Vanowen St (at Fallbrook Ave)","Canoga Park, CA 91307","United States"]},"categories":[{"id":"4bf58dd8d48988d1ce941735","name":"Seafood Restaurant","pluralName":"Seafood Restaurants","shortName":"Seafood","icon":{"prefix":"https:\/\/ss3.4sqi.net\/img\/categories_v2\/food\/seafood_","suffix":".png"},"primary":true}],"verified":true,"stats":{"checkinsCount":2640,"usersCount":1450,"tipCount":22},"url":"http:\/\/www.redlobster.com","hasMenu":true,"menu":{"type":"Menu","label":"Menu","anchor":"View Menu","url":"https:\/\/foursquare.com\/v\/red-lobster\/4b7b62baf964a52038612fe3\/menu","mobileUrl":"https:\/\/foursquare.com\/v\/4b7b62baf964a52038612fe3\/device_menu"},"allowMenuUrlEdit":true,"beenHere":{"lastCheckinExpiredAt":0},"specials":{"count":0,"items":[]},"storeId":"525","referralId":"v-1483291040","venueChains":[{"id":"556d0fe9aceaff43eb08b7c1"}],"hasPerk":false},{"id":"4bd2404b462cb713ac06dc07","name":"Wendy's","contact":{"phone":"8182251038","formattedPhone":"(818) 225-1038","twitter":"wendys","facebook":"113385204488","facebookUsername":"wendys","facebookName":"Wendy's"},"location":{"address":"22611 Ventura Blvd","lat":34.16778704039412,"lng":-118.6192971172762,"labeledLatLngs":[{"label":"display","lat":34.16778704039412,"lng":-118.6192971172762}],"postalCode":"91364","cc":"US","city":"Woodland Hills","state":"CA","country":"United States","formattedAddress":["22611 Ventura Blvd","Woodland Hills, CA 91364","United States"]},"categories":[{"id":"4bf58dd8d48988d16e941735","name":"Fast Food Restaurant","pluralName":"Fast Food Restaurants","shortName":"Fast Food","icon":{"prefix":"https:\/\/ss3.4sqi.net\/img\/categories_v2\/food\/fastfood_","suffix":".png"},"primary":true}],"verified":true,"stats":{"checkinsCount":1037,"usersCount":408,"tipCount":7},"url":"http:\/\/wendys.com","hasMenu":true,"menu":{"type":"Menu","label":"Menu","anchor":"View Menu","url":"https:\/\/foursquare.com\/v\/wendys\/4bd2404b462cb713ac06dc07\/menu","mobileUrl":"https:\/\/foursquare.com\/v\/4bd2404b462cb713ac06dc07\/device_menu"},"allowMenuUrlEdit":true,"beenHere":{"lastCheckinExpiredAt":0},"specials":{"count":0,"items":[]},"storeId":"09077-FS-OP","referralId":"v-1483291040","venueChains":[{"id":"556f46f6bd6a007c77390fa9"}],"hasPerk":false},{"id":"4be6e818d4f7c9b6e42c2720","name":"7-Eleven","contact":{"phone":"8187109107","formattedPhone":"(818) 710-9107","twitter":"7eleven","facebook":"278425228838685","facebookUsername":"7ElevenCanogaPark32829","facebookName":"7-Eleven"},"location":{"address":"23701 Vanowen St","crossStreet":"at Platt","lat":34.193648,"lng":-118.642742,"labeledLatLngs":[{"label":"display","lat":34.193648,"lng":-118.642742}],"postalCode":"91307","cc":"US","city":"West Hills","state":"CA","country":"United States","formattedAddress":["23701 Vanowen St (at Platt)","West Hills, CA 91307","United States"]},"categories":[{"id":"4d954b0ea243a5684a65b473","name":"Convenience Store","pluralName":"Convenience Stores","shortName":"Convenience Store","icon":{"prefix":"https:\/\/ss3.4sqi.net\/img\/categories_v2\/shops\/conveniencestore_","suffix":".png"},"primary":true}],"verified":true,"stats":{"checkinsCount":2366,"usersCount":170,"tipCount":2},"url":"http:\/\/www.7-eleven.com","allowMenuUrlEdit":true,"beenHere":{"lastCheckinExpiredAt":0},"specials":{"count":0,"items":[]},"storeId":"32829","referralId":"v-1483291040","venueChains":[{"id":"556f676fbd6a75a99038d8e9"}],"hasPerk":false},{"id":"4bae1b63f964a520ee843be3","name":"McDonald's","contact":{"phone":"8188832301","formattedPhone":"(818) 883-2301"},"location":{"address":"6433 Platt Ave","crossStreet":"at Victory Blvd","lat":34.18749723408848,"lng":-118.64318937063217,"labeledLatLngs":[{"label":"display","lat":34.18749723408848,"lng":-118.64318937063217}],"postalCode":"91307","cc":"US","city":"West Hills","state":"CA","country":"United States","formattedAddress":["6433 Platt Ave (at Victory Blvd)","West Hills, CA 91307","United States"]},"categories":[{"id":"4bf58dd8d48988d16e941735","name":"Fast Food Restaurant","pluralName":"Fast Food Restaurants","shortName":"Fast Food","icon":{"prefix":"https:\/\/ss3.4sqi.net\/img\/categories_v2\/food\/fastfood_","suffix":".png"},"primary":true}],"verified":true,"stats":{"checkinsCount":1097,"usersCount":340,"tipCount":6},"url":"http:\/\/mcdonalds.com","hasMenu":true,"menu":{"type":"Menu","label":"Menu","anchor":"View Menu","url":"https:\/\/foursquare.com\/v\/mcdonalds\/4bae1b63f964a520ee843be3\/menu","mobileUrl":"https:\/\/foursquare.com\/v\/4bae1b63f964a520ee843be3\/device_menu"},"allowMenuUrlEdit":true,"beenHere":{"lastCheckinExpiredAt":0},"specials":{"count":0,"items":[]},"referralId":"v-1483291040","venueChains":[{"id":"556f7a12bd6a75a9903bddb2"}],"hasPerk":false},{"id":"4b537fd9f964a520cf9f27e3","name":"Chili's Grill & Bar","contact":{"phone":"8187049537","formattedPhone":"(818) 704-9537","twitter":"chilis","facebook":"106027143213","facebookUsername":"Chilis","facebookName":"Chili's Grill & Bar"},"location":{"address":"6775 Fallbrook Ave","crossStreet":"btwn Vanowen & Kittridge St","lat":34.19257,"lng":-118.623768,"labeledLatLngs":[{"label":"display","lat":34.19257,"lng":-118.623768}],"postalCode":"91307","cc":"US","city":"West Hills","state":"CA","country":"United States","formattedAddress":["6775 Fallbrook Ave (btwn Vanowen & Kittridge St)","West Hills, CA 91307","United States"]},"categories":[{"id":"56aa371ae4b08b9a8d5734ba","name":"Tex-Mex Restaurant","pluralName":"Tex-Mex Restaurants","shortName":"Tex-Mex","icon":{"prefix":"https:\/\/ss3.4sqi.net\/img\/categories_v2\/food\/mexican_","suffix":".png"},"primary":true}],"verified":true,"stats":{"checkinsCount":3356,"usersCount":1320,"tipCount":23},"url":"http:\/\/chilis.com","hasMenu":true,"menu":{"type":"Menu","label":"Menu","anchor":"View Menu","url":"https:\/\/foursquare.com\/v\/chilis-grill--bar\/4b537fd9f964a520cf9f27e3\/menu","mobileUrl":"https:\/\/foursquare.com\/v\/4b537fd9f964a520cf9f27e3\/device_menu","externalUrl":"http:\/\/www.listingextensions.com\/f43115baa3\/3786026460\/menu"},"allowMenuUrlEdit":true,"beenHere":{"lastCheckinExpiredAt":0},"specials":{"count":0,"items":[]},"storeId":"0010050148","referralId":"v-1483291040","venueChains":[{"id":"556df7e1a7c82e6b724d8229"}],"hasPerk":false},{"id":"5127ccc6e4b07649ee2fa468","name":"Pedalers Fork","contact":{"phone":"8182258231","formattedPhone":"(818) 225-8231","twitter":"pedalersfork"},"location":{"address":"23504 Calabasas Rd","lat":34.15722018150742,"lng":-118.63881086318048,"labeledLatLngs":[{"label":"display","lat":34.15722018150742,"lng":-118.63881086318048}],"postalCode":"91302","cc":"US","city":"Calabasas","state":"CA","country":"United States","formattedAddress":["23504 Calabasas Rd","Calabasas, CA 91302","United States"]},"categories":[{"id":"4bf58dd8d48988d157941735","name":"New American Restaurant","pluralName":"New American Restaurants","shortName":"New American","icon":{"prefix":"https:\/\/ss3.4sqi.net\/img\/categories_v2\/food\/newamerican_","suffix":".png"},"primary":true}],"verified":true,"stats":{"checkinsCount":1726,"usersCount":957,"tipCount":42},"url":"http:\/\/www.pedalersfork.com","hasMenu":true,"menu":{"type":"Menu","label":"Menu","anchor":"View Menu","url":"https:\/\/foursquare.com\/v\/pedalers-fork\/5127ccc6e4b07649ee2fa468\/menu","mobileUrl":"https:\/\/foursquare.com\/v\/5127ccc6e4b07649ee2fa468\/device_menu"},"allowMenuUrlEdit":true,"beenHere":{"lastCheckinExpiredAt":0},"specials":{"count":0,"items":[]},"venuePage":{"id":"103096030"},"referralId":"v-1483291040","venueChains":[],"hasPerk":false},{"id":"4b6e1f19f964a52006ac2ce3","name":"Del Taco","contact":{"phone":"8183468167","formattedPhone":"(818) 346-8167"},"location":{"address":"7121 Carlson Cir","crossStreet":"at Shoup Ave.","lat":34.19996780406906,"lng":-118.61440122127533,"labeledLatLngs":[{"label":"display","lat":34.19996780406906,"lng":-118.61440122127533}],"postalCode":"91303","cc":"US","city":"Canoga Park","state":"CA","country":"United States","formattedAddress":["7121 Carlson Cir (at Shoup Ave.)","Canoga Park, CA 91303","United States"]},"categories":[{"id":"4bf58dd8d48988d151941735","name":"Taco Place","pluralName":"Taco Places","shortName":"Tacos","icon":{"prefix":"https:\/\/ss3.4sqi.net\/img\/categories_v2\/food\/taco_","suffix":".png"},"primary":true}],"verified":false,"stats":{"checkinsCount":1203,"usersCount":387,"tipCount":12},"url":"http:\/\/deltaco.com","hasMenu":true,"menu":{"type":"Menu","label":"Menu","anchor":"View Menu","url":"https:\/\/foursquare.com\/v\/del-taco\/4b6e1f19f964a52006ac2ce3\/menu","mobileUrl":"https:\/\/foursquare.com\/v\/4b6e1f19f964a52006ac2ce3\/device_menu"},"allowMenuUrlEdit":true,"beenHere":{"lastCheckinExpiredAt":0},"specials":{"count":0,"items":[]},"referralId":"v-1483291040","venueChains":[{"id":"563bdac5498eeb86d4b61e72"}],"hasPerk":false},{"id":"4c2298f89085d13a1e9f86cc","name":"7-Eleven","contact":{"phone":"8182243573","formattedPhone":"(818) 224-3573","twitter":"7eleven","facebook":"204699022926308","facebookUsername":"7ElevenWoodlandHills18834","facebookName":"7-Eleven"},"location":{"address":"22808 Ventura Blvd","crossStreet":"at Fallbrook Ave.","lat":34.16545844768588,"lng":-118.62359099742842,"labeledLatLngs":[{"label":"display","lat":34.16545844768588,"lng":-118.62359099742842}],"postalCode":"91364","cc":"US","city":"Woodland Hills","state":"CA","country":"United States","formattedAddress":["22808 Ventura Blvd (at Fallbrook Ave.)","Woodland Hills, CA 91364","United States"]},"categories":[{"id":"4d954b0ea243a5684a65b473","name":"Convenience Store","pluralName":"Convenience Stores","shortName":"Convenience Store","icon":{"prefix":"https:\/\/ss3.4sqi.net\/img\/categories_v2\/shops\/conveniencestore_","suffix":".png"},"primary":true}],"verified":true,"stats":{"checkinsCount":691,"usersCount":233,"tipCount":3},"url":"http:\/\/www.7-eleven.com","allowMenuUrlEdit":true,"beenHere":{"lastCheckinExpiredAt":0},"specials":{"count":0,"items":[]},"storeId":"18834","referralId":"v-1483291040","venueChains":[{"id":"556f676fbd6a75a99038d8e9"}],"hasPerk":false},{"id":"4acf9e15f964a520fad420e3","name":"Bobby's Coffee Shop","contact":{"phone":"8182251324","formattedPhone":"(818) 225-1324"},"location":{"address":"22821 Ventura Blvd","lat":34.165999420775215,"lng":-118.62412959337234,"labeledLatLngs":[{"label":"display","lat":34.165999420775215,"lng":-118.62412959337234}],"postalCode":"91364","cc":"US","city":"Woodland Hills","state":"CA","country":"United States","formattedAddress":["22821 Ventura Blvd","Woodland Hills, CA 91364","United States"]},"categories":[{"id":"4bf58dd8d48988d1e0931735","name":"Coffee Shop","pluralName":"Coffee Shops","shortName":"Coffee Shop","icon":{"prefix":"https:\/\/ss3.4sqi.net\/img\/categories_v2\/food\/coffeeshop_","suffix":".png"},"primary":true}],"verified":false,"stats":{"checkinsCount":1446,"usersCount":614,"tipCount":18},"url":"http:\/\/bobbyscoffeeshopwoodlandhills.com","hasMenu":true,"delivery":{"id":"27846","url":"http:\/\/www.seamless.com\/food-delivery\/restaurant.27846.r?a=1026&utm_source=Foursquare&utm_medium=affiliate&utm_campaign=SeamlessOrderDeliveryLink","provider":{"name":"seamless"}},"menu":{"type":"Menu","label":"Menu","anchor":"View Menu","url":"https:\/\/foursquare.com\/v\/bobbys-coffee-shop\/4acf9e15f964a520fad420e3\/menu","mobileUrl":"https:\/\/foursquare.com\/v\/4acf9e15f964a520fad420e3\/device_menu"},"allowMenuUrlEdit":true,"beenHere":{"lastCheckinExpiredAt":0},"specials":{"count":0,"items":[]},"referralId":"v-1483291040","venueChains":[],"hasPerk":false},{"id":"4b5b6fa6f964a520eefd28e3","name":"Jim's Fallbrook Market","contact":{"phone":"8183475525","formattedPhone":"(818) 347-5525"},"location":{"address":"5947 Fallbrook Ave","crossStreet":"at Oxnard St","lat":34.17866,"lng":-118.623616,"labeledLatLngs":[{"label":"display","lat":34.17866,"lng":-118.623616}],"postalCode":"91367","cc":"US","city":"Woodland Hills","state":"CA","country":"United States","formattedAddress":["5947 Fallbrook Ave (at Oxnard St)","Woodland Hills, CA 91367","United States"]},"categories":[{"id":"4bf58dd8d48988d146941735","name":"Deli \/ Bodega","pluralName":"Delis \/ Bodegas","shortName":"Deli \/ Bodega","icon":{"prefix":"https:\/\/ss3.4sqi.net\/img\/categories_v2\/food\/deli_","suffix":".png"},"primary":true}],"verified":false,"stats":{"checkinsCount":697,"usersCount":262,"tipCount":15},"url":"http:\/\/www.jimsfallbrookmarket.com","allowMenuUrlEdit":true,"beenHere":{"lastCheckinExpiredAt":0},"specials":{"count":0,"items":[]},"referralId":"v-1483291040","venueChains":[],"hasPerk":false},{"id":"4bf0814521072d7f6b11208b","name":"Jack in the Box","contact":{"phone":"8182243460","formattedPhone":"(818) 224-3460","twitter":"jackbox","facebook":"46895347303","facebookName":"Jack in the Box"},"location":{"address":"22664 Ventura Blvd","lat":34.16667630371951,"lng":-118.62029403448105,"labeledLatLngs":[{"label":"display","lat":34.16667630371951,"lng":-118.62029403448105}],"postalCode":"91364","cc":"US","city":"Woodland Hills","state":"CA","country":"United States","formattedAddress":["22664 Ventura Blvd","Woodland Hills, CA 91364","United States"]},"categories":[{"id":"4bf58dd8d48988d16c941735","name":"Burger Joint","pluralName":"Burger Joints","shortName":"Burgers","icon":{"prefix":"https:\/\/ss3.4sqi.net\/img\/categories_v2\/food\/burger_","suffix":".png"},"primary":true}],"verified":true,"stats":{"checkinsCount":432,"usersCount":208,"tipCount":6},"url":"http:\/\/www.jackinthebox.com","hasMenu":true,"menu":{"type":"Menu","label":"Menu","anchor":"View Menu","url":"https:\/\/foursquare.com\/v\/jack-in-the-box\/4bf0814521072d7f6b11208b\/menu","mobileUrl":"https:\/\/foursquare.com\/v\/4bf0814521072d7f6b11208b\/device_menu"},"allowMenuUrlEdit":true,"beenHere":{"lastCheckinExpiredAt":0},"specials":{"count":0,"items":[]},"storeId":"343","referralId":"v-1483291040","venueChains":[{"id":"556e1846a7c82e6b72513d66"}],"hasPerk":false},{"id":"4ada206cf964a520c11e21e3","name":"DAN'S SUPER SUBS","contact":{"phone":"8182258880","formattedPhone":"(818) 225-8880","twitter":"DansSuperSubs","facebook":"255745753736","facebookName":"Dan's Super Subs"},"location":{"address":"22446 Ventura Blvd","crossStreet":"at Shoup Ave","lat":34.168193723043636,"lng":-118.61596387766087,"labeledLatLngs":[{"label":"display","lat":34.168193723043636,"lng":-118.61596387766087}],"postalCode":"91364","cc":"US","city":"Woodland Hills","state":"CA","country":"United States","formattedAddress":["22446 Ventura Blvd (at Shoup Ave)","Woodland Hills, CA 91364","United States"]},"categories":[{"id":"4bf58dd8d48988d1c5941735","name":"Sandwich Place","pluralName":"Sandwich Places","shortName":"Sandwiches","icon":{"prefix":"https:\/\/ss3.4sqi.net\/img\/categories_v2\/food\/deli_","suffix":".png"},"primary":true}],"verified":true,"stats":{"checkinsCount":2065,"usersCount":803,"tipCount":25},"url":"http:\/\/danssupersubs.com","hasMenu":true,"menu":{"type":"Menu","label":"Menu","anchor":"View Menu","url":"https:\/\/foursquare.com\/v\/dans-super-subs\/4ada206cf964a520c11e21e3\/menu","mobileUrl":"https:\/\/foursquare.com\/v\/4ada206cf964a520c11e21e3\/device_menu"},"allowMenuUrlEdit":true,"beenHere":{"lastCheckinExpiredAt":0},"specials":{"count":0,"items":[]},"venuePage":{"id":"72985937"},"referralId":"v-1483291040","venueChains":[],"hasPerk":false}]}}