{"meta":{"code":200,"requestId":"58693994dd57972f38396e8d"},"response":{"venues":[{"id":"5405e95d498ef5279cda69ed","name":"Starbucks","contact":{"phone":"8189513616","formattedPhone":"(818) 951-3616","twitter":"starbucks","facebook":"22092443056","facebookUsername":"Starbucks","facebookName":"Starbucks"},"location":{"address":"8241 Foothill Blvd.","lat":34.25992,"lng":-118.31306,"labeledLatLngs":[{"label":"display","lat":34.25992,"lng":-118.31306}],"postalCode":"91040","cc":"US","city":"Sunland","state":"CA","country":"United States","formattedAddress":["8241 Foothill Blvd.","Sunland, CA 91040","United States"]},"categories":[{"id":"4bf58dd8d48988d1e0931735","name":"Coffee Shop","pluralName":"Coffee Shops","shortName":"Coffee Shop","icon":{"prefix":"https:\/\/ss3.4sqi.net\/img\/categories_v2\/food\/coffeeshop_","suffix":".png"},"primary":true}],"verified":true,"stats":{"checkinsCount":632,"usersCount":117,"tipCount":2},"url":"http:\/\/www.starbucks.com","menu":{"type":"Menu","label":"Menu","anchor":"View Menu","url":"http:\/\/starbucks.com\/menu\/","mobileUrl":"http:\/\/starbucks.com\/menu\/","externalUrl":"http:\/\/starbucks.com\/menu\/"},"allowMenuUrlEdit":true,"beenHere":{"lastCheckinExpiredAt":0},"specials":{"count":0,"items":[]},"storeId":"6915","referralId":"v-1483291028","venueChains":[{"id":"556f676fbd6a75a99038d8ec"}],"hasPerk":false},{"id":"4c695d26c946e21eb6ebe98e","name":"Yum Yum Donuts","contact":{},"location":{"address":"8704 Foothill Blvd","crossStreet":"Sunland Blvd.","lat":34.25992152,"lng":-118.323405,"labeledLatLngs":[{"label":"display","lat":34.25992152,"lng":-118.323405}],"postalCode":"91040","cc":"US","city":"Sunland","state":"CA","country":"United States","formattedAddress":["8704 Foothill Blvd (Sunland Blvd.)","Sunland, CA 91040","United States"]},"categories":[{"id":"4bf58dd8d48988d148941735","name":"Donut Shop","pluralName":"Donut Shops","shortName":"Donuts","icon":{"prefix":"https:\/\/ss3.4sqi.net\/img\/categories_v2\/food\/donuts_","suffix":".png"},"primary":true}],"verified":false,"stats":{"checkinsCount":93,"usersCount":39,"tipCount":1},"allowMenuUrlEdit":true,"beenHere":{"lastCheckinExpiredAt":0},"specials":{"count":0,"items":[]},"referralId":"v-1483291028","venueChains":[],"hasPerk":false},{"id":"4c32fcea213c2d7fc832365d","name":"Jack in the Box","contact":{"phone":"8183521881","formattedPhone":"(818) 352-1881","twitter":"jackbox","facebook":"46895347303","facebookName":"Jack in the Box"},"location":{"address":"8405 Foothill Blvd","lat":34.25995982486348,"lng":-118.31604386127421,"labeledLatLngs":[{"label":"display","lat":34.25995982486348,"lng":-118.31604386127421}],"postalCode":"91040","cc":"US","city":"Sunland","state":"CA","country":"United States","formattedAddress":["8405 Foothill Blvd","Sunland, CA 91040","United States"]},"categories":[{"id":"4bf58dd8d48988d16c941735","name":"Burger Joint","pluralName":"Burger Joints","shortName":"Burgers","icon":{"prefix":"https:\/\/ss3.4sqi.net\/img\/categories_v2\/food\/burger_","suffix":".png"},"primary":true}],"verified":true,"stats":{"checkinsCount":757,"usersCount":269,"tipCount":5},"url":"http:\/\/www.jackinthebox.com","hasMenu":true,"menu":{"type":"Menu","label":"Menu","anchor":"View Menu","url":"https:\/\/foursquare.com\/v\/jack-in-the-box\/4c32fcea213c2d7fc832365d\/menu","mobileUrl":"https:\/\/foursquare.com\/v\/4c32fcea213c2d7fc832365d\/device_menu"},"allowMenuUrlEdit":true,"beenHere":{"lastCheckinExpiredAt":0},"specials":{"count":0,"items":[]},"storeId":"301","referralId":"v-1483291028","venueChains":[{"id":"556e1846a7c82e6b72513d66"}],"hasPerk":false},{"id":"56c90cb3cd1072488992bd06","name":"The Backdoor Bakery","contact":{},"location":{"address":"8349 Foothill Blvd","crossStreet":"Oro Vista","lat":34.259876639382696,"lng":-118.31519333503726,"labeledLatLngs":[{"label":"display","lat":34.259876639382696,"lng":-118.31519333503726}],"postalCode":"91040","cc":"US","city":"Sunland","state":"CA","country":"United States","formattedAddress":["8349 Foothill Blvd (Oro Vista)","Sunland, CA 91040","United States"]},"categories":[{"id":"4bf58dd8d48988d16a941735","name":"Bakery","pluralName":"Bakeries","shortName":"Bakery","icon":{"prefix":"https:\/\/ss3.4sqi.net\/img\/categories_v2\/food\/bakery_","suffix":".png"},"primary":true}],"verified":false,"stats":{"checkinsCount":49,"usersCount":26,"tipCount":1},"allowMenuUrlEdit":true,"beenHere":{"lastCheckinExpiredAt":0},"specials":{"count":0,"items":[]},"referralId":"v-1483291028","venueChains":[],"hasPerk":false},{"id":"4b5d675ff964a520fb5b29e3","name":"Joselito's West","contact":{"phone":"8189512275","formattedPhone":"(818) 951-2275","twitter":"joselitos"},"location":{"address":"7308 Foothill Blvd","crossStreet":"Hillhaven","lat":34.24986489389497,"lng":-118.29106897115707,"labeledLatLngs":[{"label":"display","lat":34.24986489389497,"lng":-118.29106897115707}],"postalCode":"91042","cc":"US","city":"Tujunga","state":"CA","country":"United States","formattedAddress":["7308 Foothill Blvd (Hillhaven)","Tujunga, CA 91042","United States"]},"categories":[{"id":"4bf58dd8d48988d1c1941735","name":"Mexican Restaurant","pluralName":"Mexican Restaurants","shortName":"Mexican","icon":{"prefix":"https:\/\/ss3.4sqi.net\/img\/categories_v2\/food\/mexican_","suffix":".png"},"primary":true}],"verified":true,"stats":{"checkinsCount":2305,"usersCount":543,"tipCount":25},"url":"http:\/\/www.Joselitos.com","hasMenu":true,"menu":{"type":"Menu","label":"Menu","anchor":"View Menu","url":"https:\/\/foursquare.com\/v\/joselitos-west\/4b5d675ff964a520fb5b29e3\/menu","mobileUrl":"https:\/\/foursquare.com\/v\/4b5d675ff964a520fb5b29e3\/device_menu"},"allowMenuUrlEdit":true,"beenHere":{"lastCheckinExpiredAt":0},"specials":{"count":0,"items":[]},"referralId":"v-1483291028","venueChains":[],"hasPerk":false},{"id":"4c340fb6a0ced13a82af176e","name":"McDonald's","contact":{"phone":"8183527456","formattedPhone":"(818) 352-7456"},"location":{"address":"7950 Foothill Blvd","crossStreet":"Leolang","lat":34.259320251603874,"lng":-118.30633878707886,"labeledLatLngs":[{"label":"display","lat":34.259320251603874,"lng":-118.30633878707886}],"postalCode":"91040","cc":"US","city":"Sunland","state":"CA","country":"United States","formattedAddress":["7950 Foothill Blvd (Leolang)","Sunland, CA 91040","United States"]},"categories":[{"id":"4bf58dd8d48988d16e941735","name":"Fast Food Restaurant","pluralName":"Fast Food Restaurants","shortName":"Fast Food","icon":{"prefix":"https:\/\/ss3.4sqi.net\/img\/categories_v2\/food\/fastfood_","suffix":".png"},"primary":true}],"verified":true,"stats":{"checkinsCount":592,"usersCount":222,"tipCount":5},"url":"http:\/\/mcdonalds.com","hasMenu":true,"menu":{"type":"Menu","label":"Menu","anchor":"View Menu","url":"https:\/\/foursquare.com\/v\/mcdonalds\/4c340fb6a0ced13a82af176e\/menu","mobileUrl":"https:\/\/foursquare.com\/v\/4c340fb6a0ced13a82af176e\/device_menu"},"allowMenuUrlEdit":true,"beenHere":{"lastCheckinExpiredAt":0},"specials":{"count":0,"items":[]},"referralId":"v-1483291028","venueChains":[{"id":"556f7a12bd6a75a9903bddb2"}],"hasPerk":false},{"id":"4b2ef9c4f964a520dde824e3","name":"Coco's Restaurant & Bakery","contact":{"phone":"8183535677","formattedPhone":"(818) 353-5677"},"location":{"address":"10521 Sunland Blvd # 7","lat":34.259988633333336,"lng":-118.324256,"labeledLatLngs":[{"label":"display","lat":34.259988633333336,"lng":-118.324256}],"postalCode":"91040","cc":"US","city":"Sunland","state":"CA","country":"United States","formattedAddress":["10521 Sunland Blvd # 7","Sunland, CA 91040","United States"]},"categories":[{"id":"4bf58dd8d48988d14e941735","name":"American Restaurant","pluralName":"American Restaurants","shortName":"American","icon":{"prefix":"https:\/\/ss3.4sqi.net\/img\/categories_v2\/food\/default_","suffix":".png"},"primary":true}],"verified":true,"stats":{"checkinsCount":864,"usersCount":323,"tipCount":10},"url":"http:\/\/www.cocosbakery.com","hasMenu":true,"menu":{"type":"Menu","label":"Menu","anchor":"View Menu","url":"https:\/\/foursquare.com\/v\/cocos-restaurant--bakery\/4b2ef9c4f964a520dde824e3\/menu","mobileUrl":"https:\/\/foursquare.com\/v\/4b2ef9c4f964a520dde824e3\/device_menu"},"allowMenuUrlEdit":true,"beenHere":{"lastCheckinExpiredAt":0},"specials":{"count":0,"items":[]},"storeId":"853","referralId":"v-1483291028","venueChains":[],"hasPerk":false},{"id":"4bb40d4b87aa952174dfacd1","name":"Original Tommy's Hamburgers","contact":{"phone":"8189518094","formattedPhone":"(818) 951-8094","twitter":"originaltommys","facebook":"9379349474","facebookUsername":"OriginalTommys","facebookName":"Original Tommy's"},"location":{"address":"7606 Foothill Blvd","lat":34.254773,"lng":-118.29842,"labeledLatLngs":[{"label":"display","lat":34.254773,"lng":-118.29842}],"postalCode":"91042","cc":"US","city":"Tujunga","state":"CA","country":"United States","formattedAddress":["7606 Foothill Blvd","Tujunga, CA 91042","United States"]},"categories":[{"id":"4bf58dd8d48988d16c941735","name":"Burger Joint","pluralName":"Burger Joints","shortName":"Burgers","icon":{"prefix":"https:\/\/ss3.4sqi.net\/img\/categories_v2\/food\/burger_","suffix":".png"},"primary":true}],"verified":true,"stats":{"checkinsCount":604,"usersCount":257,"tipCount":9},"url":"http:\/\/originaltommys.com","allowMenuUrlEdit":true,"beenHere":{"lastCheckinExpiredAt":0},"specials":{"count":0,"items":[]},"referralId":"v-1483291028","venueChains":[{"id":"5569f39da7c8896abe7c6624"}],"hasPerk":false},{"id":"55d7dc1f498e62d13db1ec11","name":"Caruso's","contact":{},"location":{"address":"10504 Mount Gleason Ave","crossStreet":"SummitroseSt","lat":34.25992510298942,"lng":-118.30261760736336,"labeledLatLngs":[{"label":"display","lat":34.25992510298942,"lng":-118.30261760736336}],"postalCode":"91042","cc":"US","city":"Tujunga","state":"CA","country":"United States","formattedAddress":["10504 Mount Gleason Ave (SummitroseSt)","Tujunga, CA 91042","United States"]},"categories":[{"id":"4bf58dd8d48988d110941735","name":"Italian Restaurant","pluralName":"Italian Restaurants","shortName":"Italian","icon":{"prefix":"https:\/\/ss3.4sqi.net\/img\/categories_v2\/food\/italian_","suffix":".png"},"primary":true}],"verified":false,"stats":{"checkinsCount":62,"usersCount":22,"tipCount":0},"allowMenuUrlEdit":true,"beenHere":{"lastCheckinExpiredAt":0},"specials":{"count":0,"items":[]},"referralId":"v-1483291028","venueChains":[],"hasPerk":false},{"id":"55441896498eede8a24a8c7d","name":"Shawarma House","contact":{},"location":{"address":"8515 Foothill Blvd","lat":34.260037391855974,"lng":-118.31865249567414,"labeledLatLngs":[{"label":"display","lat":34.260037391855974,"lng":-118.31865249567414}],"cc":"US","city":"Sunland-Tujunga","state":"CA","country":"United States","formattedAddress":["8515 Foothill Blvd","Sunland-Tujunga, CA","United States"]},"categories":[{"id":"4bf58dd8d48988d1c0941735","name":"Mediterranean Restaurant","pluralName":"Mediterranean Restaurants","shortName":"Mediterranean","icon":{"prefix":"https:\/\/ss3.4sqi.net\/img\/categories_v2\/food\/mediterranean_","suffix":".png"},"primary":true}],"verified":false,"stats":{"checkinsCount":43,"usersCount":19,"tipCount":2},"delivery":{"id":"40845","url":"http:\/\/www.seamless.com\/food-delivery\/restaurant.40845.r?a=1026&utm_source=Foursquare&utm_medium=affiliate&utm_campaign=SeamlessOrderDeliveryLink","provider":{"name":"seamless"}},"allowMenuUrlEdit":true,"beenHere":{"lastCheckinExpiredAt":0},"specials":{"count":0,"items":[]},"referralId":"v-1483291028","venueChains":[],"hasPerk":false},{"id":"4d6df6332e6ea09382121750","name":"Super Char Burger","contact":{"phone":"8183531358","formattedPhone":"(818) 353-1358"},"location":{"address":"7700 Foothill Blvd","lat":34.256456124305345,"lng":-118.30022565906711,"labeledLatLngs":[{"label":"display","lat":34.256456124305345,"lng":-118.30022565906711}],"postalCode":"91042","cc":"US","city":"Tujunga","state":"CA","country":"United States","formattedAddress":["7700 Foothill Blvd","Tujunga, CA 91042","United States"]},"categories":[{"id":"4bf58dd8d48988d16c941735","name":"Burger Joint","pluralName":"Burger Joints","shortName":"Burgers","icon":{"prefix":"https:\/\/ss3.4sqi.net\/img\/categories_v2\/food\/burger_","suffix":".png"},"primary":true}],"verified":false,"stats":{"checkinsCount":242,"usersCount":67,"tipCount":4},"allowMenuUrlEdit":true,"beenHere":{"lastCheckinExpiredAt":0},"specials":{"count":0,"items":[]},"referralId":"v-1483291028","venueChains":[],"hasPerk":false},{"id":"4ba918d1f964a520140b3ae3","name":"Sweet Cherries","contact":{"phone":"8183530465","formattedPhone":"(818) 353-0465"},"location":{"address":"8236 Foothill Blvd","lat":34.25950615,"lng":-118.312605,"labeledLatLngs":[{"label":"display","lat":34.25950615,"lng":-118.312605}],"postalCode":"91040","cc":"US","city":"Sunland","state":"CA","country":"United States","formattedAddress":["8236 Foothill Blvd","Sunland, CA 91040","United States"]},"categories":[{"id":"4bf58dd8d48988d147941735","name":"Diner","pluralName":"Diners","shortName":"Diner","icon":{"prefix":"https:\/\/ss3.4sqi.net\/img\/categories_v2\/food\/diner_","suffix":".png"},"primary":true}],"verified":false,"stats":{"checkinsCount":390,"usersCount":133,"tipCount":4},"allowMenuUrlEdit":true,"beenHere":{"lastCheckinExpiredAt":0},"specials":{"count":0,"items":[]},"referralId":"v-1483291028","venueChains":[],"hasPerk":false},{"id":"4c7ff309d92ea09396683372","name":"SUBWAY","contact":{"twitter":"subway"},"location":{"address":"7802 Foothill Blvd.","lat":34.259071464809736,"lng":-118.3028687885246,"labeledLatLngs":[{"label":"display","lat":34.259071464809736,"lng":-118.3028687885246}],"postalCode":"91042","cc":"US","city":"Sunland-Tujunga","state":"CA","country":"United States","formattedAddress":["7802 Foothill Blvd.","Sunland-Tujunga, CA 91042","United States"]},"categories":[{"id":"4bf58dd8d48988d1c5941735","name":"Sandwich Place","pluralName":"Sandwich Places","shortName":"Sandwiches","icon":{"prefix":"https:\/\/ss3.4sqi.net\/img\/categories_v2\/food\/deli_","suffix":".png"},"primary":true}],"verified":false,"stats":{"checkinsCount":195,"usersCount":64,"tipCount":0},"url":"http:\/\/subway.com","hasMenu":true,"menu":{"type":"Menu","label":"Menu","anchor":"View Menu","url":"https:\/\/foursquare.com\/v\/subway\/4c7ff309d92ea09396683372\/menu","mobileUrl":"https:\/\/foursquare.com\/v\/4c7ff309d92ea09396683372\/device_menu"},"allowMenuUrlEdit":true,"beenHere":{"lastCheckinExpiredAt":0},"specials":{"count":0,"items":[]},"referralId":"v-1483291028","venueChains":[{"id":"556e0bfaa7c82e6b724f552f"}],"hasPerk":false},{"id":"4bff15214e5d0f473dab7d1f","name":"Panda Express","contact":{"phone":"8183528645","formattedPhone":"(818) 352-8645","twitter":"pandaexpress"},"location":{"address":"8231 Foothill Blvd","crossStreet":"btw Oro Vista & McVine","lat":34.25980296732236,"lng":-118.31251323223114,"labeledLatLngs":[{"label":"display","lat":34.25980296732236,"lng":-118.31251323223114}],"postalCode":"91040","cc":"US","city":"Sunland","state":"CA","country":"United States","formattedAddress":["8231 Foothill Blvd (btw Oro Vista & McVine)","Sunland, CA 91040","United States"]},"categories":[{"id":"4bf58dd8d48988d145941735","name":"Chinese Restaurant","pluralName":"Chinese Restaurants","shortName":"Chinese","icon":{"prefix":"https:\/\/ss3.4sqi.net\/img\/categories_v2\/food\/asian_","suffix":".png"},"primary":true}],"verified":false,"stats":{"checkinsCount":445,"usersCount":177,"tipCount":2},"url":"http:\/\/www.pandaexpress.com","hasMenu":true,"menu":{"type":"Menu","label":"Menu","anchor":"View Menu","url":"https:\/\/foursquare.com\/v\/panda-express\/4bff15214e5d0f473dab7d1f\/menu","mobileUrl":"https:\/\/foursquare.com\/v\/4bff15214e5d0f473dab7d1f\/device_menu"},"allowMenuUrlEdit":true,"beenHere":{"lastCheckinExpiredAt":0},"specials":{"count":0,"items":[]},"referralId":"v-1483291028","venueChains":[{"id":"556e5676bd6a82902e28a729"}],"hasPerk":false},{"id":"50e50668e4b08efe128bc54b","name":"Pe√±a's Tacos","contact":{"phone":"8184338634","formattedPhone":"(818) 433-8634"},"location":{"address":"8319 Foothill Blvd","lat":34.25997822331161,"lng":-118.3140916403495,"labeledLatLngs":[{"label":"display","lat":34.25997822331161,"lng":-118.3140916403495}],"postalCode":"91040","cc":"US","city":"Sunland","state":"CA","country":"United States","formattedAddress":["8319 Foothill Blvd","Sunland, CA 91040","United States"]},"categories":[{"id":"4bf58dd8d48988d1c1941735","name":"Mexican Restaurant","pluralName":"Mexican Restaurants","shortName":"Mexican","icon":{"prefix":"https:\/\/ss3.4sqi.net\/img\/categories_v2\/food\/mexican_","suffix":".png"},"primary":true}],"verified":false,"stats":{"checkinsCount":314,"usersCount":101,"tipCount":10},"allowMenuUrlEdit":true,"beenHere":{"lastCheckinExpiredAt":0},"specials":{"count":0,"items":[]},"referralId":"v-1483291028","venueChains":[],"hasPerk":false},{"id":"4b81eeadf964a52069c430e3","name":"Sake Sake","contact":{"phone":"8183539000","formattedPhone":"(818) 353-9000"},"location":{"address":"8343 Foothill Blvd","lat":34.260169,"lng":-118.314949,"labeledLatLngs":[{"label":"display","lat":34.260169,"lng":-118.314949}],"postalCode":"91040","cc":"US","city":"Sunland","state":"CA","country":"United States","formattedAddress":["8343 Foothill Blvd","Sunland, CA 91040","United States"]},"categories":[{"id":"4bf58dd8d48988d1d2941735","name":"Sushi Restaurant","pluralName":"Sushi Restaurants","shortName":"Sushi","icon":{"prefix":"https:\/\/ss3.4sqi.net\/img\/categories_v2\/food\/sushi_","suffix":".png"},"primary":true}],"verified":false,"stats":{"checkinsCount":578,"usersCount":161,"tipCount":9},"url":"http:\/\/sakesakesushi.com","hasMenu":true,"menu":{"type":"Menu","label":"Menu","anchor":"View Menu","url":"https:\/\/foursquare.com\/v\/sake-sake\/4b81eeadf964a52069c430e3\/menu","mobileUrl":"https:\/\/foursquare.com\/v\/4b81eeadf964a52069c430e3\/device_menu"},"allowMenuUrlEdit":true,"beenHere":{"lastCheckinExpiredAt":0},"specials":{"count":0,"items":[]},"referralId":"v-1483291028","venueChains":[],"hasPerk":false},{"id":"54fcaff4498e86195001e797","name":"Crazy Hot Wings","contact":{},"location":{"lat":34.248022,"lng":-118.286109,"labeledLatLngs":[{"label":"display","lat":34.248022,"lng":-118.286109}],"cc":"US","city":"Los Angeles","state":"CA","country":"United States","formattedAddress":["Los Angeles, CA","United States"]},"categories":[{"id":"4bf58dd8d48988d14c941735","name":"Wings Joint","pluralName":"Wings Joints","shortName":"Wings","icon":{"prefix":"https:\/\/ss3.4sqi.net\/img\/categories_v2\/food\/wings_","suffix":".png"},"primary":true}],"verified":false,"stats":{"checkinsCount":17,"usersCount":11,"tipCount":1},"allowMenuUrlEdit":true,"beenHere":{"lastCheckinExpiredAt":0},"specials":{"count":0,"items":[]},"referralId":"v-1483291028","venueChains":[],"hasPerk":false}]}}