{"meta":{"code":200,"requestId":"58693995f594df18aa73f238"},"response":{"venues":[{"id":"4bcb71373740b7133b876265","name":"7-Eleven","contact":{"phone":"8188966315","formattedPhone":"(818) 896-6315","twitter":"7eleven","facebook":"106560702781688","facebookUsername":"7ElevenLakeViewTerrace13847","facebookName":"7-Eleven"},"location":{"address":"11348 Sunburst St","lat":34.27776786010929,"lng":-118.3785522362075,"labeledLatLngs":[{"label":"display","lat":34.27776786010929,"lng":-118.3785522362075}],"postalCode":"91342","cc":"US","city":"Lake View Terrace","state":"CA","country":"United States","formattedAddress":["11348 Sunburst St","Lake View Terrace, CA 91342","United States"]},"categories":[{"id":"4d954b0ea243a5684a65b473","name":"Convenience Store","pluralName":"Convenience Stores","shortName":"Convenience Store","icon":{"prefix":"https:\/\/ss3.4sqi.net\/img\/categories_v2\/shops\/conveniencestore_","suffix":".png"},"primary":true}],"verified":true,"stats":{"checkinsCount":703,"usersCount":176,"tipCount":7},"url":"http:\/\/www.7-eleven.com","allowMenuUrlEdit":true,"beenHere":{"lastCheckinExpiredAt":0},"specials":{"count":0,"items":[]},"storeId":"13847","referralId":"v-1483291029","venueChains":[{"id":"556f676fbd6a75a99038d8e9"}],"hasPerk":false},{"id":"4b47f225f964a520c34426e3","name":"Mcdonald's","contact":{},"location":{"address":"12950 Foothill Blvd","lat":34.294919,"lng":-118.417288,"labeledLatLngs":[{"label":"display","lat":34.294919,"lng":-118.417288}],"postalCode":"91342","cc":"US","city":"Sylmar","state":"CA","country":"United States","formattedAddress":["12950 Foothill Blvd","Sylmar, CA 91342","United States"]},"categories":[{"id":"4bf58dd8d48988d16e941735","name":"Fast Food Restaurant","pluralName":"Fast Food Restaurants","shortName":"Fast Food","icon":{"prefix":"https:\/\/ss3.4sqi.net\/img\/categories_v2\/food\/fastfood_","suffix":".png"},"primary":true}],"verified":true,"stats":{"checkinsCount":821,"usersCount":326,"tipCount":5},"url":"http:\/\/mcdonalds.com","allowMenuUrlEdit":true,"beenHere":{"lastCheckinExpiredAt":0},"specials":{"count":0,"items":[]},"referralId":"v-1483291029","venueChains":[{"id":"556f7a12bd6a75a9903bddb2"}],"hasPerk":false},{"id":"4c3c04814bc9a593752bd271","name":"McDonald's","contact":{"phone":"8188348636","formattedPhone":"(818) 834-8636"},"location":{"address":"11240 Glenoaks Blvd","crossStreet":"btwn Van Nuys Blvd & Mercer St","lat":34.27450645741538,"lng":-118.41215193271637,"labeledLatLngs":[{"label":"display","lat":34.27450645741538,"lng":-118.41215193271637}],"postalCode":"91331","cc":"US","city":"Pacoima","state":"CA","country":"United States","formattedAddress":["11240 Glenoaks Blvd (btwn Van Nuys Blvd & Mercer St)","Pacoima, CA 91331","United States"]},"categories":[{"id":"4bf58dd8d48988d16e941735","name":"Fast Food Restaurant","pluralName":"Fast Food Restaurants","shortName":"Fast Food","icon":{"prefix":"https:\/\/ss3.4sqi.net\/img\/categories_v2\/food\/fastfood_","suffix":".png"},"primary":true}],"verified":true,"stats":{"checkinsCount":355,"usersCount":163,"tipCount":4},"url":"http:\/\/mcdonalds.com","hasMenu":true,"menu":{"type":"Menu","label":"Menu","anchor":"View Menu","url":"https:\/\/foursquare.com\/v\/mcdonalds\/4c3c04814bc9a593752bd271\/menu","mobileUrl":"https:\/\/foursquare.com\/v\/4c3c04814bc9a593752bd271\/device_menu"},"allowMenuUrlEdit":true,"beenHere":{"lastCheckinExpiredAt":0},"specials":{"count":0,"items":[]},"referralId":"v-1483291029","venueChains":[{"id":"556f7a12bd6a75a9903bddb2"}],"hasPerk":false},{"id":"4c9cf65f03133704e6465ad5","name":"Mend","contact":{"phone":"8188960246","formattedPhone":"(818) 896-0246"},"location":{"address":"10641 San Fernando Rd","crossStreet":"Pierce St.","lat":34.26302177614303,"lng":-118.41957053635123,"labeledLatLngs":[{"label":"display","lat":34.26302177614303,"lng":-118.41957053635123}],"postalCode":"91331","cc":"US","city":"Pacoima","state":"CA","country":"United States","formattedAddress":["10641 San Fernando Rd (Pierce St.)","Pacoima, CA 91331","United States"]},"categories":[{"id":"4bf58dd8d48988d1c4941735","name":"Restaurant","pluralName":"Restaurants","shortName":"Restaurant","icon":{"prefix":"https:\/\/ss3.4sqi.net\/img\/categories_v2\/food\/default_","suffix":".png"},"primary":true}],"verified":false,"stats":{"checkinsCount":307,"usersCount":138,"tipCount":3},"allowMenuUrlEdit":true,"beenHere":{"lastCheckinExpiredAt":0},"specials":{"count":0,"items":[]},"referralId":"v-1483291029","venueChains":[],"hasPerk":false},{"id":"4b897838f964a520413932e3","name":"El Pollo Loco","contact":{"phone":"8188978968","formattedPhone":"(818) 897-8968","twitter":"elpolloloco"},"location":{"address":"9800 N Laurel Canyon Blvd","lat":34.24820431948506,"lng":-118.42058360375789,"labeledLatLngs":[{"label":"display","lat":34.24820431948506,"lng":-118.42058360375789}],"postalCode":"91331","cc":"US","city":"Pacoima","state":"CA","country":"United States","formattedAddress":["9800 N Laurel Canyon Blvd","Pacoima, CA 91331","United States"]},"categories":[{"id":"4bf58dd8d48988d16e941735","name":"Fast Food Restaurant","pluralName":"Fast Food Restaurants","shortName":"Fast Food","icon":{"prefix":"https:\/\/ss3.4sqi.net\/img\/categories_v2\/food\/fastfood_","suffix":".png"},"primary":true}],"verified":true,"stats":{"checkinsCount":735,"usersCount":179,"tipCount":4},"url":"http:\/\/www.elpolloloco.com","menu":{"type":"Menu","label":"Menu","anchor":"View Menu","url":"http:\/\/www.elpolloloco.com\/our-food\/","mobileUrl":"http:\/\/www.elpolloloco.com\/our-food\/","externalUrl":"http:\/\/www.elpolloloco.com\/our-food\/"},"allowMenuUrlEdit":true,"beenHere":{"lastCheckinExpiredAt":0},"specials":{"count":0,"items":[]},"storeId":"5994","referralId":"v-1483291029","venueChains":[{"id":"556f41e9bd6a007c7738720f"}],"hasPerk":false},{"id":"4b70d7e5f964a52039312de3","name":"El Milagro Bakery","contact":{"phone":"8188977414","formattedPhone":"(818) 897-7414"},"location":{"address":"12040 Foothill Blvd","crossStreet":"at Pierce St","lat":34.277092,"lng":-118.398708,"labeledLatLngs":[{"label":"display","lat":34.277092,"lng":-118.398708}],"postalCode":"91342","cc":"US","city":"Lake View Terrace","state":"CA","country":"United States","formattedAddress":["12040 Foothill Blvd (at Pierce St)","Lake View Terrace, CA 91342","United States"]},"categories":[{"id":"4bf58dd8d48988d16a941735","name":"Bakery","pluralName":"Bakeries","shortName":"Bakery","icon":{"prefix":"https:\/\/ss3.4sqi.net\/img\/categories_v2\/food\/bakery_","suffix":".png"},"primary":true}],"verified":false,"stats":{"checkinsCount":132,"usersCount":55,"tipCount":3},"allowMenuUrlEdit":true,"beenHere":{"lastCheckinExpiredAt":0},"specials":{"count":0,"items":[]},"referralId":"v-1483291029","venueChains":[],"hasPerk":false},{"id":"4bc0d465abf495217af6bf93","name":"Taco Bell","contact":{"phone":"8188980875","formattedPhone":"(818) 898-0875"},"location":{"address":"12910 Foothill Blvd","lat":34.293873443893,"lng":-118.41625036510722,"labeledLatLngs":[{"label":"display","lat":34.293873443893,"lng":-118.41625036510722}],"postalCode":"91342","cc":"US","city":"Sylmar","state":"CA","country":"United States","formattedAddress":["12910 Foothill Blvd","Sylmar, CA 91342","United States"]},"categories":[{"id":"4bf58dd8d48988d16e941735","name":"Fast Food Restaurant","pluralName":"Fast Food Restaurants","shortName":"Fast Food","icon":{"prefix":"https:\/\/ss3.4sqi.net\/img\/categories_v2\/food\/fastfood_","suffix":".png"},"primary":true}],"verified":true,"stats":{"checkinsCount":374,"usersCount":180,"tipCount":2},"url":"http:\/\/www.tacobell.com","hasMenu":true,"menu":{"type":"Menu","label":"Menu","anchor":"View Menu","url":"https:\/\/foursquare.com\/v\/taco-bell\/4bc0d465abf495217af6bf93\/menu","mobileUrl":"https:\/\/foursquare.com\/v\/4bc0d465abf495217af6bf93\/device_menu"},"allowMenuUrlEdit":true,"beenHere":{"lastCheckinExpiredAt":0},"specials":{"count":0,"items":[]},"storeId":"296884","referralId":"v-1483291029","venueChains":[{"id":"556f46f6bd6a007c77390fac"}],"hasPerk":false},{"id":"4b71ca8df964a5209a5c2de3","name":"Panda Express","contact":{"phone":"8188967021","formattedPhone":"(818) 896-7021"},"location":{"address":"11990 Foothill Blvd","lat":34.27616121094478,"lng":-118.39725224124196,"labeledLatLngs":[{"label":"display","lat":34.27616121094478,"lng":-118.39725224124196}],"postalCode":"91342","cc":"US","city":"Sylmar","state":"CA","country":"United States","formattedAddress":["11990 Foothill Blvd","Sylmar, CA 91342","United States"]},"categories":[{"id":"4bf58dd8d48988d145941735","name":"Chinese Restaurant","pluralName":"Chinese Restaurants","shortName":"Chinese","icon":{"prefix":"https:\/\/ss3.4sqi.net\/img\/categories_v2\/food\/asian_","suffix":".png"},"primary":true}],"verified":false,"stats":{"checkinsCount":251,"usersCount":148,"tipCount":1},"url":"http:\/\/www.pandaexpress.com\/","hasMenu":true,"menu":{"type":"Menu","label":"Menu","anchor":"View Menu","url":"https:\/\/foursquare.com\/v\/panda-express\/4b71ca8df964a5209a5c2de3\/menu","mobileUrl":"https:\/\/foursquare.com\/v\/4b71ca8df964a5209a5c2de3\/device_menu"},"allowMenuUrlEdit":true,"beenHere":{"lastCheckinExpiredAt":0},"specials":{"count":0,"items":[]},"referralId":"v-1483291029","venueChains":[{"id":"556e5676bd6a82902e28a729"}],"hasPerk":false},{"id":"4c48a5b51ddec928a147a132","name":"El Huarache veloz","contact":{},"location":{"address":"11661 Glenoaks Blvd","crossStreet":"Paxton","lat":34.28141307,"lng":-118.420769,"labeledLatLngs":[{"label":"display","lat":34.28141307,"lng":-118.420769}],"postalCode":"91331","cc":"US","city":"Pacoima","state":"CA","country":"United States","formattedAddress":["11661 Glenoaks Blvd (Paxton)","Pacoima, CA 91331","United States"]},"categories":[{"id":"4bf58dd8d48988d1c1941735","name":"Mexican Restaurant","pluralName":"Mexican Restaurants","shortName":"Mexican","icon":{"prefix":"https:\/\/ss3.4sqi.net\/img\/categories_v2\/food\/mexican_","suffix":".png"},"primary":true}],"verified":false,"stats":{"checkinsCount":145,"usersCount":82,"tipCount":6},"allowMenuUrlEdit":true,"beenHere":{"lastCheckinExpiredAt":0},"specials":{"count":0,"items":[]},"referralId":"v-1483291029","venueChains":[],"hasPerk":false},{"id":"4fa41eeae4b0548305e91160","name":"key burger","contact":{},"location":{"lat":34.27004847467872,"lng":-118.40715093230047,"labeledLatLngs":[{"label":"display","lat":34.27004847467872,"lng":-118.40715093230047}],"postalCode":"91331","cc":"US","city":"Pacoima","state":"CA","country":"United States","formattedAddress":["Pacoima, CA 91331","United States"]},"categories":[{"id":"4bf58dd8d48988d16c941735","name":"Burger Joint","pluralName":"Burger Joints","shortName":"Burgers","icon":{"prefix":"https:\/\/ss3.4sqi.net\/img\/categories_v2\/food\/burger_","suffix":".png"},"primary":true}],"verified":false,"stats":{"checkinsCount":24,"usersCount":9,"tipCount":0},"allowMenuUrlEdit":true,"beenHere":{"lastCheckinExpiredAt":0},"specials":{"count":0,"items":[]},"referralId":"v-1483291029","venueChains":[],"hasPerk":false},{"id":"4b8ae228f964a520238732e3","name":"Rise N Shine Caf√©","contact":{"phone":"8183525755","formattedPhone":"(818) 352-5755"},"location":{"address":"9685 Sunland Blvd","lat":34.2473,"lng":-118.35712,"labeledLatLngs":[{"label":"display","lat":34.2473,"lng":-118.35712}],"postalCode":"91040","cc":"US","city":"Shadow Hills","state":"CA","country":"United States","formattedAddress":["9685 Sunland Blvd","Shadow Hills, CA 91040","United States"]},"categories":[{"id":"4bf58dd8d48988d143941735","name":"Breakfast Spot","pluralName":"Breakfast Spots","shortName":"Breakfast","icon":{"prefix":"https:\/\/ss3.4sqi.net\/img\/categories_v2\/food\/breakfast_","suffix":".png"},"primary":true}],"verified":false,"stats":{"checkinsCount":456,"usersCount":208,"tipCount":6},"url":"http:\/\/www.risenshinecafe.com\/","hasMenu":true,"menu":{"type":"Menu","label":"Menu","anchor":"View Menu","url":"https:\/\/foursquare.com\/v\/rise-n-shine-caf%C3%A9\/4b8ae228f964a520238732e3\/menu","mobileUrl":"https:\/\/foursquare.com\/v\/4b8ae228f964a520238732e3\/device_menu"},"allowMenuUrlEdit":true,"beenHere":{"lastCheckinExpiredAt":0},"specials":{"count":0,"items":[]},"referralId":"v-1483291029","venueChains":[],"hasPerk":false},{"id":"4bfec303c30a2d7f85f60f1d","name":"Taco Bell","contact":{"phone":"8188904711","formattedPhone":"(818) 890-4711"},"location":{"address":"12786 Van Nuys Blvd","lat":34.273654,"lng":-118.411101,"labeledLatLngs":[{"label":"display","lat":34.273654,"lng":-118.411101}],"postalCode":"91331","cc":"US","city":"Pacoima","state":"CA","country":"United States","formattedAddress":["12786 Van Nuys Blvd","Pacoima, CA 91331","United States"]},"categories":[{"id":"4bf58dd8d48988d16e941735","name":"Fast Food Restaurant","pluralName":"Fast Food Restaurants","shortName":"Fast Food","icon":{"prefix":"https:\/\/ss3.4sqi.net\/img\/categories_v2\/food\/fastfood_","suffix":".png"},"primary":true}],"verified":true,"stats":{"checkinsCount":149,"usersCount":81,"tipCount":1},"url":"http:\/\/www.tacobell.com","hasMenu":true,"menu":{"type":"Menu","label":"Menu","anchor":"View Menu","url":"https:\/\/foursquare.com\/v\/taco-bell\/4bfec303c30a2d7f85f60f1d\/menu","mobileUrl":"https:\/\/foursquare.com\/v\/4bfec303c30a2d7f85f60f1d\/device_menu"},"allowMenuUrlEdit":true,"beenHere":{"lastCheckinExpiredAt":0},"specials":{"count":0,"items":[]},"storeId":"295520","referralId":"v-1483291029","venueChains":[{"id":"556f46f6bd6a007c77390fac"}],"hasPerk":false},{"id":"4dd1c5441838a751964c57ee","name":"Little Caesars Pizza","contact":{"phone":"8188966546","formattedPhone":"(818) 896-6546","twitter":"littlecaesars","facebook":"160513490833","facebookUsername":"LittleCaesars","facebookName":"Little Caesars"},"location":{"address":"12731 Van Nuys Blvd","lat":34.274853,"lng":-118.41089996666666,"labeledLatLngs":[{"label":"display","lat":34.274853,"lng":-118.41089996666666}],"postalCode":"91331","cc":"US","city":"Pacoima","state":"CA","country":"United States","formattedAddress":["12731 Van Nuys Blvd","Pacoima, CA 91331","United States"]},"categories":[{"id":"4bf58dd8d48988d1ca941735","name":"Pizza Place","pluralName":"Pizza Places","shortName":"Pizza","icon":{"prefix":"https:\/\/ss3.4sqi.net\/img\/categories_v2\/food\/pizza_","suffix":".png"},"primary":true}],"verified":true,"stats":{"checkinsCount":66,"usersCount":40,"tipCount":1},"url":"http:\/\/www.littlecaesars.com","hasMenu":true,"menu":{"type":"Menu","label":"Menu","anchor":"View Menu","url":"https:\/\/foursquare.com\/v\/little-caesars-pizza\/4dd1c5441838a751964c57ee\/menu","mobileUrl":"https:\/\/foursquare.com\/v\/4dd1c5441838a751964c57ee\/device_menu"},"allowMenuUrlEdit":true,"beenHere":{"lastCheckinExpiredAt":0},"specials":{"count":0,"items":[]},"storeId":"15920","referralId":"v-1483291029","venueChains":[{"id":"556e3827bd6a82902e253a7a"}],"hasPerk":false},{"id":"4d41f023aed776eb7d3f6997","name":"Domino's Pizza","contact":{"phone":"8186860303","formattedPhone":"(818) 686-0303","twitter":"dominos","facebook":"6657899956","facebookUsername":"Dominos","facebookName":"Domino's Pizza"},"location":{"address":"12040 Foothill Blvd","lat":34.27747228360773,"lng":-118.39880412082069,"labeledLatLngs":[{"label":"display","lat":34.27747228360773,"lng":-118.39880412082069}],"postalCode":"91342","cc":"US","city":"Lake View Ter","state":"CA","country":"United States","formattedAddress":["12040 Foothill Blvd","Lake View Ter, CA 91342","United States"]},"categories":[{"id":"4bf58dd8d48988d1ca941735","name":"Pizza Place","pluralName":"Pizza Places","shortName":"Pizza","icon":{"prefix":"https:\/\/ss3.4sqi.net\/img\/categories_v2\/food\/pizza_","suffix":".png"},"primary":true}],"verified":true,"stats":{"checkinsCount":246,"usersCount":22,"tipCount":0},"url":"http:\/\/www.dominos.com","hasMenu":true,"menu":{"type":"Menu","label":"Menu","anchor":"View Menu","url":"https:\/\/foursquare.com\/v\/dominos-pizza\/4d41f023aed776eb7d3f6997\/menu","mobileUrl":"https:\/\/foursquare.com\/v\/4d41f023aed776eb7d3f6997\/device_menu"},"allowMenuUrlEdit":true,"beenHere":{"lastCheckinExpiredAt":0},"specials":{"count":0,"items":[]},"storeId":"","referralId":"v-1483291029","venueChains":[{"id":"556e40c7bd6a82902e2671cd"}],"hasPerk":false},{"id":"4b4e5922f964a52057ea26e3","name":"Bobos Hamburgers","contact":{"phone":"8188902603","formattedPhone":"(818) 890-2603","twitter":"lil_bobo"},"location":{"address":"13433 Van Nuys Blvd","crossStreet":"Telfair Ave.","lat":34.26356539478267,"lng":-118.42592239379883,"labeledLatLngs":[{"label":"display","lat":34.26356539478267,"lng":-118.42592239379883}],"postalCode":"91331","cc":"US","city":"Pacoima","state":"CA","country":"United States","formattedAddress":["13433 Van Nuys Blvd (Telfair Ave.)","Pacoima, CA 91331","United States"]},"categories":[{"id":"4bf58dd8d48988d16c941735","name":"Burger Joint","pluralName":"Burger Joints","shortName":"Burgers","icon":{"prefix":"https:\/\/ss3.4sqi.net\/img\/categories_v2\/food\/burger_","suffix":".png"},"primary":true}],"verified":true,"stats":{"checkinsCount":282,"usersCount":129,"tipCount":4},"url":"http:\/\/bobos.com\/","allowMenuUrlEdit":true,"beenHere":{"lastCheckinExpiredAt":0},"specials":{"count":0,"items":[]},"referralId":"v-1483291029","venueChains":[],"hasPerk":false},{"id":"4bef1b7996edc9b673514af2","name":"El Pollo Loco","contact":{"phone":"8183652840","formattedPhone":"(818) 365-2840","twitter":"elpolloloco"},"location":{"address":"12930 Foothill Blvd","lat":34.29466930006949,"lng":-118.41679664842674,"labeledLatLngs":[{"label":"display","lat":34.29466930006949,"lng":-118.41679664842674}],"postalCode":"91342","cc":"US","city":"San Fernando","state":"CA","country":"United States","formattedAddress":["12930 Foothill Blvd","San Fernando, CA 91342","United States"]},"categories":[{"id":"4bf58dd8d48988d16e941735","name":"Fast Food Restaurant","pluralName":"Fast Food Restaurants","shortName":"Fast Food","icon":{"prefix":"https:\/\/ss3.4sqi.net\/img\/categories_v2\/food\/fastfood_","suffix":".png"},"primary":true}],"verified":true,"stats":{"checkinsCount":518,"usersCount":228,"tipCount":3},"url":"http:\/\/www.elpolloloco.com","menu":{"type":"Menu","label":"Menu","anchor":"View Menu","url":"http:\/\/www.elpolloloco.com\/our-food\/","mobileUrl":"http:\/\/www.elpolloloco.com\/our-food\/","externalUrl":"http:\/\/www.elpolloloco.com\/our-food\/"},"allowMenuUrlEdit":true,"beenHere":{"lastCheckinExpiredAt":0},"specials":{"count":0,"items":[]},"storeId":"5615","referralId":"v-1483291029","venueChains":[{"id":"556f41e9bd6a007c7738720f"}],"hasPerk":false},{"id":"548623cb498e40c7e24b5446","name":"7-Eleven","contact":{"phone":"8188969730","formattedPhone":"(818) 896-9730","twitter":"7eleven","facebook":"641317289310237","facebookUsername":"7ElevenPacoima39652","facebookName":"7-Eleven"},"location":{"address":"11550 Glenoaks Blvd","lat":34.28010167552449,"lng":-118.41788917779922,"labeledLatLngs":[{"label":"display","lat":34.28010167552449,"lng":-118.41788917779922}],"postalCode":"91331","cc":"US","city":"Pacoima","state":"CA","country":"United States","formattedAddress":["11550 Glenoaks Blvd","Pacoima, CA 91331","United States"]},"categories":[{"id":"4d954b0ea243a5684a65b473","name":"Convenience Store","pluralName":"Convenience Stores","shortName":"Convenience Store","icon":{"prefix":"https:\/\/ss3.4sqi.net\/img\/categories_v2\/shops\/conveniencestore_","suffix":".png"},"primary":true}],"verified":true,"stats":{"checkinsCount":16,"usersCount":11,"tipCount":0},"url":"http:\/\/www.7-eleven.com","allowMenuUrlEdit":true,"beenHere":{"lastCheckinExpiredAt":0},"specials":{"count":0,"items":[]},"storeId":"39652","referralId":"v-1483291029","venueChains":[{"id":"556f676fbd6a75a99038d8e9"}],"hasPerk":false},{"id":"4ca8e6e1d971b1f7816219e1","name":"Tacos El Canelo","contact":{},"location":{"address":"11555 Glenoaks Blvd","crossStreet":"Glenoaks & Paxton","lat":34.27950707,"lng":-118.41857601,"labeledLatLngs":[{"label":"display","lat":34.27950707,"lng":-118.41857601}],"postalCode":"91331","cc":"US","city":"Pacoima","state":"CA","country":"United States","formattedAddress":["11555 Glenoaks Blvd (Glenoaks & Paxton)","Pacoima, CA 91331","United States"]},"categories":[{"id":"4bf58dd8d48988d151941735","name":"Taco Place","pluralName":"Taco Places","shortName":"Tacos","icon":{"prefix":"https:\/\/ss3.4sqi.net\/img\/categories_v2\/food\/taco_","suffix":".png"},"primary":true}],"verified":false,"stats":{"checkinsCount":110,"usersCount":55,"tipCount":1},"allowMenuUrlEdit":true,"beenHere":{"lastCheckinExpiredAt":0},"specials":{"count":0,"items":[]},"referralId":"v-1483291029","venueChains":[],"hasPerk":false},{"id":"4fe46a68e4b087f13dedb84c","name":"7-Eleven","contact":{"phone":"8188964072","formattedPhone":"(818) 896-4072","twitter":"7eleven","facebook":"351229098310555","facebookUsername":"7ElevenPacoima35434","facebookName":"7-Eleven"},"location":{"address":"13003 Van Nuys Blvd","crossStreet":"Norris","lat":34.270586091270715,"lng":-118.41671743955615,"labeledLatLngs":[{"label":"display","lat":34.270586091270715,"lng":-118.41671743955615}],"postalCode":"91331","cc":"US","city":"Pacoima","state":"CA","country":"United States","formattedAddress":["13003 Van Nuys Blvd (Norris)","Pacoima, CA 91331","United States"]},"categories":[{"id":"4d954b0ea243a5684a65b473","name":"Convenience Store","pluralName":"Convenience Stores","shortName":"Convenience Store","icon":{"prefix":"https:\/\/ss3.4sqi.net\/img\/categories_v2\/shops\/conveniencestore_","suffix":".png"},"primary":true}],"verified":true,"stats":{"checkinsCount":178,"usersCount":29,"tipCount":11},"url":"http:\/\/www.7-eleven.com","allowMenuUrlEdit":true,"beenHere":{"lastCheckinExpiredAt":0},"specials":{"count":0,"items":[]},"referralId":"v-1483291029","venueChains":[{"id":"556f676fbd6a75a99038d8e9"}],"hasPerk":false},{"id":"4f3d7cf5e4b0a924832bff99","name":"SUBWAY","contact":{"twitter":"subway"},"location":{"address":"San Fernando","crossStreet":"Osboure","lat":34.254577,"lng":-118.408548,"labeledLatLngs":[{"label":"display","lat":34.254577,"lng":-118.408548}],"postalCode":"91331","cc":"US","city":"Pacoima","state":"CA","country":"United States","formattedAddress":["San Fernando (Osboure)","Pacoima, CA 91331","United States"]},"categories":[{"id":"4bf58dd8d48988d1c5941735","name":"Sandwich Place","pluralName":"Sandwich Places","shortName":"Sandwiches","icon":{"prefix":"https:\/\/ss3.4sqi.net\/img\/categories_v2\/food\/deli_","suffix":".png"},"primary":true}],"verified":false,"stats":{"checkinsCount":122,"usersCount":42,"tipCount":0},"url":"http:\/\/subway.com","allowMenuUrlEdit":true,"beenHere":{"lastCheckinExpiredAt":0},"specials":{"count":0,"items":[]},"referralId":"v-1483291029","venueChains":[{"id":"556e0bfaa7c82e6b724f552f"}],"hasPerk":false},{"id":"4f3ea592e4b0ea2109fee4f1","name":"Myke's Cafe","contact":{},"location":{"lat":34.26790244015402,"lng":-118.42006684493926,"labeledLatLngs":[{"label":"display","lat":34.26790244015402,"lng":-118.42006684493926}],"postalCode":"91331","cc":"US","city":"Pacoima","state":"CA","country":"United States","formattedAddress":["Pacoima, CA 91331","United States"]},"categories":[{"id":"4bf58dd8d48988d143941735","name":"Breakfast Spot","pluralName":"Breakfast Spots","shortName":"Breakfast","icon":{"prefix":"https:\/\/ss3.4sqi.net\/img\/categories_v2\/food\/breakfast_","suffix":".png"},"primary":true}],"verified":false,"stats":{"checkinsCount":408,"usersCount":255,"tipCount":21},"hasMenu":true,"menu":{"type":"Menu","label":"Menu","anchor":"View Menu","url":"https:\/\/foursquare.com\/v\/mykes-cafe\/4f3ea592e4b0ea2109fee4f1\/menu","mobileUrl":"https:\/\/foursquare.com\/v\/4f3ea592e4b0ea2109fee4f1\/device_menu"},"allowMenuUrlEdit":true,"beenHere":{"lastCheckinExpiredAt":0},"specials":{"count":0,"items":[]},"referralId":"v-1483291029","venueChains":[],"hasPerk":false},{"id":"4b68fea2f964a52041962be3","name":"El Faro Tacos","contact":{"phone":"8183613202","formattedPhone":"(818) 361-3202"},"location":{"address":"13261 Maclay St","lat":34.2973094289418,"lng":-118.42240575061251,"labeledLatLngs":[{"label":"display","lat":34.2973094289418,"lng":-118.42240575061251}],"postalCode":"91340","cc":"US","city":"San Fernando","state":"CA","country":"United States","formattedAddress":["13261 Maclay St","San Fernando, CA 91340","United States"]},"categories":[{"id":"4bf58dd8d48988d151941735","name":"Taco Place","pluralName":"Taco Places","shortName":"Tacos","icon":{"prefix":"https:\/\/ss3.4sqi.net\/img\/categories_v2\/food\/taco_","suffix":".png"},"primary":true}],"verified":false,"stats":{"checkinsCount":508,"usersCount":138,"tipCount":4},"url":"http:\/\/www.elfarotacos.com","hasMenu":true,"menu":{"type":"Menu","label":"Menu","anchor":"View Menu","url":"https:\/\/foursquare.com\/v\/el-faro-tacos\/4b68fea2f964a52041962be3\/menu","mobileUrl":"https:\/\/foursquare.com\/v\/4b68fea2f964a52041962be3\/device_menu"},"allowMenuUrlEdit":true,"beenHere":{"lastCheckinExpiredAt":0},"specials":{"count":0,"items":[]},"referralId":"v-1483291029","venueChains":[],"hasPerk":false},{"id":"4f1a5550e4b0d7904185c1bf","name":"Don Cuco Taco Truck","contact":{"facebook":"184690681562715","facebookName":"Don Cuco Taco Truck- Foothill"},"location":{"address":"12898 Foothill Blvd","crossStreet":"at Arroyo St","lat":34.2883741397943,"lng":-118.40958700454144,"labeledLatLngs":[{"label":"display","lat":34.2883741397943,"lng":-118.40958700454144}],"postalCode":"91342","cc":"US","city":"Sylmar","state":"CA","country":"United States","formattedAddress":["12898 Foothill Blvd (at Arroyo St)","Sylmar, CA 91342","United States"]},"categories":[{"id":"4bf58dd8d48988d151941735","name":"Taco Place","pluralName":"Taco Places","shortName":"Tacos","icon":{"prefix":"https:\/\/ss3.4sqi.net\/img\/categories_v2\/food\/taco_","suffix":".png"},"primary":true}],"verified":false,"stats":{"checkinsCount":238,"usersCount":145,"tipCount":9},"allowMenuUrlEdit":true,"beenHere":{"lastCheckinExpiredAt":0},"specials":{"count":0,"items":[]},"referralId":"v-1483291029","venueChains":[],"hasPerk":false},{"id":"4db3b4721e7248d1359356d5","name":"El Faro Taco Truck","contact":{},"location":{"address":"12400-12498 Filmore St","lat":34.28440933793969,"lng":-118.40466918288895,"labeledLatLngs":[{"label":"display","lat":34.28440933793969,"lng":-118.40466918288895}],"postalCode":"91342","cc":"US","city":"Sylmar","state":"CA","country":"United States","formattedAddress":["12400-12498 Filmore St","Sylmar, CA 91342","United States"]},"categories":[{"id":"4bf58dd8d48988d1cb941735","name":"Food Truck","pluralName":"Food Trucks","shortName":"Food Truck","icon":{"prefix":"https:\/\/ss3.4sqi.net\/img\/categories_v2\/food\/streetfood_","suffix":".png"},"primary":true}],"verified":false,"stats":{"checkinsCount":58,"usersCount":39,"tipCount":0},"allowMenuUrlEdit":true,"beenHere":{"lastCheckinExpiredAt":0},"specials":{"count":0,"items":[]},"referralId":"v-1483291029","venueChains":[],"hasPerk":false},{"id":"55dd3e01498ee8d50f5608fb","name":"Pizzaholic","contact":{},"location":{"address":"10750 Glenoaks Blvd #3","crossStreet":"Osborne","lat":34.26489298393369,"lng":-118.40198771113124,"labeledLatLngs":[{"label":"display","lat":34.26489298393369,"lng":-118.40198771113124}],"postalCode":"91331","cc":"US","city":"Pacoima","state":"CA","country":"United States","formattedAddress":["10750 Glenoaks Blvd #3 (Osborne)","Pacoima, CA 91331","United States"]},"categories":[{"id":"4bf58dd8d48988d1ca941735","name":"Pizza Place","pluralName":"Pizza Places","shortName":"Pizza","icon":{"prefix":"https:\/\/ss3.4sqi.net\/img\/categories_v2\/food\/pizza_","suffix":".png"},"primary":true}],"verified":false,"stats":{"checkinsCount":24,"usersCount":16,"tipCount":2},"allowMenuUrlEdit":true,"beenHere":{"lastCheckinExpiredAt":0},"specials":{"count":0,"items":[]},"referralId":"v-1483291029","venueChains":[],"hasPerk":false},{"id":"584ad83f6ad73d598ece3a8b","name":"Morphe Taco Truck","contact":{},"location":{"lat":34.257471,"lng":-118.395451,"labeledLatLngs":[{"label":"display","lat":34.257471,"lng":-118.395451}],"cc":"US","city":"Los Angeles","state":"CA","country":"United States","formattedAddress":["Los Angeles, CA","United States"]},"categories":[{"id":"4bf58dd8d48988d1cb941735","name":"Food Truck","pluralName":"Food Trucks","shortName":"Food Truck","icon":{"prefix":"https:\/\/ss3.4sqi.net\/img\/categories_v2\/food\/streetfood_","suffix":".png"},"primary":true}],"verified":false,"stats":{"checkinsCount":4,"usersCount":1,"tipCount":0},"allowMenuUrlEdit":true,"beenHere":{"lastCheckinExpiredAt":0},"specials":{"count":0,"items":[]},"referralId":"v-1483291029","venueChains":[],"hasPerk":false},{"id":"4b80499af964a520846430e3","name":"Ranch Side Cafe","contact":{"phone":"8188340031","formattedPhone":"(818) 834-0031","facebook":"73556150115","facebookName":"Ranch Side Cafe"},"location":{"address":"11355 Foothill Blvd","lat":34.27622007411364,"lng":-118.3788339854796,"labeledLatLngs":[{"label":"display","lat":34.27622007411364,"lng":-118.3788339854796}],"postalCode":"91342","cc":"US","city":"Sylmar","state":"CA","country":"United States","formattedAddress":["11355 Foothill Blvd","Sylmar, CA 91342","United States"]},"categories":[{"id":"4bf58dd8d48988d14e941735","name":"American Restaurant","pluralName":"American Restaurants","shortName":"American","icon":{"prefix":"https:\/\/ss3.4sqi.net\/img\/categories_v2\/food\/default_","suffix":".png"},"primary":true}],"verified":true,"stats":{"checkinsCount":342,"usersCount":173,"tipCount":3},"hasMenu":true,"delivery":{"id":"143781","url":"http:\/\/www.grubhub.com\/order_redir.jsp?custId=143781&affId=1131","provider":{"name":"grubhub"}},"menu":{"type":"Menu","label":"Menu","anchor":"View Menu","url":"https:\/\/foursquare.com\/v\/ranch-side-cafe\/4b80499af964a520846430e3\/menu","mobileUrl":"https:\/\/foursquare.com\/v\/4b80499af964a520846430e3\/device_menu"},"allowMenuUrlEdit":true,"beenHere":{"lastCheckinExpiredAt":0},"specials":{"count":0,"items":[]},"venuePage":{"id":"79995782"},"storeId":"","referralId":"v-1483291029","venueChains":[],"hasPerk":false},{"id":"4b7482daf964a520fee02de3","name":"7-Eleven","contact":{"phone":"8188992938","formattedPhone":"(818) 899-2938","twitter":"7eleven","facebook":"187393981329299","facebookUsername":"7ElevenPacoima25122","facebookName":"7-Eleven"},"location":{"address":"10711 Glenoaks Blvd","lat":34.2639511015283,"lng":-118.40175061071123,"labeledLatLngs":[{"label":"display","lat":34.2639511015283,"lng":-118.40175061071123}],"postalCode":"91331","cc":"US","city":"Pacoima","state":"CA","country":"United States","formattedAddress":["10711 Glenoaks Blvd","Pacoima, CA 91331","United States"]},"categories":[{"id":"4d954b0ea243a5684a65b473","name":"Convenience Store","pluralName":"Convenience Stores","shortName":"Convenience Store","icon":{"prefix":"https:\/\/ss3.4sqi.net\/img\/categories_v2\/shops\/conveniencestore_","suffix":".png"},"primary":true}],"verified":true,"stats":{"checkinsCount":294,"usersCount":108,"tipCount":4},"url":"http:\/\/www.7-eleven.com","allowMenuUrlEdit":true,"beenHere":{"lastCheckinExpiredAt":0},"specials":{"count":0,"items":[]},"storeId":"25122","referralId":"v-1483291029","venueChains":[{"id":"556f676fbd6a75a99038d8e9"}],"hasPerk":false},{"id":"4e6e5e34b61cf2b03c5383d1","name":"Wingstop","contact":{"phone":"8188979464","formattedPhone":"(818) 897-9464","twitter":"wingstop"},"location":{"address":"12745 Van Nuys Blvd","lat":34.275452583209045,"lng":-118.41140119922504,"labeledLatLngs":[{"label":"display","lat":34.275452583209045,"lng":-118.41140119922504}],"postalCode":"91331","cc":"US","city":"Pacoima","state":"CA","country":"United States","formattedAddress":["12745 Van Nuys Blvd","Pacoima, CA 91331","United States"]},"categories":[{"id":"4bf58dd8d48988d14c941735","name":"Wings Joint","pluralName":"Wings Joints","shortName":"Wings","icon":{"prefix":"https:\/\/ss3.4sqi.net\/img\/categories_v2\/food\/wings_","suffix":".png"},"primary":true}],"verified":true,"stats":{"checkinsCount":435,"usersCount":196,"tipCount":6},"url":"http:\/\/order.wingstop.com\/menu\/wingstop-561-pacoima-ca-91331","allowMenuUrlEdit":true,"beenHere":{"lastCheckinExpiredAt":0},"specials":{"count":0,"items":[]},"storeId":"561","referralId":"v-1483291029","venueChains":[{"id":"556d12d9aceaff43eb090ce2"}],"hasPerk":false},{"id":"4ccc783eee23a1438d551fa8","name":"Wendill's Fried Chicken & Thai Food","contact":{"phone":"8188345089","formattedPhone":"(818) 834-5089"},"location":{"address":"10337 San Fernando Rd","lat":34.25793,"lng":-118.41366686666667,"labeledLatLngs":[{"label":"display","lat":34.25793,"lng":-118.41366686666667}],"postalCode":"91331","cc":"US","city":"Pacoima","state":"CA","country":"United States","formattedAddress":["10337 San Fernando Rd","Pacoima, CA 91331","United States"]},"categories":[{"id":"4bf58dd8d48988d149941735","name":"Thai Restaurant","pluralName":"Thai Restaurants","shortName":"Thai","icon":{"prefix":"https:\/\/ss3.4sqi.net\/img\/categories_v2\/food\/thai_","suffix":".png"},"primary":true}],"verified":false,"stats":{"checkinsCount":217,"usersCount":69,"tipCount":4},"url":"http:\/\/wendillschickenhouse.com","allowMenuUrlEdit":true,"beenHere":{"lastCheckinExpiredAt":0},"specials":{"count":0,"items":[]},"referralId":"v-1483291029","venueChains":[],"hasPerk":false}]}}