{"meta":{"code":200,"requestId":"586939921ed21945673ca050"},"response":{"venues":[{"id":"5040e13fe4b05e5c0f09ef23","name":"Wawa","contact":{"twitter":"wawa"},"location":{"address":"440 King Georges Rd","crossStreet":"at US Hwy 9 S","lat":40.53617397170317,"lng":-74.29738061798713,"labeledLatLngs":[{"label":"display","lat":40.53617397170317,"lng":-74.29738061798713}],"postalCode":"07095","cc":"US","city":"Woodbridge","state":"NJ","country":"United States","formattedAddress":["440 King Georges Rd (at US Hwy 9 S)","Woodbridge, NJ 07095","United States"]},"categories":[{"id":"4d954b0ea243a5684a65b473","name":"Convenience Store","pluralName":"Convenience Stores","shortName":"Convenience Store","icon":{"prefix":"https:\/\/ss3.4sqi.net\/img\/categories_v2\/shops\/conveniencestore_","suffix":".png"},"primary":true}],"verified":true,"stats":{"checkinsCount":5463,"usersCount":1168,"tipCount":18},"url":"http:\/\/www.wawa.com","allowMenuUrlEdit":true,"beenHere":{"lastCheckinExpiredAt":0},"specials":{"count":0,"items":[]},"storeId":"8317","referralId":"v-1483291026","venueChains":[{"id":"556d0353aceaff43eb077f05"}],"hasPerk":false},{"id":"4f2312196aa3ce5579492600","name":"QuickChek","contact":{"phone":"7327219712","formattedPhone":"(732) 721-9712","twitter":"quickchek"},"location":{"address":"881 Main St","crossStreet":"at Sand Hill Rd","lat":40.47595090026679,"lng":-74.31878471905877,"labeledLatLngs":[{"label":"display","lat":40.47595090026679,"lng":-74.31878471905877}],"postalCode":"08872","cc":"US","city":"Sayreville","state":"NJ","country":"United States","formattedAddress":["881 Main St (at Sand Hill Rd)","Sayreville, NJ 08872","United States"]},"categories":[{"id":"4d954b0ea243a5684a65b473","name":"Convenience Store","pluralName":"Convenience Stores","shortName":"Convenience Store","icon":{"prefix":"https:\/\/ss3.4sqi.net\/img\/categories_v2\/shops\/conveniencestore_","suffix":".png"},"primary":true}],"verified":true,"stats":{"checkinsCount":2147,"usersCount":396,"tipCount":5},"url":"https:\/\/www.facebook.com\/Quick.Chek.GetFresh.GoFast","allowMenuUrlEdit":true,"beenHere":{"lastCheckinExpiredAt":0},"specials":{"count":0,"items":[]},"storeId":"","referralId":"v-1483291026","venueChains":[{"id":"556f431fbd6a007c77388d9e"}],"hasPerk":false},{"id":"4b1bfe38f964a520500024e3","name":"Panera Bread","contact":{"phone":"7325161611","formattedPhone":"(732) 516-1611","twitter":"panerabread","facebook":"99044554628","facebookUsername":"panerabread","facebookName":"Panera Bread"},"location":{"address":"1551 US Highway 1","lat":40.545734801454515,"lng":-74.3308487534523,"labeledLatLngs":[{"label":"display","lat":40.545734801454515,"lng":-74.3308487534523}],"postalCode":"08837","cc":"US","city":"Edison","state":"NJ","country":"United States","formattedAddress":["1551 US Highway 1","Edison, NJ 08837","United States"]},"categories":[{"id":"4bf58dd8d48988d16a941735","name":"Bakery","pluralName":"Bakeries","shortName":"Bakery","icon":{"prefix":"https:\/\/ss3.4sqi.net\/img\/categories_v2\/food\/bakery_","suffix":".png"},"primary":true}],"verified":true,"stats":{"checkinsCount":6295,"usersCount":2655,"tipCount":42},"url":"http:\/\/www.panerabread.com","hasMenu":true,"menu":{"type":"Menu","label":"Menu","anchor":"View Menu","url":"https:\/\/foursquare.com\/v\/panera-bread\/4b1bfe38f964a520500024e3\/menu","mobileUrl":"https:\/\/foursquare.com\/v\/4b1bfe38f964a520500024e3\/device_menu","externalUrl":"http:\/\/www.listingextensions.com\/f43115baa3\/2050960862\/menu"},"allowMenuUrlEdit":true,"beenHere":{"lastCheckinExpiredAt":0},"specials":{"count":0,"items":[]},"storeId":"1483","referralId":"v-1483291026","venueChains":[{"id":"556e0f6fa7c82e6b724f8c8a"}],"hasPerk":false},{"id":"4ac4e327f964a5206d9f20e3","name":"The Reo Diner","contact":{"phone":"7326349200","formattedPhone":"(732) 634-9200"},"location":{"address":"392 Amboy Ave","lat":40.55388751088832,"lng":-74.28249479959663,"labeledLatLngs":[{"label":"display","lat":40.55388751088832,"lng":-74.28249479959663}],"postalCode":"07095","cc":"US","city":"Woodbridge","state":"NJ","country":"United States","formattedAddress":["392 Amboy Ave","Woodbridge, NJ 07095","United States"]},"categories":[{"id":"4bf58dd8d48988d147941735","name":"Diner","pluralName":"Diners","shortName":"Diner","icon":{"prefix":"https:\/\/ss3.4sqi.net\/img\/categories_v2\/food\/diner_","suffix":".png"},"primary":true}],"verified":false,"stats":{"checkinsCount":4041,"usersCount":1369,"tipCount":33},"url":"http:\/\/reodinerrestaurant.com","menu":{"type":"Menu","label":"Menu","anchor":"View Menu","url":"http:\/\/reodinerrestaurant.com\/#!menu","mobileUrl":"http:\/\/reodinerrestaurant.com\/#!menu","externalUrl":"http:\/\/reodinerrestaurant.com\/#!menu"},"allowMenuUrlEdit":true,"beenHere":{"lastCheckinExpiredAt":0},"specials":{"count":0,"items":[]},"referralId":"v-1483291026","venueChains":[],"hasPerk":false},{"id":"4b4796e7f964a520983626e3","name":"Panera Bread","contact":{"phone":"7326021220","formattedPhone":"(732) 602-1220","twitter":"panerabread","facebook":"99044554628","facebookUsername":"panerabread","facebookName":"Panera Bread"},"location":{"address":"21 Woodbridge Center Dr","lat":40.55037424080624,"lng":-74.29758687941779,"labeledLatLngs":[{"label":"display","lat":40.55037424080624,"lng":-74.29758687941779}],"postalCode":"07095","cc":"US","city":"Woodbridge","state":"NJ","country":"United States","formattedAddress":["21 Woodbridge Center Dr","Woodbridge, NJ 07095","United States"]},"categories":[{"id":"4bf58dd8d48988d16a941735","name":"Bakery","pluralName":"Bakeries","shortName":"Bakery","icon":{"prefix":"https:\/\/ss3.4sqi.net\/img\/categories_v2\/food\/bakery_","suffix":".png"},"primary":true}],"verified":true,"stats":{"checkinsCount":4400,"usersCount":1651,"tipCount":47},"url":"http:\/\/www.panerabread.com","hasMenu":true,"menu":{"type":"Menu","label":"Menu","anchor":"View Menu","url":"https:\/\/foursquare.com\/v\/panera-bread\/4b4796e7f964a520983626e3\/menu","mobileUrl":"https:\/\/foursquare.com\/v\/4b4796e7f964a520983626e3\/device_menu","externalUrl":"http:\/\/www.listingextensions.com\/f43115baa3\/2064723422\/menu"},"allowMenuUrlEdit":true,"beenHere":{"lastCheckinExpiredAt":0},"specials":{"count":0,"items":[]},"storeId":"1491","referralId":"v-1483291026","venueChains":[{"id":"556e0f6fa7c82e6b724f8c8a"}],"hasPerk":false},{"id":"5418c4a9498e82586edacc45","name":"Miller\u2019s Woodbridge Alehouse","contact":{"phone":"7328556590","formattedPhone":"(732) 855-6590"},"location":{"address":"350 US Highway 9 N","lat":40.537645688428206,"lng":-74.29472784591424,"labeledLatLngs":[{"label":"display","lat":40.537645688428206,"lng":-74.29472784591424}],"postalCode":"07095","cc":"US","city":"Woodbridge","state":"NJ","country":"United States","formattedAddress":["350 US Highway 9 N","Woodbridge, NJ 07095","United States"]},"categories":[{"id":"4bf58dd8d48988d14e941735","name":"American Restaurant","pluralName":"American Restaurants","shortName":"American","icon":{"prefix":"https:\/\/ss3.4sqi.net\/img\/categories_v2\/food\/default_","suffix":".png"},"primary":true}],"verified":true,"stats":{"checkinsCount":1387,"usersCount":681,"tipCount":27},"url":"http:\/\/www.millersalehouse.com","hasMenu":true,"menu":{"type":"Menu","label":"Menu","anchor":"View Menu","url":"https:\/\/foursquare.com\/v\/millers-woodbridge-alehouse\/5418c4a9498e82586edacc45\/menu","mobileUrl":"https:\/\/foursquare.com\/v\/5418c4a9498e82586edacc45\/device_menu"},"allowMenuUrlEdit":true,"beenHere":{"lastCheckinExpiredAt":0},"specials":{"count":0,"items":[]},"storeId":"","referralId":"v-1483291026","venueChains":[{"id":"556a289fa7c8957d73d366f4"}],"hasPerk":false},{"id":"4df0b74645ddbf3897d31947","name":"Dunkin Donuts","contact":{"phone":"7325251600","formattedPhone":"(732) 525-1600","twitter":"dunkindonuts","facebook":"6979393237","facebookUsername":"DunkinDonutsUS","facebookName":"Dunkin' Donuts"},"location":{"address":"528 Raritan St","crossStreet":"at Washington Ave.","lat":40.476427419060734,"lng":-74.297036848415,"labeledLatLngs":[{"label":"display","lat":40.476427419060734,"lng":-74.297036848415}],"postalCode":"08872","cc":"US","city":"Sayreville","state":"NJ","country":"United States","formattedAddress":["528 Raritan St (at Washington Ave.)","Sayreville, NJ 08872","United States"]},"categories":[{"id":"4bf58dd8d48988d148941735","name":"Donut Shop","pluralName":"Donut Shops","shortName":"Donuts","icon":{"prefix":"https:\/\/ss3.4sqi.net\/img\/categories_v2\/food\/donuts_","suffix":".png"},"primary":true}],"verified":true,"stats":{"checkinsCount":2748,"usersCount":538,"tipCount":24},"url":"http:\/\/www.dunkindonuts.com","allowMenuUrlEdit":true,"beenHere":{"lastCheckinExpiredAt":0},"specials":{"count":0,"items":[]},"storeId":"304375","referralId":"v-1483291026","venueChains":[{"id":"556f676fbd6a75a99038d8f0"}],"hasPerk":false},{"id":"4ba56ed0f964a520900639e3","name":"Kona Grill","contact":{"phone":"7327504400","formattedPhone":"(732) 750-4400","twitter":"konagrill","facebook":"180739873531","facebookUsername":"konagrill","facebookName":"Kona Grill, Inc."},"location":{"address":"511 US Highway 1 S","crossStreet":"Gills Ln","lat":40.556265232063254,"lng":-74.31126594543457,"labeledLatLngs":[{"label":"display","lat":40.556265232063254,"lng":-74.31126594543457}],"postalCode":"08830","cc":"US","city":"Iselin","state":"NJ","country":"United States","formattedAddress":["511 US Highway 1 S (Gills Ln)","Iselin, NJ 08830","United States"]},"categories":[{"id":"4bf58dd8d48988d142941735","name":"Asian Restaurant","pluralName":"Asian Restaurants","shortName":"Asian","icon":{"prefix":"https:\/\/ss3.4sqi.net\/img\/categories_v2\/food\/asian_","suffix":".png"},"primary":true}],"verified":true,"stats":{"checkinsCount":7917,"usersCount":3160,"tipCount":81},"url":"http:\/\/www.konagrill.com","hasMenu":true,"menu":{"type":"Menu","label":"Menu","anchor":"View Menu","url":"https:\/\/foursquare.com\/v\/kona-grill\/4ba56ed0f964a520900639e3\/menu","mobileUrl":"https:\/\/foursquare.com\/v\/4ba56ed0f964a520900639e3\/device_menu"},"allowMenuUrlEdit":true,"beenHere":{"lastCheckinExpiredAt":0},"specials":{"count":0,"items":[]},"referralId":"v-1483291026","venueChains":[{"id":"5569eceda7c8896abe7ba0ac"}],"hasPerk":false},{"id":"4b3a8fdef964a520fb6925e3","name":"QuickChek","contact":{"phone":"7328269627","formattedPhone":"(732) 826-9627","twitter":"quickchek"},"location":{"address":"853 Convery Blvd","lat":40.53055861748566,"lng":-74.2798761904733,"labeledLatLngs":[{"label":"display","lat":40.53055861748566,"lng":-74.2798761904733}],"postalCode":"08861","cc":"US","city":"Perth Amboy","state":"NJ","country":"United States","formattedAddress":["853 Convery Blvd","Perth Amboy, NJ 08861","United States"]},"categories":[{"id":"4bf58dd8d48988d146941735","name":"Deli \/ Bodega","pluralName":"Delis \/ Bodegas","shortName":"Deli \/ Bodega","icon":{"prefix":"https:\/\/ss3.4sqi.net\/img\/categories_v2\/food\/deli_","suffix":".png"},"primary":true}],"verified":false,"stats":{"checkinsCount":3202,"usersCount":786,"tipCount":19},"allowMenuUrlEdit":true,"beenHere":{"lastCheckinExpiredAt":0},"specials":{"count":0,"items":[]},"referralId":"v-1483291026","venueChains":[{"id":"556f431fbd6a007c77388d9e"}],"hasPerk":false},{"id":"4c1512c8127f9521dff52425","name":"SONIC Drive In","contact":{"phone":"7324834517","formattedPhone":"(732) 483-4517","twitter":"sonicdrivein"},"location":{"address":"238 Lafayette Rd","crossStreet":"at Route 1","lat":40.546250458153715,"lng":-74.32993948459625,"labeledLatLngs":[{"label":"display","lat":40.546250458153715,"lng":-74.32993948459625}],"postalCode":"08837","cc":"US","city":"Edison","state":"NJ","country":"United States","formattedAddress":["238 Lafayette Rd (at Route 1)","Edison, NJ 08837","United States"]},"categories":[{"id":"4bf58dd8d48988d16e941735","name":"Fast Food Restaurant","pluralName":"Fast Food Restaurants","shortName":"Fast Food","icon":{"prefix":"https:\/\/ss3.4sqi.net\/img\/categories_v2\/food\/fastfood_","suffix":".png"},"primary":true}],"verified":true,"stats":{"checkinsCount":7531,"usersCount":3576,"tipCount":46},"url":"http:\/\/sonicdrivein.com","hasMenu":true,"menu":{"type":"Menu","label":"Menu","anchor":"View Menu","url":"https:\/\/foursquare.com\/v\/sonic-drive-in\/4c1512c8127f9521dff52425\/menu","mobileUrl":"https:\/\/foursquare.com\/v\/4c1512c8127f9521dff52425\/device_menu"},"allowMenuUrlEdit":true,"beenHere":{"lastCheckinExpiredAt":0},"specials":{"count":0,"items":[]},"storeId":"6235","referralId":"v-1483291026","venueChains":[{"id":"556e2b60a7c82e6b7253b20b"}],"hasPerk":false},{"id":"4c02d81439d476b025462fa7","name":"White Castle","contact":{"phone":"7325485953","formattedPhone":"(732) 548-5953"},"location":{"address":"8 Lafayette Rd","lat":40.54674781049594,"lng":-74.32872966015435,"labeledLatLngs":[{"label":"display","lat":40.54674781049594,"lng":-74.32872966015435}],"postalCode":"08840","cc":"US","city":"Metuchen","state":"NJ","country":"United States","formattedAddress":["8 Lafayette Rd","Metuchen, NJ 08840","United States"]},"categories":[{"id":"4bf58dd8d48988d16e941735","name":"Fast Food Restaurant","pluralName":"Fast Food Restaurants","shortName":"Fast Food","icon":{"prefix":"https:\/\/ss3.4sqi.net\/img\/categories_v2\/food\/fastfood_","suffix":".png"},"primary":true}],"verified":true,"stats":{"checkinsCount":2392,"usersCount":1443,"tipCount":22},"url":"http:\/\/www.whitecastle.com","allowMenuUrlEdit":true,"beenHere":{"lastCheckinExpiredAt":0},"specials":{"count":0,"items":[]},"storeId":"16","referralId":"v-1483291026","venueChains":[{"id":"556ce5abaceaff43eb0528b0"}],"hasPerk":false},{"id":"4b71f1bff964a520b9652de3","name":"QuickChek","contact":{"phone":"7327389727","formattedPhone":"(732) 738-9727","twitter":"quickchek"},"location":{"address":"6 Egan Ave","crossStreet":"at New Brunswick Ave","lat":40.528315,"lng":-74.31222300858978,"labeledLatLngs":[{"label":"display","lat":40.528315,"lng":-74.31222300858978}],"postalCode":"08863","cc":"US","city":"Fords","state":"NJ","country":"United States","formattedAddress":["6 Egan Ave (at New Brunswick Ave)","Fords, NJ 08863","United States"]},"categories":[{"id":"4d954b0ea243a5684a65b473","name":"Convenience Store","pluralName":"Convenience Stores","shortName":"Convenience Store","icon":{"prefix":"https:\/\/ss3.4sqi.net\/img\/categories_v2\/shops\/conveniencestore_","suffix":".png"},"primary":true}],"verified":true,"stats":{"checkinsCount":4224,"usersCount":407,"tipCount":14},"url":"http:\/\/quickchek.com","allowMenuUrlEdit":true,"beenHere":{"lastCheckinExpiredAt":0},"specials":{"count":0,"items":[]},"storeId":"","referralId":"v-1483291026","venueChains":[{"id":"556f431fbd6a007c77388d9e"}],"hasPerk":false},{"id":"4c0928ffffb8c9b6ee626961","name":"Dunkin Donuts","contact":{"phone":"723-596-1250","formattedPhone":"723-596-1250","twitter":"dunkindonuts","facebook":"6979393237","facebookUsername":"DunkinDonutsUS","facebookName":"Dunkin' Donuts"},"location":{"address":"1152 Us Hwy 9 North","lat":40.53615762983566,"lng":-74.29460752487954,"labeledLatLngs":[{"label":"display","lat":40.53615762983566,"lng":-74.29460752487954}],"postalCode":"7095","cc":"US","city":"Woodbridge","state":"NJ","country":"United States","formattedAddress":["1152 Us Hwy 9 North","Woodbridge, NJ 7095","United States"]},"categories":[{"id":"4bf58dd8d48988d148941735","name":"Donut Shop","pluralName":"Donut Shops","shortName":"Donuts","icon":{"prefix":"https:\/\/ss3.4sqi.net\/img\/categories_v2\/food\/donuts_","suffix":".png"},"primary":true}],"verified":true,"stats":{"checkinsCount":2706,"usersCount":456,"tipCount":8},"url":"http:\/\/www.dunkindonuts.com","allowMenuUrlEdit":true,"beenHere":{"lastCheckinExpiredAt":0},"specials":{"count":0,"items":[]},"storeId":"340856","referralId":"v-1483291026","venueChains":[{"id":"556f676fbd6a75a99038d8f0"}],"hasPerk":false},{"id":"503a204be4b0e79b214722bc","name":"Dunkin' Donuts","contact":{"phone":"7323794591","formattedPhone":"(732) 379-4591","twitter":"dunkindonuts","facebook":"6979393237","facebookUsername":"DunkinDonutsUS","facebookName":"Dunkin' Donuts"},"location":{"address":"77 US Highway 1","lat":40.548541745376845,"lng":-74.32580810408574,"labeledLatLngs":[{"label":"display","lat":40.548541745376845,"lng":-74.32580810408574}],"postalCode":"08840","cc":"US","city":"Metuchen","state":"NJ","country":"United States","formattedAddress":["77 US Highway 1","Metuchen, NJ 08840","United States"]},"categories":[{"id":"4bf58dd8d48988d148941735","name":"Donut Shop","pluralName":"Donut Shops","shortName":"Donuts","icon":{"prefix":"https:\/\/ss3.4sqi.net\/img\/categories_v2\/food\/donuts_","suffix":".png"},"primary":true}],"verified":true,"stats":{"checkinsCount":1021,"usersCount":329,"tipCount":7},"url":"http:\/\/www.dunkindonuts.com","allowMenuUrlEdit":true,"beenHere":{"lastCheckinExpiredAt":0},"specials":{"count":0,"items":[]},"storeId":"350959","referralId":"v-1483291026","venueChains":[{"id":"556f676fbd6a75a99038d8f0"}],"hasPerk":false},{"id":"4d20a821f7a9a14338e92e9f","name":"Krauzser's","contact":{"phone":"7327213636","formattedPhone":"(732) 721-3636"},"location":{"address":"Bordentown Road","lat":40.47319092936312,"lng":-74.28855699291404,"labeledLatLngs":[{"label":"display","lat":40.47319092936312,"lng":-74.28855699291404}],"cc":"US","city":"South Amboy","state":"NJ","country":"United States","formattedAddress":["Bordentown Road","South Amboy, NJ","United States"]},"categories":[{"id":"4d954b0ea243a5684a65b473","name":"Convenience Store","pluralName":"Convenience Stores","shortName":"Convenience Store","icon":{"prefix":"https:\/\/ss3.4sqi.net\/img\/categories_v2\/shops\/conveniencestore_","suffix":".png"},"primary":true}],"verified":false,"stats":{"checkinsCount":799,"usersCount":131,"tipCount":2},"allowMenuUrlEdit":true,"beenHere":{"lastCheckinExpiredAt":0},"specials":{"count":0,"items":[]},"referralId":"v-1483291026","venueChains":[],"hasPerk":false},{"id":"4b9e9b5cf964a52061f336e3","name":"7-Eleven","contact":{"phone":"7326970014","formattedPhone":"(732) 697-0014","twitter":"7eleven","facebook":"242989235740388","facebookUsername":"7ElevenPerthAmboy32896","facebookName":"7-Eleven"},"location":{"address":"527 Florida Grove Rd","lat":40.532208,"lng":-74.290644,"labeledLatLngs":[{"label":"display","lat":40.532208,"lng":-74.290644}],"postalCode":"08861","cc":"US","city":"Perth Amboy","state":"NJ","country":"United States","formattedAddress":["527 Florida Grove Rd","Perth Amboy, NJ 08861","United States"]},"categories":[{"id":"4d954b0ea243a5684a65b473","name":"Convenience Store","pluralName":"Convenience Stores","shortName":"Convenience Store","icon":{"prefix":"https:\/\/ss3.4sqi.net\/img\/categories_v2\/shops\/conveniencestore_","suffix":".png"},"primary":true}],"verified":true,"stats":{"checkinsCount":1322,"usersCount":421,"tipCount":6},"url":"http:\/\/www.7-eleven.com","allowMenuUrlEdit":true,"beenHere":{"lastCheckinExpiredAt":0},"specials":{"count":0,"items":[]},"storeId":"32896","referralId":"v-1483291026","venueChains":[{"id":"556f676fbd6a75a99038d8e9"}],"hasPerk":false},{"id":"4a945df2f964a520522120e3","name":"Dunkin' Donuts","contact":{"phone":"7327212110","formattedPhone":"(732) 721-2110","twitter":"dunkindonuts","facebook":"6979393237","facebookUsername":"DunkinDonutsUS","facebookName":"Dunkin' Donuts"},"location":{"address":"139-145 Broadway","lat":40.48467406788473,"lng":-74.28103365473244,"labeledLatLngs":[{"label":"display","lat":40.48467406788473,"lng":-74.28103365473244}],"postalCode":"8879","cc":"US","city":"South Amboy","state":"NJ","country":"United States","formattedAddress":["139-145 Broadway","South Amboy, NJ 8879","United States"]},"categories":[{"id":"4bf58dd8d48988d148941735","name":"Donut Shop","pluralName":"Donut Shops","shortName":"Donuts","icon":{"prefix":"https:\/\/ss3.4sqi.net\/img\/categories_v2\/food\/donuts_","suffix":".png"},"primary":true}],"verified":true,"stats":{"checkinsCount":2163,"usersCount":391,"tipCount":4},"url":"http:\/\/www.dunkindonuts.com","hasMenu":true,"menu":{"type":"Menu","label":"Menu","anchor":"View Menu","url":"https:\/\/foursquare.com\/v\/dunkin-donuts\/4a945df2f964a520522120e3\/menu","mobileUrl":"https:\/\/foursquare.com\/v\/4a945df2f964a520522120e3\/device_menu"},"allowMenuUrlEdit":true,"beenHere":{"lastCheckinExpiredAt":0},"specials":{"count":0,"items":[]},"storeId":"338437","referralId":"v-1483291026","venueChains":[{"id":"556f676fbd6a75a99038d8f0"}],"hasPerk":false},{"id":"4bf88d225317a5937815007f","name":"LongHorn Steakhouse","contact":{"phone":"7327501006","formattedPhone":"(732) 750-1006"},"location":{"address":"366 US Hwy Route 9","lat":40.53676419140013,"lng":-74.29505443117789,"labeledLatLngs":[{"label":"display","lat":40.53676419140013,"lng":-74.29505443117789}],"postalCode":"07095","cc":"US","city":"Woodbridge","state":"NJ","country":"United States","formattedAddress":["366 US Hwy Route 9","Woodbridge, NJ 07095","United States"]},"categories":[{"id":"4bf58dd8d48988d1cc941735","name":"Steakhouse","pluralName":"Steakhouses","shortName":"Steakhouse","icon":{"prefix":"https:\/\/ss3.4sqi.net\/img\/categories_v2\/food\/steakhouse_","suffix":".png"},"primary":true}],"verified":true,"stats":{"checkinsCount":2425,"usersCount":1246,"tipCount":15},"url":"http:\/\/www.longhornsteakhouse.com\/locator_g\/default.aspx?q=07095&restaurantid=5223","hasMenu":true,"menu":{"type":"Menu","label":"Menu","anchor":"View Menu","url":"https:\/\/foursquare.com\/v\/longhorn-steakhouse\/4bf88d225317a5937815007f\/menu","mobileUrl":"https:\/\/foursquare.com\/v\/4bf88d225317a5937815007f\/device_menu"},"allowMenuUrlEdit":true,"beenHere":{"lastCheckinExpiredAt":0},"specials":{"count":0,"items":[]},"storeId":"5223","referralId":"v-1483291026","venueChains":[{"id":"556ce747aceaff43eb05689e"}],"hasPerk":false},{"id":"4b9ed60bf964a520440537e3","name":"McDonald's","contact":{"phone":"7324422980","formattedPhone":"(732) 442-2980"},"location":{"address":"633 New Brunswick Ave","crossStreet":"Lee St","lat":40.52081345773045,"lng":-74.2857313156128,"labeledLatLngs":[{"label":"display","lat":40.52081345773045,"lng":-74.2857313156128}],"postalCode":"08861","cc":"US","city":"Perth Amboy","state":"NJ","country":"United States","formattedAddress":["633 New Brunswick Ave (Lee St)","Perth Amboy, NJ 08861","United States"]},"categories":[{"id":"4bf58dd8d48988d16e941735","name":"Fast Food Restaurant","pluralName":"Fast Food Restaurants","shortName":"Fast Food","icon":{"prefix":"https:\/\/ss3.4sqi.net\/img\/categories_v2\/food\/fastfood_","suffix":".png"},"primary":true}],"verified":true,"stats":{"checkinsCount":1400,"usersCount":400,"tipCount":11},"url":"http:\/\/mcdonalds.com","hasMenu":true,"menu":{"type":"Menu","label":"Menu","anchor":"View Menu","url":"https:\/\/foursquare.com\/v\/mcdonalds\/4b9ed60bf964a520440537e3\/menu","mobileUrl":"https:\/\/foursquare.com\/v\/4b9ed60bf964a520440537e3\/device_menu"},"allowMenuUrlEdit":true,"beenHere":{"lastCheckinExpiredAt":0},"specials":{"count":0,"items":[]},"storeId":"406","referralId":"v-1483291026","venueChains":[{"id":"556f7a12bd6a75a9903bddb2"}],"hasPerk":false},{"id":"4b9d77e2f964a520d5ae36e3","name":"Royal Albert's Palace","contact":{"phone":"7326611070","formattedPhone":"(732) 661-1070"},"location":{"address":"1050 King George Rd","lat":40.523662090932014,"lng":-74.32253132221088,"labeledLatLngs":[{"label":"display","lat":40.523662090932014,"lng":-74.32253132221088}],"postalCode":"08863","cc":"US","city":"Fords","state":"NJ","country":"United States","formattedAddress":["1050 King George Rd","Fords, NJ 08863","United States"]},"categories":[{"id":"4bf58dd8d48988d171941735","name":"Event Space","pluralName":"Event Spaces","shortName":"Event Space","icon":{"prefix":"https:\/\/ss3.4sqi.net\/img\/categories_v2\/building\/eventspace_","suffix":".png"},"primary":true}],"verified":false,"stats":{"checkinsCount":1033,"usersCount":764,"tipCount":4},"venueRatingBlacklisted":true,"allowMenuUrlEdit":true,"beenHere":{"lastCheckinExpiredAt":0},"specials":{"count":0,"items":[]},"referralId":"v-1483291026","venueChains":[],"hasPerk":false},{"id":"4a9b170bf964a520593420e3","name":"Nunzio's Kitchen","contact":{"phone":"7327271060","formattedPhone":"(732) 727-1060","twitter":"NunziosKitchen","facebook":"121022634615773","facebookUsername":"NunziosItalianKitchen","facebookName":"Nunzios Italian Kitchen"},"location":{"address":"521 Raritan St","crossStreet":"Raritan Shopping Ctr","lat":40.47839019941195,"lng":-74.29618120193481,"labeledLatLngs":[{"label":"display","lat":40.47839019941195,"lng":-74.29618120193481}],"postalCode":"08872","cc":"US","city":"Sayreville","state":"NJ","country":"United States","formattedAddress":["521 Raritan St (Raritan Shopping Ctr)","Sayreville, NJ 08872","United States"]},"categories":[{"id":"4bf58dd8d48988d110941735","name":"Italian Restaurant","pluralName":"Italian Restaurants","shortName":"Italian","icon":{"prefix":"https:\/\/ss3.4sqi.net\/img\/categories_v2\/food\/italian_","suffix":".png"},"primary":true}],"verified":true,"stats":{"checkinsCount":1949,"usersCount":651,"tipCount":48},"url":"http:\/\/www.nunziosmenu.com","menu":{"type":"Menu","label":"Menu","anchor":"View Menu","url":"http:\/\/www.nunziosmenu.com\/Menu.html","mobileUrl":"http:\/\/www.nunziosmenu.com\/Menu.html","externalUrl":"http:\/\/www.nunziosmenu.com\/Menu.html"},"allowMenuUrlEdit":true,"beenHere":{"lastCheckinExpiredAt":0},"specials":{"count":0,"items":[]},"storeId":"","referralId":"v-1483291026","venueChains":[],"hasPerk":false},{"id":"4d94a930cf46224bebec9994","name":"Houlihan's Restaurant & Bar","contact":{"phone":"7322051900","formattedPhone":"(732) 205-1900","twitter":"houlihans"},"location":{"address":"65 US Highway 1","lat":40.54822744507192,"lng":-74.32622194290161,"labeledLatLngs":[{"label":"display","lat":40.54822744507192,"lng":-74.32622194290161}],"postalCode":"08840","cc":"US","city":"Metuchen","state":"NJ","country":"United States","formattedAddress":["65 US Highway 1","Metuchen, NJ 08840","United States"]},"categories":[{"id":"4bf58dd8d48988d14e941735","name":"American Restaurant","pluralName":"American Restaurants","shortName":"American","icon":{"prefix":"https:\/\/ss3.4sqi.net\/img\/categories_v2\/food\/default_","suffix":".png"},"primary":true}],"verified":true,"stats":{"checkinsCount":4359,"usersCount":1986,"tipCount":34},"url":"http:\/\/www.houlihans.com","hasMenu":true,"menu":{"type":"Menu","label":"Menu","anchor":"View Menu","url":"https:\/\/foursquare.com\/v\/houlihans-restaurant--bar\/4d94a930cf46224bebec9994\/menu","mobileUrl":"https:\/\/foursquare.com\/v\/4d94a930cf46224bebec9994\/device_menu"},"allowMenuUrlEdit":true,"beenHere":{"lastCheckinExpiredAt":0},"specials":{"count":0,"items":[]},"storeId":"","referralId":"v-1483291026","venueChains":[{"id":"556a2b49a7c8957d73d3b630"}],"hasPerk":false},{"id":"4b71f184f964a520ac652de3","name":"Dunkin Donuts","contact":{"phone":"7327385193","formattedPhone":"(732) 738-5193","twitter":"dunkindonuts","facebook":"6979393237","facebookUsername":"DunkinDonutsUS","facebookName":"Dunkin' Donuts"},"location":{"address":"583 New Brunswick Ave","lat":40.528713852811286,"lng":-74.31614371818675,"labeledLatLngs":[{"label":"display","lat":40.528713852811286,"lng":-74.31614371818675}],"postalCode":"08863","cc":"US","city":"Fords","state":"NJ","country":"United States","formattedAddress":["583 New Brunswick Ave","Fords, NJ 08863","United States"]},"categories":[{"id":"4bf58dd8d48988d148941735","name":"Donut Shop","pluralName":"Donut Shops","shortName":"Donuts","icon":{"prefix":"https:\/\/ss3.4sqi.net\/img\/categories_v2\/food\/donuts_","suffix":".png"},"primary":true}],"verified":true,"stats":{"checkinsCount":2688,"usersCount":552,"tipCount":6},"url":"http:\/\/www.dunkindonuts.com","allowMenuUrlEdit":true,"beenHere":{"lastCheckinExpiredAt":0},"specials":{"count":0,"items":[]},"storeId":"301299","referralId":"v-1483291026","venueChains":[{"id":"556f676fbd6a75a99038d8f0"}],"hasPerk":false},{"id":"583205d801f4330b38058b99","name":"Cheek's Chicken & Waffles","contact":{},"location":{"address":"873 King George Rd","crossStreet":"Amboy Avenue","lat":40.529232,"lng":-74.315905,"labeledLatLngs":[{"label":"display","lat":40.529232,"lng":-74.315905}],"postalCode":"08863","cc":"US","city":"Fords","state":"NJ","country":"United States","formattedAddress":["873 King George Rd (Amboy Avenue)","Fords, NJ 08863","United States"]},"categories":[{"id":"4d4ae6fc7a7b7dea34424761","name":"Fried Chicken Joint","pluralName":"Fried Chicken Joints","shortName":"Fried Chicken","icon":{"prefix":"https:\/\/ss3.4sqi.net\/img\/categories_v2\/food\/friedchicken_","suffix":".png"},"primary":true}],"verified":false,"stats":{"checkinsCount":17,"usersCount":13,"tipCount":0},"allowMenuUrlEdit":true,"beenHere":{"lastCheckinExpiredAt":0},"specials":{"count":0,"items":[]},"referralId":"v-1483291026","venueChains":[],"hasPerk":false},{"id":"4d2cd264fd2e236a5603ebde","name":"Daisy's Grocery","contact":{},"location":{"address":"490 Amboy Ave","crossStreet":"Laurie St.","lat":40.518445912469,"lng":-74.27576197576848,"labeledLatLngs":[{"label":"display","lat":40.518445912469,"lng":-74.27576197576848}],"postalCode":"08861","cc":"US","city":"Perth Amboy","state":"NJ","country":"United States","formattedAddress":["490 Amboy Ave (Laurie St.)","Perth Amboy, NJ 08861","United States"]},"categories":[{"id":"4bf58dd8d48988d146941735","name":"Deli \/ Bodega","pluralName":"Delis \/ Bodegas","shortName":"Deli \/ Bodega","icon":{"prefix":"https:\/\/ss3.4sqi.net\/img\/categories_v2\/food\/deli_","suffix":".png"},"primary":true}],"verified":false,"stats":{"checkinsCount":86,"usersCount":20,"tipCount":1},"allowMenuUrlEdit":true,"beenHere":{"lastCheckinExpiredAt":0},"specials":{"count":0,"items":[]},"referralId":"v-1483291026","venueChains":[],"hasPerk":false},{"id":"4b919874f964a5206cc833e3","name":"Yoshi","contact":{"phone":"7328557888","formattedPhone":"(732) 855-7888"},"location":{"address":"405 Pearl St","lat":40.5557825392464,"lng":-74.27822020158231,"labeledLatLngs":[{"label":"display","lat":40.5557825392464,"lng":-74.27822020158231}],"postalCode":"07095","cc":"US","city":"Woodbridge","state":"NJ","country":"United States","formattedAddress":["405 Pearl St","Woodbridge, NJ 07095","United States"]},"categories":[{"id":"4bf58dd8d48988d111941735","name":"Japanese Restaurant","pluralName":"Japanese Restaurants","shortName":"Japanese","icon":{"prefix":"https:\/\/ss3.4sqi.net\/img\/categories_v2\/food\/japanese_","suffix":".png"},"primary":true}],"verified":false,"stats":{"checkinsCount":598,"usersCount":228,"tipCount":14},"url":"http:\/\/www.yoshi4u.com","hasMenu":true,"menu":{"type":"Menu","label":"Menu","anchor":"View Menu","url":"https:\/\/foursquare.com\/v\/yoshi\/4b919874f964a5206cc833e3\/menu","mobileUrl":"https:\/\/foursquare.com\/v\/4b919874f964a5206cc833e3\/device_menu"},"allowMenuUrlEdit":true,"beenHere":{"lastCheckinExpiredAt":0},"specials":{"count":0,"items":[]},"referralId":"v-1483291026","venueChains":[],"hasPerk":false},{"id":"5279b03e11d2f9d67f01a76b","name":"Yo-Delight","contact":{"phone":"7325826130","formattedPhone":"(732) 582-6130"},"location":{"address":"82 Main St","lat":40.554347107308125,"lng":-74.27992776081973,"labeledLatLngs":[{"label":"display","lat":40.554347107308125,"lng":-74.27992776081973}],"postalCode":"07095","cc":"US","city":"Woodbridge","state":"NJ","country":"United States","formattedAddress":["82 Main St","Woodbridge, NJ 07095","United States"]},"categories":[{"id":"512e7cae91d4cbb4e5efe0af","name":"Frozen Yogurt Shop","pluralName":"Frozen Yogurt Shops","shortName":"Yogurt","icon":{"prefix":"https:\/\/ss3.4sqi.net\/img\/categories_v2\/food\/frozenyogurt_","suffix":".png"},"primary":true}],"verified":true,"stats":{"checkinsCount":144,"usersCount":70,"tipCount":3},"url":"http:\/\/yodelightwoodbridge.com","hasMenu":true,"menu":{"type":"Menu","label":"Menu","anchor":"View Menu","url":"https:\/\/foursquare.com\/v\/yodelight\/5279b03e11d2f9d67f01a76b\/menu","mobileUrl":"https:\/\/foursquare.com\/v\/5279b03e11d2f9d67f01a76b\/device_menu"},"allowMenuUrlEdit":true,"beenHere":{"lastCheckinExpiredAt":0},"specials":{"count":0,"items":[]},"venuePage":{"id":"92061972"},"referralId":"v-1483291026","venueChains":[],"hasPerk":false},{"id":"4be58c59d4f7c9b684832520","name":"Big Wally's Subs","contact":{"phone":"7327219414","formattedPhone":"(732) 721-9414"},"location":{"address":"3322 Washington Rd","lat":40.47055108054589,"lng":-74.3023537449183,"labeledLatLngs":[{"label":"display","lat":40.47055108054589,"lng":-74.3023537449183}],"postalCode":"08859","cc":"US","city":"Parlin","state":"NJ","country":"United States","formattedAddress":["3322 Washington Rd","Parlin, NJ 08859","United States"]},"categories":[{"id":"4bf58dd8d48988d1c5941735","name":"Sandwich Place","pluralName":"Sandwich Places","shortName":"Sandwiches","icon":{"prefix":"https:\/\/ss3.4sqi.net\/img\/categories_v2\/food\/deli_","suffix":".png"},"primary":true}],"verified":false,"stats":{"checkinsCount":860,"usersCount":310,"tipCount":18},"allowMenuUrlEdit":true,"beenHere":{"lastCheckinExpiredAt":0},"specials":{"count":0,"items":[]},"referralId":"v-1483291026","venueChains":[],"hasPerk":false},{"id":"4bbf8f2f461576b080c27832","name":"Taco Bell","contact":{"phone":"7328261774","formattedPhone":"(732) 826-1774"},"location":{"address":"366 Convery Blvd","crossStreet":"Fayette St","lat":40.51591983557591,"lng":-74.28637504577637,"labeledLatLngs":[{"label":"display","lat":40.51591983557591,"lng":-74.28637504577637}],"postalCode":"08861","cc":"US","city":"Perth Amboy","state":"NJ","country":"United States","formattedAddress":["366 Convery Blvd (Fayette St)","Perth Amboy, NJ 08861","United States"]},"categories":[{"id":"4bf58dd8d48988d16e941735","name":"Fast Food Restaurant","pluralName":"Fast Food Restaurants","shortName":"Fast Food","icon":{"prefix":"https:\/\/ss3.4sqi.net\/img\/categories_v2\/food\/fastfood_","suffix":".png"},"primary":true}],"verified":true,"stats":{"checkinsCount":679,"usersCount":272,"tipCount":4},"url":"http:\/\/www.tacobell.com","hasMenu":true,"menu":{"type":"Menu","label":"Menu","anchor":"View Menu","url":"https:\/\/foursquare.com\/v\/taco-bell\/4bbf8f2f461576b080c27832\/menu","mobileUrl":"https:\/\/foursquare.com\/v\/4bbf8f2f461576b080c27832\/device_menu"},"allowMenuUrlEdit":true,"beenHere":{"lastCheckinExpiredAt":0},"specials":{"count":0,"items":[]},"storeId":"298570","referralId":"v-1483291026","venueChains":[{"id":"556f46f6bd6a007c77390fac"}],"hasPerk":false},{"id":"4ff5fc6e8302d7f3f26ac539","name":"7-Eleven","contact":{"phone":"7327380296","formattedPhone":"(732) 738-0296","twitter":"7eleven","facebook":"530485920326801","facebookUsername":"7ElevenEdison34591","facebookName":"7-Eleven"},"location":{"address":"592 Amboy Ave","lat":40.529446846456686,"lng":-74.31636915669736,"labeledLatLngs":[{"label":"display","lat":40.529446846456686,"lng":-74.31636915669736}],"postalCode":"08837","cc":"US","city":"Edison","state":"NJ","country":"United States","formattedAddress":["592 Amboy Ave","Edison, NJ 08837","United States"]},"categories":[{"id":"4d954b0ea243a5684a65b473","name":"Convenience Store","pluralName":"Convenience Stores","shortName":"Convenience Store","icon":{"prefix":"https:\/\/ss3.4sqi.net\/img\/categories_v2\/shops\/conveniencestore_","suffix":".png"},"primary":true}],"verified":true,"stats":{"checkinsCount":596,"usersCount":103,"tipCount":1},"url":"http:\/\/www.7-eleven.com","allowMenuUrlEdit":true,"beenHere":{"lastCheckinExpiredAt":0},"specials":{"count":0,"items":[]},"referralId":"v-1483291026","venueChains":[{"id":"556f676fbd6a75a99038d8e9"}],"hasPerk":false}]}}