{"meta":{"code":200,"requestId":"5869398f6a607107cf63b67c"},"response":{"venues":[{"id":"4bb53540f562ef3b85ac2e97","name":"Andrew's Diner","contact":{"phone":"7189488544","formattedPhone":"(718) 948-8544"},"location":{"address":"4160 Hylan Blvd","lat":40.538317392511445,"lng":-74.14927649645271,"labeledLatLngs":[{"label":"display","lat":40.538317392511445,"lng":-74.14927649645271}],"postalCode":"10308","cc":"US","city":"Staten Island","state":"NY","country":"United States","formattedAddress":["4160 Hylan Blvd","Staten Island, NY 10308","United States"]},"categories":[{"id":"4bf58dd8d48988d147941735","name":"Diner","pluralName":"Diners","shortName":"Diner","icon":{"prefix":"https:\/\/ss3.4sqi.net\/img\/categories_v2\/food\/diner_","suffix":".png"},"primary":true}],"verified":false,"stats":{"checkinsCount":1113,"usersCount":486,"tipCount":18},"url":"http:\/\/andrewsdiner.com","hasMenu":true,"menu":{"type":"Menu","label":"Menu","anchor":"View Menu","url":"https:\/\/foursquare.com\/v\/andrews-diner\/4bb53540f562ef3b85ac2e97\/menu","mobileUrl":"https:\/\/foursquare.com\/v\/4bb53540f562ef3b85ac2e97\/device_menu"},"allowMenuUrlEdit":true,"beenHere":{"lastCheckinExpiredAt":0},"specials":{"count":0,"items":[]},"referralId":"v-1483291023","venueChains":[],"hasPerk":false},{"id":"519e90cc498e04e115fd94ad","name":"Genki Sushi","contact":{"phone":"7189661155","formattedPhone":"(718) 966-1155"},"location":{"address":"150 Greaves Ln","crossStreet":"Amboy Rd","lat":40.553624,"lng":-74.142899,"labeledLatLngs":[{"label":"display","lat":40.553624,"lng":-74.142899}],"postalCode":"10308","cc":"US","city":"Staten Island","state":"NY","country":"United States","formattedAddress":["150 Greaves Ln (Amboy Rd)","Staten Island, NY 10308","United States"]},"categories":[{"id":"4bf58dd8d48988d1d2941735","name":"Sushi Restaurant","pluralName":"Sushi Restaurants","shortName":"Sushi","icon":{"prefix":"https:\/\/ss3.4sqi.net\/img\/categories_v2\/food\/sushi_","suffix":".png"},"primary":true}],"verified":false,"stats":{"checkinsCount":430,"usersCount":72,"tipCount":8},"allowMenuUrlEdit":true,"beenHere":{"lastCheckinExpiredAt":0},"specials":{"count":0,"items":[]},"referralId":"v-1483291023","venueChains":[],"hasPerk":false},{"id":"4db465dccda1c57c825ac8cb","name":"Dunkin' Donuts","contact":{"phone":"7189667111","formattedPhone":"(718) 966-7111","twitter":"dunkindonuts","facebook":"6979393237","facebookUsername":"DunkinDonutsUS","facebookName":"Dunkin' Donuts"},"location":{"address":"150-B Greaves Lane Pathmark Center","lat":40.55410594584239,"lng":-74.14342188402145,"labeledLatLngs":[{"label":"display","lat":40.55410594584239,"lng":-74.14342188402145}],"postalCode":"10308","cc":"US","city":"Staten Island","state":"NY","country":"United States","formattedAddress":["150-B Greaves Lane Pathmark Center","Staten Island, NY 10308","United States"]},"categories":[{"id":"4bf58dd8d48988d148941735","name":"Donut Shop","pluralName":"Donut Shops","shortName":"Donuts","icon":{"prefix":"https:\/\/ss3.4sqi.net\/img\/categories_v2\/food\/donuts_","suffix":".png"},"primary":true}],"verified":true,"stats":{"checkinsCount":658,"usersCount":199,"tipCount":1},"url":"http:\/\/www.dunkindonuts.com","allowMenuUrlEdit":true,"beenHere":{"lastCheckinExpiredAt":0},"specials":{"count":0,"items":[]},"storeId":"337640","referralId":"v-1483291023","venueChains":[{"id":"556f676fbd6a75a99038d8f0"}],"hasPerk":false},{"id":"4b7b1e95f964a52086522fe3","name":"Dunkin Donuts","contact":{"phone":"7189675744","formattedPhone":"(718) 967-5744","twitter":"dunkindonuts","facebook":"6979393237","facebookUsername":"DunkinDonutsUS","facebookName":"Dunkin' Donuts"},"location":{"address":"4000 Hylan Blvd","crossStreet":"at Nelson Ave.","lat":40.54185707563956,"lng":-74.1461399150062,"labeledLatLngs":[{"label":"display","lat":40.54185707563956,"lng":-74.1461399150062}],"postalCode":"10308","cc":"US","city":"Staten Island","state":"NY","country":"United States","formattedAddress":["4000 Hylan Blvd (at Nelson Ave.)","Staten Island, NY 10308","United States"]},"categories":[{"id":"4bf58dd8d48988d148941735","name":"Donut Shop","pluralName":"Donut Shops","shortName":"Donuts","icon":{"prefix":"https:\/\/ss3.4sqi.net\/img\/categories_v2\/food\/donuts_","suffix":".png"},"primary":true}],"verified":true,"stats":{"checkinsCount":616,"usersCount":235,"tipCount":7},"url":"http:\/\/www.dunkindonuts.com","hasMenu":true,"menu":{"type":"Menu","label":"Menu","anchor":"View Menu","url":"https:\/\/foursquare.com\/v\/dunkin-donuts\/4b7b1e95f964a52086522fe3\/menu","mobileUrl":"https:\/\/foursquare.com\/v\/4b7b1e95f964a52086522fe3\/device_menu"},"allowMenuUrlEdit":true,"beenHere":{"lastCheckinExpiredAt":0},"specials":{"count":0,"items":[]},"storeId":"337641","referralId":"v-1483291023","venueChains":[{"id":"556f676fbd6a75a99038d8f0"}],"hasPerk":false},{"id":"5632957b498e0e665eaecc0e","name":"Capizzi","contact":{"phone":"7185693180","formattedPhone":"(718) 569-3180"},"location":{"address":"4126 Hylan Blvd","lat":40.53901450497981,"lng":-74.14856546616265,"labeledLatLngs":[{"label":"display","lat":40.53901450497981,"lng":-74.14856546616265}],"postalCode":"10308","cc":"US","city":"Staten Island","state":"NY","country":"United States","formattedAddress":["4126 Hylan Blvd","Staten Island, NY 10308","United States"]},"categories":[{"id":"4bf58dd8d48988d110941735","name":"Italian Restaurant","pluralName":"Italian Restaurants","shortName":"Italian","icon":{"prefix":"https:\/\/ss3.4sqi.net\/img\/categories_v2\/food\/italian_","suffix":".png"},"primary":true}],"verified":false,"stats":{"checkinsCount":35,"usersCount":32,"tipCount":3},"allowMenuUrlEdit":true,"beenHere":{"lastCheckinExpiredAt":0},"specials":{"count":0,"items":[]},"referralId":"v-1483291023","venueChains":[],"hasPerk":false},{"id":"4bd0cff6046076b0ecc37071","name":"Richmond Bagels And Deli","contact":{"phone":"3216344865","formattedPhone":"(321) 634-4865"},"location":{"address":"hylan blvd","crossStreet":"groton street","lat":40.53657204495935,"lng":-74.15100245385392,"labeledLatLngs":[{"label":"display","lat":40.53657204495935,"lng":-74.15100245385392}],"postalCode":"10312","cc":"US","city":"Staten Island","state":"NY","country":"United States","formattedAddress":["hylan blvd (groton street)","Staten Island, NY 10312","United States"]},"categories":[{"id":"4bf58dd8d48988d179941735","name":"Bagel Shop","pluralName":"Bagel Shops","shortName":"Bagels","icon":{"prefix":"https:\/\/ss3.4sqi.net\/img\/categories_v2\/food\/bagels_","suffix":".png"},"primary":true}],"verified":false,"stats":{"checkinsCount":152,"usersCount":74,"tipCount":0},"allowMenuUrlEdit":true,"beenHere":{"lastCheckinExpiredAt":0},"specials":{"count":0,"items":[]},"referralId":"v-1483291023","venueChains":[],"hasPerk":false},{"id":"4b747a21f964a520e6de2de3","name":"Arirang Hibachi Steakhouse","contact":{"phone":"7189669600","formattedPhone":"(718) 966-9600"},"location":{"address":"23 Nelson Ave","crossStreet":"at Locust Pl","lat":40.54963044368544,"lng":-74.1500907374847,"labeledLatLngs":[{"label":"display","lat":40.54963044368544,"lng":-74.1500907374847}],"postalCode":"10308","cc":"US","city":"Staten Island","state":"NY","country":"United States","formattedAddress":["23 Nelson Ave (at Locust Pl)","Staten Island, NY 10308","United States"]},"categories":[{"id":"4bf58dd8d48988d111941735","name":"Japanese Restaurant","pluralName":"Japanese Restaurants","shortName":"Japanese","icon":{"prefix":"https:\/\/ss3.4sqi.net\/img\/categories_v2\/food\/japanese_","suffix":".png"},"primary":true}],"verified":true,"stats":{"checkinsCount":1618,"usersCount":898,"tipCount":9},"url":"http:\/\/www.partyonthegrill.com","allowMenuUrlEdit":true,"beenHere":{"lastCheckinExpiredAt":0},"specials":{"count":0,"items":[]},"venuePage":{"id":"32880204"},"referralId":"v-1483291023","venueChains":[],"hasPerk":false},{"id":"4ba4ff31f964a5201cce38e3","name":"Marina Cafe","contact":{"phone":"7189673077","formattedPhone":"(718) 967-3077","twitter":"marinacafesi"},"location":{"address":"154 Mansion Ave","lat":40.54379,"lng":-74.14054481,"labeledLatLngs":[{"label":"display","lat":40.54379,"lng":-74.14054481}],"postalCode":"10308","cc":"US","city":"Staten Island","state":"NY","country":"United States","formattedAddress":["154 Mansion Ave","Staten Island, NY 10308","United States"]},"categories":[{"id":"4bf58dd8d48988d14e941735","name":"American Restaurant","pluralName":"American Restaurants","shortName":"American","icon":{"prefix":"https:\/\/ss3.4sqi.net\/img\/categories_v2\/food\/default_","suffix":".png"},"primary":true}],"verified":false,"stats":{"checkinsCount":1283,"usersCount":829,"tipCount":13},"url":"http:\/\/marinacafesi.com","allowMenuUrlEdit":true,"beenHere":{"lastCheckinExpiredAt":0},"specials":{"count":0,"items":[]},"referralId":"v-1483291023","venueChains":[],"hasPerk":false},{"id":"4d9cb4ef8efaa14350e753b7","name":"Giulliana's Restaurant","contact":{"phone":"7183178507","formattedPhone":"(718) 317-8507"},"location":{"address":"4105 Hylan Blvd","lat":40.53977201808033,"lng":-74.14843931534398,"labeledLatLngs":[{"label":"display","lat":40.53977201808033,"lng":-74.14843931534398}],"postalCode":"10308","cc":"US","city":"Staten Island","state":"NY","country":"United States","formattedAddress":["4105 Hylan Blvd","Staten Island, NY 10308","United States"]},"categories":[{"id":"4bf58dd8d48988d110941735","name":"Italian Restaurant","pluralName":"Italian Restaurants","shortName":"Italian","icon":{"prefix":"https:\/\/ss3.4sqi.net\/img\/categories_v2\/food\/italian_","suffix":".png"},"primary":true}],"verified":false,"stats":{"checkinsCount":159,"usersCount":113,"tipCount":6},"hasMenu":true,"menu":{"type":"Menu","label":"Menu","anchor":"View Menu","url":"https:\/\/foursquare.com\/v\/giullianas-restaurant\/4d9cb4ef8efaa14350e753b7\/menu","mobileUrl":"https:\/\/foursquare.com\/v\/4d9cb4ef8efaa14350e753b7\/device_menu"},"allowMenuUrlEdit":true,"beenHere":{"lastCheckinExpiredAt":0},"specials":{"count":0,"items":[]},"referralId":"v-1483291023","venueChains":[],"hasPerk":false},{"id":"4c2e581fa0ced13a07ad0e6e","name":"Ralph's Italian Ices","contact":{"phone":"7186055052","formattedPhone":"(718) 605-5052","twitter":"ralphsfamous"},"location":{"address":"4212 Hylan Blvd","lat":40.537219,"lng":-74.150036,"labeledLatLngs":[{"label":"display","lat":40.537219,"lng":-74.150036}],"postalCode":"10308","cc":"US","city":"Staten Island","state":"NY","country":"United States","formattedAddress":["4212 Hylan Blvd","Staten Island, NY 10308","United States"]},"categories":[{"id":"4bf58dd8d48988d1c9941735","name":"Ice Cream Shop","pluralName":"Ice Cream Shops","shortName":"Ice Cream","icon":{"prefix":"https:\/\/ss3.4sqi.net\/img\/categories_v2\/food\/icecream_","suffix":".png"},"primary":true}],"verified":false,"stats":{"checkinsCount":340,"usersCount":217,"tipCount":4},"url":"http:\/\/ralphsices.com","allowMenuUrlEdit":true,"beenHere":{"lastCheckinExpiredAt":0},"specials":{"count":0,"items":[]},"referralId":"v-1483291023","venueChains":[],"hasPerk":false},{"id":"4bb67d032ea1952182c4ab2f","name":"Village Maria","contact":{},"location":{"address":"3995 Amboy Rd","lat":40.550262950764875,"lng":-74.15084190035158,"labeledLatLngs":[{"label":"display","lat":40.550262950764875,"lng":-74.15084190035158}],"postalCode":"10308","cc":"US","city":"Staten Island","state":"NY","country":"United States","formattedAddress":["3995 Amboy Rd","Staten Island, NY 10308","United States"]},"categories":[{"id":"4bf58dd8d48988d1ca941735","name":"Pizza Place","pluralName":"Pizza Places","shortName":"Pizza","icon":{"prefix":"https:\/\/ss3.4sqi.net\/img\/categories_v2\/food\/pizza_","suffix":".png"},"primary":true}],"verified":false,"stats":{"checkinsCount":103,"usersCount":56,"tipCount":3},"allowMenuUrlEdit":true,"beenHere":{"lastCheckinExpiredAt":0},"specials":{"count":0,"items":[]},"referralId":"v-1483291023","venueChains":[],"hasPerk":false},{"id":"4c1d0646fcf8c9b67004ab0b","name":"Portobello Cafe","contact":{"phone":"7183562233","formattedPhone":"(718) 356-2233","facebook":"58353029425","facebookUsername":"portobellocafe","facebookName":"Portobello Cafe"},"location":{"address":"4221 Hylan Blvd","crossStreet":"Robinson Ave","lat":40.537244,"lng":-74.150665,"labeledLatLngs":[{"label":"display","lat":40.537244,"lng":-74.150665}],"postalCode":"10308","cc":"US","city":"Staten Island","state":"NY","country":"United States","formattedAddress":["4221 Hylan Blvd (Robinson Ave)","Staten Island, NY 10308","United States"]},"categories":[{"id":"4bf58dd8d48988d110941735","name":"Italian Restaurant","pluralName":"Italian Restaurants","shortName":"Italian","icon":{"prefix":"https:\/\/ss3.4sqi.net\/img\/categories_v2\/food\/italian_","suffix":".png"},"primary":true}],"verified":true,"stats":{"checkinsCount":774,"usersCount":454,"tipCount":686},"url":"http:\/\/www.portobellocafesi.com","hasMenu":true,"menu":{"type":"Menu","label":"Menu","anchor":"View Menu","url":"https:\/\/foursquare.com\/v\/portobello-cafe\/4c1d0646fcf8c9b67004ab0b\/menu","mobileUrl":"https:\/\/foursquare.com\/v\/4c1d0646fcf8c9b67004ab0b\/device_menu"},"allowMenuUrlEdit":true,"beenHere":{"lastCheckinExpiredAt":0},"specials":{"count":0,"items":[]},"venuePage":{"id":"53222394"},"storeId":"","referralId":"v-1483291023","venueChains":[],"hasPerk":false},{"id":"517dbe77e4b0eef580c875a3","name":"Piccolino's italian Restaurant","contact":{"facebook":"412101868843480","facebookUsername":"PiccolinoStatenIsland","facebookName":"Piccolino II Staten Island"},"location":{"address":"3935 Amboy Rd","lat":40.55122902298905,"lng":-74.1498269696527,"labeledLatLngs":[{"label":"display","lat":40.55122902298905,"lng":-74.1498269696527}],"postalCode":"10308","cc":"US","city":"Staten Island","state":"NY","country":"United States","formattedAddress":["3935 Amboy Rd","Staten Island, NY 10308","United States"]},"categories":[{"id":"4bf58dd8d48988d110941735","name":"Italian Restaurant","pluralName":"Italian Restaurants","shortName":"Italian","icon":{"prefix":"https:\/\/ss3.4sqi.net\/img\/categories_v2\/food\/italian_","suffix":".png"},"primary":true}],"verified":false,"stats":{"checkinsCount":79,"usersCount":46,"tipCount":1},"allowMenuUrlEdit":true,"beenHere":{"lastCheckinExpiredAt":0},"specials":{"count":0,"items":[]},"referralId":"v-1483291023","venueChains":[],"hasPerk":false},{"id":"4f9eedbee4b0f1efa9df6933","name":"Standard Burger","contact":{"phone":"7183172333","formattedPhone":"(718) 317-2333","facebook":"212221808905732","facebookUsername":"StandardBurger","facebookName":"Standard Burger"},"location":{"address":"4115 Hylan Blvd","lat":40.53951738261954,"lng":-74.14882350166216,"labeledLatLngs":[{"label":"display","lat":40.53951738261954,"lng":-74.14882350166216}],"postalCode":"10308","cc":"US","city":"Staten Island","state":"NY","country":"United States","formattedAddress":["4115 Hylan Blvd","Staten Island, NY 10308","United States"]},"categories":[{"id":"4bf58dd8d48988d16c941735","name":"Burger Joint","pluralName":"Burger Joints","shortName":"Burgers","icon":{"prefix":"https:\/\/ss3.4sqi.net\/img\/categories_v2\/food\/burger_","suffix":".png"},"primary":true}],"verified":true,"stats":{"checkinsCount":503,"usersCount":283,"tipCount":23},"url":"http:\/\/www.standardburgers.com\/site\/","hasMenu":true,"delivery":{"id":"286564","url":"http:\/\/www.grubhub.com\/order_redir.jsp?custId=286564&affId=1131","provider":{"name":"grubhub"}},"menu":{"type":"Menu","label":"Menu","anchor":"View Menu","url":"http:\/\/www.standardburgers.com\/pages\/menu","mobileUrl":"http:\/\/www.standardburgers.com\/pages\/menu","externalUrl":"http:\/\/www.standardburgers.com\/pages\/menu"},"allowMenuUrlEdit":true,"beenHere":{"lastCheckinExpiredAt":0},"specials":{"count":0,"items":[]},"venuePage":{"id":"44043618"},"storeId":"","referralId":"v-1483291023","venueChains":[],"hasPerk":false},{"id":"4c9bea5954c8a1cd97b3754b","name":"La Candela Espanola","contact":{"phone":"7183568798","formattedPhone":"(718) 356-8798"},"location":{"address":"3921 Amboy Rd","lat":40.55154743752737,"lng":-74.14935103979374,"labeledLatLngs":[{"label":"display","lat":40.55154743752737,"lng":-74.14935103979374}],"postalCode":"10308","cc":"US","city":"Staten Island","state":"NY","country":"United States","formattedAddress":["3921 Amboy Rd","Staten Island, NY 10308","United States"]},"categories":[{"id":"4bf58dd8d48988d150941735","name":"Spanish Restaurant","pluralName":"Spanish Restaurants","shortName":"Spanish","icon":{"prefix":"https:\/\/ss3.4sqi.net\/img\/categories_v2\/food\/spanish_","suffix":".png"},"primary":true}],"verified":true,"stats":{"checkinsCount":367,"usersCount":243,"tipCount":9},"url":"http:\/\/www.LaCandelaEspanola.com","hasMenu":true,"menu":{"type":"Menu","label":"Menu","anchor":"View Menu","url":"https:\/\/foursquare.com\/v\/la-candela-espanola\/4c9bea5954c8a1cd97b3754b\/menu","mobileUrl":"https:\/\/foursquare.com\/v\/4c9bea5954c8a1cd97b3754b\/device_menu"},"allowMenuUrlEdit":true,"beenHere":{"lastCheckinExpiredAt":0},"specials":{"count":0,"items":[]},"storeId":"","referralId":"v-1483291023","venueChains":[],"hasPerk":false},{"id":"5467f745498ef31d10ea08a3","name":"Villa Paradiso","contact":{},"location":{"address":"145 Greaves Ln","lat":40.55395910122833,"lng":-74.14333013544902,"labeledLatLngs":[{"label":"display","lat":40.55395910122833,"lng":-74.14333013544902}],"postalCode":"10308","cc":"US","city":"Staten Island","state":"NY","country":"United States","formattedAddress":["145 Greaves Ln","Staten Island, NY 10308","United States"]},"categories":[{"id":"4bf58dd8d48988d110941735","name":"Italian Restaurant","pluralName":"Italian Restaurants","shortName":"Italian","icon":{"prefix":"https:\/\/ss3.4sqi.net\/img\/categories_v2\/food\/italian_","suffix":".png"},"primary":true}],"verified":false,"stats":{"checkinsCount":30,"usersCount":17,"tipCount":1},"allowMenuUrlEdit":true,"beenHere":{"lastCheckinExpiredAt":0},"specials":{"count":0,"items":[]},"referralId":"v-1483291023","venueChains":[],"hasPerk":false},{"id":"4bf9b76f5efe2d7f8bb96c34","name":"Marina Grand","contact":{"phone":"7186059200","formattedPhone":"(718) 605-9200"},"location":{"address":"141 Mansion Ave","lat":40.544703982827855,"lng":-74.14069234469643,"labeledLatLngs":[{"label":"display","lat":40.544703982827855,"lng":-74.14069234469643}],"postalCode":"10308","cc":"US","city":"Staten Island","state":"NY","country":"United States","formattedAddress":["141 Mansion Ave","Staten Island, NY 10308","United States"]},"categories":[{"id":"4bf58dd8d48988d1ce941735","name":"Seafood Restaurant","pluralName":"Seafood Restaurants","shortName":"Seafood","icon":{"prefix":"https:\/\/ss3.4sqi.net\/img\/categories_v2\/food\/seafood_","suffix":".png"},"primary":true}],"verified":false,"stats":{"checkinsCount":295,"usersCount":253,"tipCount":3},"url":"http:\/\/marinacafegrand.com","hasMenu":true,"menu":{"type":"Menu","label":"Menu","anchor":"View Menu","url":"https:\/\/foursquare.com\/v\/marina-grand\/4bf9b76f5efe2d7f8bb96c34\/menu","mobileUrl":"https:\/\/foursquare.com\/v\/4bf9b76f5efe2d7f8bb96c34\/device_menu"},"allowMenuUrlEdit":true,"beenHere":{"lastCheckinExpiredAt":0},"specials":{"count":0,"items":[]},"referralId":"v-1483291023","venueChains":[],"hasPerk":false},{"id":"516e9c27f31cc8e0b5c074af","name":"Bungalow 18","contact":{"phone":"7186050018","formattedPhone":"(718) 605-0018","twitter":"bungy18"},"location":{"address":"18 Nelson Ave","crossStreet":"At Amboy Rd","lat":40.54946659887061,"lng":-74.15078401565552,"labeledLatLngs":[{"label":"display","lat":40.54946659887061,"lng":-74.15078401565552}],"postalCode":"10308","cc":"US","city":"Staten Island","state":"NY","country":"United States","formattedAddress":["18 Nelson Ave (At Amboy Rd)","Staten Island, NY 10308","United States"]},"categories":[{"id":"4bf58dd8d48988d116941735","name":"Bar","pluralName":"Bars","shortName":"Bar","icon":{"prefix":"https:\/\/ss3.4sqi.net\/img\/categories_v2\/nightlife\/pub_","suffix":".png"},"primary":true}],"verified":true,"stats":{"checkinsCount":291,"usersCount":115,"tipCount":6},"url":"http:\/\/www.bungalow-18.com","allowMenuUrlEdit":true,"beenHere":{"lastCheckinExpiredAt":0},"specials":{"count":0,"items":[]},"venuePage":{"id":"53698510"},"referralId":"v-1483291023","venueChains":[],"hasPerk":false}]}}