{"meta":{"code":200,"requestId":"58693990f594df188c9c6391"},"response":{"venues":[{"id":"51911bd3498e7bdd28595e25","name":"Starbucks","contact":{"phone":"7183561090","formattedPhone":"(718) 356-1090","twitter":"starbucks","facebook":"22092443056","facebookUsername":"Starbucks","facebookName":"Starbucks"},"location":{"address":"106 Page Ave","crossStreet":"at Richmond Valley Plaza","lat":40.521637182333826,"lng":-74.23556864261627,"labeledLatLngs":[{"label":"display","lat":40.521637182333826,"lng":-74.23556864261627}],"postalCode":"10309","cc":"US","city":"Staten Island","state":"NY","country":"United States","formattedAddress":["106 Page Ave (at Richmond Valley Plaza)","Staten Island, NY 10309","United States"]},"categories":[{"id":"4bf58dd8d48988d1e0931735","name":"Coffee Shop","pluralName":"Coffee Shops","shortName":"Coffee Shop","icon":{"prefix":"https:\/\/ss3.4sqi.net\/img\/categories_v2\/food\/coffeeshop_","suffix":".png"},"primary":true}],"verified":true,"stats":{"checkinsCount":862,"usersCount":207,"tipCount":4},"url":"http:\/\/www.starbucks.com\/store\/116567\/","menu":{"type":"Menu","label":"Menu","anchor":"View Menu","url":"http:\/\/www.starbucks.com\/menu","mobileUrl":"http:\/\/www.starbucks.com\/menu","externalUrl":"http:\/\/www.starbucks.com\/menu"},"allowMenuUrlEdit":true,"beenHere":{"lastCheckinExpiredAt":0},"specials":{"count":0,"items":[]},"storeId":"19195","referralId":"v-1483291025","venueChains":[{"id":"556f676fbd6a75a99038d8ec"}],"hasPerk":false},{"id":"5182ef83498e59069ff5e71b","name":"Patrizia's Pizza and Pasta","contact":{"phone":"7183176600","formattedPhone":"(718) 317-6600"},"location":{"address":"4255 Amboy Rd","crossStreet":"at Armstrong Rd","lat":40.547249135737275,"lng":-74.15789465582307,"labeledLatLngs":[{"label":"display","lat":40.547249135737275,"lng":-74.15789465582307}],"postalCode":"10308","cc":"US","city":"Staten Island","state":"NY","country":"United States","formattedAddress":["4255 Amboy Rd (at Armstrong Rd)","Staten Island, NY 10308","United States"]},"categories":[{"id":"4bf58dd8d48988d110941735","name":"Italian Restaurant","pluralName":"Italian Restaurants","shortName":"Italian","icon":{"prefix":"https:\/\/ss3.4sqi.net\/img\/categories_v2\/food\/italian_","suffix":".png"},"primary":true}],"verified":false,"stats":{"checkinsCount":587,"usersCount":404,"tipCount":179},"url":"http:\/\/patriziasofbrooklyn.com\/staten-island\/","allowMenuUrlEdit":true,"beenHere":{"lastCheckinExpiredAt":0},"specials":{"count":0,"items":[]},"referralId":"v-1483291025","venueChains":[],"hasPerk":false},{"id":"4b0ec7d0f964a520ef5a23e3","name":"Perkins Restaurant & Bakery","contact":{"phone":"7183171153","formattedPhone":"(718) 317-1153","twitter":"eatatperkins","facebook":"119807878043970","facebookUsername":"eatatperkins","facebookName":"Perkins Restaurant & Bakery"},"location":{"address":"4370 Amboy Rd","lat":40.54462397732787,"lng":-74.16093356562028,"labeledLatLngs":[{"label":"display","lat":40.54462397732787,"lng":-74.16093356562028}],"postalCode":"10312","cc":"US","city":"Staten Island","state":"NY","country":"United States","formattedAddress":["4370 Amboy Rd","Staten Island, NY 10312","United States"]},"categories":[{"id":"4bf58dd8d48988d143941735","name":"Breakfast Spot","pluralName":"Breakfast Spots","shortName":"Breakfast","icon":{"prefix":"https:\/\/ss3.4sqi.net\/img\/categories_v2\/food\/breakfast_","suffix":".png"},"primary":true}],"verified":false,"stats":{"checkinsCount":1557,"usersCount":646,"tipCount":10},"url":"http:\/\/www.perkinsrestaurants.com\/","hasMenu":true,"menu":{"type":"Menu","label":"Menu","anchor":"View Menu","url":"https:\/\/foursquare.com\/v\/perkins-restaurant--bakery\/4b0ec7d0f964a520ef5a23e3\/menu","mobileUrl":"https:\/\/foursquare.com\/v\/4b0ec7d0f964a520ef5a23e3\/device_menu"},"allowMenuUrlEdit":true,"beenHere":{"lastCheckinExpiredAt":0},"specials":{"count":0,"items":[]},"referralId":"v-1483291025","venueChains":[{"id":"563e98e4498eb80953b13f32"}],"hasPerk":false},{"id":"4bf80e544a67c928c3a324cf","name":"Panera Bread","contact":{"phone":"7189660304","formattedPhone":"(718) 966-0304","twitter":"panerabread"},"location":{"address":"2965 Veterans Rd W","lat":40.526424371494336,"lng":-74.23070847988129,"labeledLatLngs":[{"label":"display","lat":40.526424371494336,"lng":-74.23070847988129}],"postalCode":"10309","cc":"US","city":"Staten Island","state":"NY","country":"United States","formattedAddress":["2965 Veterans Rd W","Staten Island, NY 10309","United States"]},"categories":[{"id":"4bf58dd8d48988d1c5941735","name":"Sandwich Place","pluralName":"Sandwich Places","shortName":"Sandwiches","icon":{"prefix":"https:\/\/ss3.4sqi.net\/img\/categories_v2\/food\/deli_","suffix":".png"},"primary":true}],"verified":true,"stats":{"checkinsCount":2331,"usersCount":774,"tipCount":12},"url":"http:\/\/www.panerabread.com","hasMenu":true,"menu":{"type":"Menu","label":"Menu","anchor":"View Menu","url":"https:\/\/foursquare.com\/v\/panera-bread\/4bf80e544a67c928c3a324cf\/menu","mobileUrl":"https:\/\/foursquare.com\/v\/4bf80e544a67c928c3a324cf\/device_menu"},"allowMenuUrlEdit":true,"beenHere":{"lastCheckinExpiredAt":0},"specials":{"count":0,"items":[]},"storeId":"4076","referralId":"v-1483291025","venueChains":[{"id":"556e0f6fa7c82e6b724f8c8a"}],"hasPerk":false},{"id":"58276af2abffa17aebea675d","name":"Starbucks","contact":{"phone":"9293210457","formattedPhone":"(929) 321-0457","twitter":"starbucks","facebook":"22092443056","facebookUsername":"Starbucks","facebookName":"Starbucks"},"location":{"address":"1243 Woodrow Rd.","lat":40.542242,"lng":-74.207023,"labeledLatLngs":[{"label":"display","lat":40.542242,"lng":-74.207023}],"cc":"US","city":"Staten Island","state":"NY","country":"United States","formattedAddress":["1243 Woodrow Rd.","Staten Island, NY","United States"]},"categories":[{"id":"4bf58dd8d48988d1e0931735","name":"Coffee Shop","pluralName":"Coffee Shops","shortName":"Coffee Shop","icon":{"prefix":"https:\/\/ss3.4sqi.net\/img\/categories_v2\/food\/coffeeshop_","suffix":".png"},"primary":true}],"verified":true,"stats":{"checkinsCount":28,"usersCount":9,"tipCount":0},"url":"http:\/\/www.starbucks.com\/store\/1015914\/","allowMenuUrlEdit":true,"beenHere":{"lastCheckinExpiredAt":0},"specials":{"count":0,"items":[]},"referralId":"v-1483291025","venueChains":[],"hasPerk":false},{"id":"557621b3498e61b302542900","name":"Dunkin Donuts","contact":{},"location":{"address":"585-A Veterans Rd West","crossStreet":"Blomingdale Rd.","lat":40.547746482330865,"lng":-74.21972952724342,"labeledLatLngs":[{"label":"display","lat":40.547746482330865,"lng":-74.21972952724342}],"postalCode":"10309","cc":"US","city":"Staten Island","state":"NY","country":"United States","formattedAddress":["585-A Veterans Rd West (Blomingdale Rd.)","Staten Island, NY 10309","United States"]},"categories":[{"id":"4bf58dd8d48988d148941735","name":"Donut Shop","pluralName":"Donut Shops","shortName":"Donuts","icon":{"prefix":"https:\/\/ss3.4sqi.net\/img\/categories_v2\/food\/donuts_","suffix":".png"},"primary":true}],"verified":false,"stats":{"checkinsCount":240,"usersCount":30,"tipCount":0},"allowMenuUrlEdit":true,"beenHere":{"lastCheckinExpiredAt":0},"specials":{"count":0,"items":[]},"referralId":"v-1483291025","venueChains":[{"id":"556f676fbd6a75a99038d8f0"}],"hasPerk":false},{"id":"4b967a25f964a520a6ce34e3","name":"Tottenville Hot Bagels & Deli","contact":{"phone":"7189847052","formattedPhone":"(718) 984-7052"},"location":{"address":"Page Ave","lat":40.5165603389077,"lng":-74.23314746905642,"labeledLatLngs":[{"label":"display","lat":40.5165603389077,"lng":-74.23314746905642}],"cc":"US","city":"Staten Island","state":"NY","country":"United States","formattedAddress":["Page Ave","Staten Island, NY","United States"]},"categories":[{"id":"4bf58dd8d48988d146941735","name":"Deli \/ Bodega","pluralName":"Delis \/ Bodegas","shortName":"Deli \/ Bodega","icon":{"prefix":"https:\/\/ss3.4sqi.net\/img\/categories_v2\/food\/deli_","suffix":".png"},"primary":true}],"verified":false,"stats":{"checkinsCount":1225,"usersCount":228,"tipCount":15},"allowMenuUrlEdit":true,"beenHere":{"lastCheckinExpiredAt":0},"specials":{"count":0,"items":[]},"referralId":"v-1483291025","venueChains":[],"hasPerk":false},{"id":"541b5438498ef6d4a62798c8","name":"Campania Coal Fired Pizza","contact":{"phone":"7182273286","formattedPhone":"(718) 227-3286"},"location":{"address":"3900 Richmond Ave","crossStreet":"Amboy Road","lat":40.542919183257915,"lng":-74.16390935557732,"labeledLatLngs":[{"label":"display","lat":40.542919183257915,"lng":-74.16390935557732}],"postalCode":"10312","cc":"US","city":"Staten Island","state":"NY","country":"United States","formattedAddress":["3900 Richmond Ave (Amboy Road)","Staten Island, NY 10312","United States"]},"categories":[{"id":"4bf58dd8d48988d1ca941735","name":"Pizza Place","pluralName":"Pizza Places","shortName":"Pizza","icon":{"prefix":"https:\/\/ss3.4sqi.net\/img\/categories_v2\/food\/pizza_","suffix":".png"},"primary":true}],"verified":false,"stats":{"checkinsCount":191,"usersCount":113,"tipCount":5},"url":"http:\/\/campaniacoalfiredpizza.com","allowMenuUrlEdit":true,"beenHere":{"lastCheckinExpiredAt":0},"specials":{"count":0,"items":[]},"referralId":"v-1483291025","venueChains":[],"hasPerk":false},{"id":"4bdb0b8163c5c9b6870b2668","name":"Ralph's Italian Ices","contact":{"phone":"7183568133","formattedPhone":"(718) 356-8133","twitter":"ralphsfamous"},"location":{"address":"890 Huguenot Ave","lat":40.53256241568635,"lng":-74.19224864008785,"labeledLatLngs":[{"label":"display","lat":40.53256241568635,"lng":-74.19224864008785}],"postalCode":"10312","cc":"US","city":"Staten Island","state":"NY","country":"United States","formattedAddress":["890 Huguenot Ave","Staten Island, NY 10312","United States"]},"categories":[{"id":"4bf58dd8d48988d1c9941735","name":"Ice Cream Shop","pluralName":"Ice Cream Shops","shortName":"Ice Cream","icon":{"prefix":"https:\/\/ss3.4sqi.net\/img\/categories_v2\/food\/icecream_","suffix":".png"},"primary":true}],"verified":false,"stats":{"checkinsCount":530,"usersCount":258,"tipCount":4},"url":"http:\/\/ralphsices.com","allowMenuUrlEdit":true,"beenHere":{"lastCheckinExpiredAt":0},"specials":{"count":0,"items":[]},"referralId":"v-1483291025","venueChains":[],"hasPerk":false},{"id":"4c6f1a1a9c6d6dcb169dce7a","name":"Seguine Hot Bagels","contact":{"phone":"7189666097","formattedPhone":"(718) 966-6097"},"location":{"address":"5840 Amboy Rd","crossStreet":"at Seguine Ave.","lat":40.525808064657674,"lng":-74.20180493220316,"labeledLatLngs":[{"label":"display","lat":40.525808064657674,"lng":-74.20180493220316}],"postalCode":"10309","cc":"US","city":"Staten Island","state":"NY","country":"United States","formattedAddress":["5840 Amboy Rd (at Seguine Ave.)","Staten Island, NY 10309","United States"]},"categories":[{"id":"4bf58dd8d48988d179941735","name":"Bagel Shop","pluralName":"Bagel Shops","shortName":"Bagels","icon":{"prefix":"https:\/\/ss3.4sqi.net\/img\/categories_v2\/food\/bagels_","suffix":".png"},"primary":true}],"verified":false,"stats":{"checkinsCount":512,"usersCount":164,"tipCount":5},"allowMenuUrlEdit":true,"beenHere":{"lastCheckinExpiredAt":0},"specials":{"count":0,"items":[]},"referralId":"v-1483291025","venueChains":[],"hasPerk":false},{"id":"4e9f89287ee5194396c51dfd","name":"7-Eleven","contact":{"phone":"7189481033","formattedPhone":"(718) 948-1033","twitter":"7eleven","facebook":"378649438919957","facebookUsername":"7ElevenStatenIsland39436","facebookName":"7-Eleven"},"location":{"address":"15 Page Ave","lat":40.524123,"lng":-74.234377,"labeledLatLngs":[{"label":"display","lat":40.524123,"lng":-74.234377}],"postalCode":"10309","cc":"US","city":"Staten Island","state":"NY","country":"United States","formattedAddress":["15 Page Ave","Staten Island, NY 10309","United States"]},"categories":[{"id":"4d954b0ea243a5684a65b473","name":"Convenience Store","pluralName":"Convenience Stores","shortName":"Convenience Store","icon":{"prefix":"https:\/\/ss3.4sqi.net\/img\/categories_v2\/shops\/conveniencestore_","suffix":".png"},"primary":true}],"verified":true,"stats":{"checkinsCount":826,"usersCount":171,"tipCount":2},"url":"http:\/\/www.7-eleven.com","allowMenuUrlEdit":true,"beenHere":{"lastCheckinExpiredAt":0},"specials":{"count":0,"items":[]},"storeId":"39436","referralId":"v-1483291025","venueChains":[{"id":"556f676fbd6a75a99038d8e9"}],"hasPerk":false},{"id":"4c3c840e86ce328fc2d3ab2d","name":"Dunkin Donuts","contact":{"phone":"7189843717","formattedPhone":"(718) 984-3717","twitter":"dunkindonuts","facebook":"6979393237","facebookUsername":"DunkinDonutsUS","facebookName":"Dunkin' Donuts"},"location":{"address":"2965 Veterans Rd W","lat":40.52726693106041,"lng":-74.2318865337605,"labeledLatLngs":[{"label":"display","lat":40.52726693106041,"lng":-74.2318865337605}],"postalCode":"10309","cc":"US","city":"Staten Island","state":"NY","country":"United States","formattedAddress":["2965 Veterans Rd W","Staten Island, NY 10309","United States"]},"categories":[{"id":"4bf58dd8d48988d148941735","name":"Donut Shop","pluralName":"Donut Shops","shortName":"Donuts","icon":{"prefix":"https:\/\/ss3.4sqi.net\/img\/categories_v2\/food\/donuts_","suffix":".png"},"primary":true}],"verified":true,"stats":{"checkinsCount":2016,"usersCount":500,"tipCount":8},"url":"http:\/\/www.dunkindonuts.com","allowMenuUrlEdit":true,"beenHere":{"lastCheckinExpiredAt":0},"specials":{"count":0,"items":[]},"storeId":"345822","referralId":"v-1483291025","venueChains":[{"id":"556f676fbd6a75a99038d8f0"}],"hasPerk":false},{"id":"562baaae498e907296b56352","name":"Smashburger","contact":{"phone":"3475624362","formattedPhone":"(347) 562-4362"},"location":{"lat":40.54557113091542,"lng":-74.15956892924947,"labeledLatLngs":[{"label":"display","lat":40.54557113091542,"lng":-74.15956892924947}],"cc":"US","city":"Staten Island","state":"NY","country":"United States","formattedAddress":["Staten Island, NY","United States"]},"categories":[{"id":"4bf58dd8d48988d16e941735","name":"Fast Food Restaurant","pluralName":"Fast Food Restaurants","shortName":"Fast Food","icon":{"prefix":"https:\/\/ss3.4sqi.net\/img\/categories_v2\/food\/fastfood_","suffix":".png"},"primary":true}],"verified":false,"stats":{"checkinsCount":164,"usersCount":71,"tipCount":4},"allowMenuUrlEdit":true,"beenHere":{"lastCheckinExpiredAt":0},"specials":{"count":0,"items":[]},"referralId":"v-1483291025","venueChains":[],"hasPerk":false},{"id":"4b125bbff964a5207e8923e3","name":"Wolfe's Pond Park","contact":{"phone":"7189848266","formattedPhone":"(718) 984-8266","twitter":"nycparks","facebook":"104475634308","facebookUsername":"BartowPell","facebookName":"Bartow-Pell Mansion Museum"},"location":{"address":"420 Cornelia Ave","crossStreet":"at Hylan Blvd","lat":40.517981507972586,"lng":-74.18915291461276,"labeledLatLngs":[{"label":"display","lat":40.517981507972586,"lng":-74.18915291461276}],"postalCode":"10312","cc":"US","city":"Staten Island","state":"NY","country":"United States","formattedAddress":["420 Cornelia Ave (at Hylan Blvd)","Staten Island, NY 10312","United States"]},"categories":[{"id":"4bf58dd8d48988d163941735","name":"Park","pluralName":"Parks","shortName":"Park","icon":{"prefix":"https:\/\/ss3.4sqi.net\/img\/categories_v2\/parks_outdoors\/park_","suffix":".png"},"primary":true}],"verified":true,"stats":{"checkinsCount":1288,"usersCount":729,"tipCount":13},"url":"http:\/\/nyc.gov\/parks","allowMenuUrlEdit":true,"beenHere":{"lastCheckinExpiredAt":0},"specials":{"count":0,"items":[]},"referralId":"v-1483291025","venueChains":[{"id":"556df7e1a7c82e6b724d822e"}],"hasPerk":false},{"id":"4b6eff67f964a520b1d52ce3","name":"Kingdom Cafe","contact":{"phone":"7189486988","formattedPhone":"(718) 948-6988"},"location":{"address":"4350 Amboy Rd","lat":40.545157607748926,"lng":-74.1602455149202,"labeledLatLngs":[{"label":"display","lat":40.545157607748926,"lng":-74.1602455149202}],"postalCode":"10312","cc":"US","city":"Staten Island","state":"NY","country":"United States","formattedAddress":["4350 Amboy Rd","Staten Island, NY 10312","United States"]},"categories":[{"id":"4bf58dd8d48988d1ca941735","name":"Pizza Place","pluralName":"Pizza Places","shortName":"Pizza","icon":{"prefix":"https:\/\/ss3.4sqi.net\/img\/categories_v2\/food\/pizza_","suffix":".png"},"primary":true}],"verified":false,"stats":{"checkinsCount":407,"usersCount":120,"tipCount":0},"hasMenu":true,"delivery":{"id":"31231","url":"http:\/\/www.seamless.com\/food-delivery\/restaurant.31231.r?a=1026&utm_source=Foursquare&utm_medium=affiliate&utm_campaign=SeamlessOrderDeliveryLink","provider":{"name":"seamless"}},"menu":{"type":"Menu","label":"Menu","anchor":"View Menu","url":"https:\/\/foursquare.com\/v\/kingdom-cafe\/4b6eff67f964a520b1d52ce3\/menu","mobileUrl":"https:\/\/foursquare.com\/v\/4b6eff67f964a520b1d52ce3\/device_menu"},"allowMenuUrlEdit":true,"beenHere":{"lastCheckinExpiredAt":0},"specials":{"count":0,"items":[]},"referralId":"v-1483291025","venueChains":[],"hasPerk":false},{"id":"53944df4498ea90b2e5749fd","name":"Annadale Terrace","contact":{},"location":{"lat":40.54241040530244,"lng":-74.17714788948503,"labeledLatLngs":[{"label":"display","lat":40.54241040530244,"lng":-74.17714788948503}],"cc":"US","city":"Staten Island","state":"NY","country":"United States","formattedAddress":["Staten Island, NY","United States"]},"categories":[{"id":"4bf58dd8d48988d1c4941735","name":"Restaurant","pluralName":"Restaurants","shortName":"Restaurant","icon":{"prefix":"https:\/\/ss3.4sqi.net\/img\/categories_v2\/food\/default_","suffix":".png"},"primary":true}],"verified":false,"stats":{"checkinsCount":274,"usersCount":160,"tipCount":4},"allowMenuUrlEdit":true,"beenHere":{"lastCheckinExpiredAt":0},"specials":{"count":0,"items":[]},"referralId":"v-1483291025","venueChains":[],"hasPerk":false},{"id":"56071181498e66c67c93aa9c","name":"SONIC Drive In","contact":{"phone":"7183176642","formattedPhone":"(718) 317-6642"},"location":{"address":"Page Avenue","crossStreet":"Richmond Valley Road","lat":40.52081337779355,"lng":-74.23545725078888,"labeledLatLngs":[{"label":"display","lat":40.52081337779355,"lng":-74.23545725078888}],"postalCode":"10309","cc":"US","city":"Staten Island","state":"NY","country":"United States","formattedAddress":["Page Avenue (Richmond Valley Road)","Staten Island, NY 10309","United States"]},"categories":[{"id":"4bf58dd8d48988d16e941735","name":"Fast Food Restaurant","pluralName":"Fast Food Restaurants","shortName":"Fast Food","icon":{"prefix":"https:\/\/ss3.4sqi.net\/img\/categories_v2\/food\/fastfood_","suffix":".png"},"primary":true}],"verified":false,"stats":{"checkinsCount":221,"usersCount":133,"tipCount":1},"allowMenuUrlEdit":true,"beenHere":{"lastCheckinExpiredAt":0},"specials":{"count":0,"items":[]},"referralId":"v-1483291025","venueChains":[{"id":"556e2b60a7c82e6b7253b20b"}],"hasPerk":false},{"id":"4bb120b3f964a520a97c3ce3","name":"Wendy's","contact":{"phone":"7189673911","formattedPhone":"(718) 967-3911","twitter":"wendys","facebook":"113385204488","facebookUsername":"wendys","facebookName":"Wendy's"},"location":{"address":"6420 Amboy Rd","lat":40.5212673780029,"lng":-74.21688647152743,"labeledLatLngs":[{"label":"display","lat":40.5212673780029,"lng":-74.21688647152743}],"postalCode":"10309","cc":"US","city":"Staten Island","state":"NY","country":"United States","formattedAddress":["6420 Amboy Rd","Staten Island, NY 10309","United States"]},"categories":[{"id":"4bf58dd8d48988d16e941735","name":"Fast Food Restaurant","pluralName":"Fast Food Restaurants","shortName":"Fast Food","icon":{"prefix":"https:\/\/ss3.4sqi.net\/img\/categories_v2\/food\/fastfood_","suffix":".png"},"primary":true}],"verified":true,"stats":{"checkinsCount":1042,"usersCount":332,"tipCount":2},"url":"http:\/\/www.wendys.com","hasMenu":true,"menu":{"type":"Menu","label":"Menu","anchor":"View Menu","url":"https:\/\/foursquare.com\/v\/wendys\/4bb120b3f964a520a97c3ce3\/menu","mobileUrl":"https:\/\/foursquare.com\/v\/4bb120b3f964a520a97c3ce3\/device_menu"},"allowMenuUrlEdit":true,"beenHere":{"lastCheckinExpiredAt":0},"specials":{"count":0,"items":[]},"storeId":"08527-FS-OP","referralId":"v-1483291025","venueChains":[{"id":"556f46f6bd6a007c77390fa9"}],"hasPerk":false},{"id":"56ed6f76498e73779db490d5","name":"Project Brunch","contact":{},"location":{"address":"4553 Arthur Kill Rd","lat":40.5320388927535,"lng":-74.23928618431091,"labeledLatLngs":[{"label":"display","lat":40.5320388927535,"lng":-74.23928618431091}],"postalCode":"10309","cc":"US","city":"Staten Island","state":"NY","country":"United States","formattedAddress":["4553 Arthur Kill Rd","Staten Island, NY 10309","United States"]},"categories":[{"id":"4bf58dd8d48988d143941735","name":"Breakfast Spot","pluralName":"Breakfast Spots","shortName":"Breakfast","icon":{"prefix":"https:\/\/ss3.4sqi.net\/img\/categories_v2\/food\/breakfast_","suffix":".png"},"primary":true}],"verified":false,"stats":{"checkinsCount":120,"usersCount":98,"tipCount":3},"url":"http:\/\/www.projectbrunchsi.com","allowMenuUrlEdit":true,"beenHere":{"lastCheckinExpiredAt":0},"specials":{"count":0,"items":[]},"referralId":"v-1483291025","venueChains":[],"hasPerk":false},{"id":"4defd6d5d164e99c7b459124","name":"Z-Two Diner & Lounge; 24 Hrs","contact":{"phone":"7183566800","formattedPhone":"(718) 356-6800"},"location":{"address":"2925 Veterans Rd W","lat":40.52732535038655,"lng":-74.2307746109047,"labeledLatLngs":[{"label":"display","lat":40.52732535038655,"lng":-74.2307746109047}],"postalCode":"10309","cc":"US","city":"Staten Island","state":"NY","country":"United States","formattedAddress":["2925 Veterans Rd W","Staten Island, NY 10309","United States"]},"categories":[{"id":"4bf58dd8d48988d147941735","name":"Diner","pluralName":"Diners","shortName":"Diner","icon":{"prefix":"https:\/\/ss3.4sqi.net\/img\/categories_v2\/food\/diner_","suffix":".png"},"primary":true}],"verified":true,"stats":{"checkinsCount":3031,"usersCount":1426,"tipCount":1204},"url":"https:\/\/www.z2lounge.com","hasMenu":true,"delivery":{"id":"35843","url":"http:\/\/www.seamless.com\/food-delivery\/restaurant.35843.r?a=1026&utm_source=Foursquare&utm_medium=affiliate&utm_campaign=SeamlessOrderDeliveryLink","provider":{"name":"seamless"}},"menu":{"type":"Menu","label":"Menu","anchor":"View Menu","url":"https:\/\/foursquare.com\/v\/ztwo-diner--lounge-24-hrs\/4defd6d5d164e99c7b459124\/menu","mobileUrl":"https:\/\/foursquare.com\/v\/4defd6d5d164e99c7b459124\/device_menu"},"allowMenuUrlEdit":true,"beenHere":{"lastCheckinExpiredAt":0},"specials":{"count":0,"items":[]},"venuePage":{"id":"121841018"},"referralId":"v-1483291025","venueChains":[],"hasPerk":false},{"id":"4bdb1e963904a593ead9489e","name":"Page Plaza Diner","contact":{"phone":"7189663500","formattedPhone":"(718) 966-3500"},"location":{"address":"75 Page Ave","lat":40.52248095659148,"lng":-74.23479240344376,"labeledLatLngs":[{"label":"display","lat":40.52248095659148,"lng":-74.23479240344376}],"postalCode":"10309","cc":"US","city":"Staten Island","state":"NY","country":"United States","formattedAddress":["75 Page Ave","Staten Island, NY 10309","United States"]},"categories":[{"id":"4bf58dd8d48988d147941735","name":"Diner","pluralName":"Diners","shortName":"Diner","icon":{"prefix":"https:\/\/ss3.4sqi.net\/img\/categories_v2\/food\/diner_","suffix":".png"},"primary":true}],"verified":false,"stats":{"checkinsCount":2021,"usersCount":755,"tipCount":20},"url":"http:\/\/pageplazarestaurant.com","hasMenu":true,"menu":{"type":"Menu","label":"Menu","anchor":"View Menu","url":"https:\/\/foursquare.com\/v\/page-plaza-diner\/4bdb1e963904a593ead9489e\/menu","mobileUrl":"https:\/\/foursquare.com\/v\/4bdb1e963904a593ead9489e\/device_menu"},"allowMenuUrlEdit":true,"beenHere":{"lastCheckinExpiredAt":0},"specials":{"count":0,"items":[]},"referralId":"v-1483291025","venueChains":[],"hasPerk":false},{"id":"4aa06637f964a5207c3f20e3","name":"Annadale Diner","contact":{"phone":"7189843200","formattedPhone":"(718) 984-3200"},"location":{"address":"813 Annadale Rd","lat":40.542251489277476,"lng":-74.1772854873031,"labeledLatLngs":[{"label":"display","lat":40.542251489277476,"lng":-74.1772854873031}],"postalCode":"10312","cc":"US","city":"Staten Island","state":"NY","country":"United States","formattedAddress":["813 Annadale Rd","Staten Island, NY 10312","United States"]},"categories":[{"id":"4bf58dd8d48988d147941735","name":"Diner","pluralName":"Diners","shortName":"Diner","icon":{"prefix":"https:\/\/ss3.4sqi.net\/img\/categories_v2\/food\/diner_","suffix":".png"},"primary":true}],"verified":false,"stats":{"checkinsCount":1621,"usersCount":599,"tipCount":20},"allowMenuUrlEdit":true,"beenHere":{"lastCheckinExpiredAt":0},"specials":{"count":0,"items":[]},"referralId":"v-1483291025","venueChains":[],"hasPerk":false},{"id":"4bb4c4c8613fb713e62594e6","name":"Villa Monte Pizzeria & Restaurant","contact":{"phone":"7189847100","formattedPhone":"(718) 984-7100"},"location":{"address":"240 Arden Ave","lat":40.552555412237844,"lng":-74.18621192742891,"labeledLatLngs":[{"label":"display","lat":40.552555412237844,"lng":-74.18621192742891}],"postalCode":"10312","cc":"US","city":"Staten Island","state":"NY","country":"United States","formattedAddress":["240 Arden Ave","Staten Island, NY 10312","United States"]},"categories":[{"id":"4bf58dd8d48988d1ca941735","name":"Pizza Place","pluralName":"Pizza Places","shortName":"Pizza","icon":{"prefix":"https:\/\/ss3.4sqi.net\/img\/categories_v2\/food\/pizza_","suffix":".png"},"primary":true}],"verified":false,"stats":{"checkinsCount":1480,"usersCount":282,"tipCount":5},"url":"http:\/\/villamontepizza.com","hasMenu":true,"menu":{"type":"Menu","label":"Menu","anchor":"View Menu","url":"https:\/\/foursquare.com\/v\/villa-monte-pizzeria--restaurant\/4bb4c4c8613fb713e62594e6\/menu","mobileUrl":"https:\/\/foursquare.com\/v\/4bb4c4c8613fb713e62594e6\/device_menu"},"allowMenuUrlEdit":true,"beenHere":{"lastCheckinExpiredAt":0},"specials":{"count":0,"items":[]},"referralId":"v-1483291025","venueChains":[],"hasPerk":false},{"id":"4b7dec6ff964a5203bda2fe3","name":"Bagel Depot","contact":{"phone":"7189488755","formattedPhone":"(718) 948-8755"},"location":{"address":"3854 Richmond Ave","lat":40.543822709945935,"lng":-74.1649242094659,"labeledLatLngs":[{"label":"display","lat":40.543822709945935,"lng":-74.1649242094659}],"postalCode":"10312","cc":"US","city":"Staten Island","state":"NY","country":"United States","formattedAddress":["3854 Richmond Ave","Staten Island, NY 10312","United States"]},"categories":[{"id":"4bf58dd8d48988d146941735","name":"Deli \/ Bodega","pluralName":"Delis \/ Bodegas","shortName":"Deli \/ Bodega","icon":{"prefix":"https:\/\/ss3.4sqi.net\/img\/categories_v2\/food\/deli_","suffix":".png"},"primary":true}],"verified":false,"stats":{"checkinsCount":745,"usersCount":217,"tipCount":5},"hasMenu":true,"delivery":{"id":"33709","url":"http:\/\/www.seamless.com\/food-delivery\/restaurant.33709.r?a=1026&utm_source=Foursquare&utm_medium=affiliate&utm_campaign=SeamlessOrderDeliveryLink","provider":{"name":"seamless"}},"menu":{"type":"Menu","label":"Menu","anchor":"View Menu","url":"https:\/\/foursquare.com\/v\/bagel-depot\/4b7dec6ff964a5203bda2fe3\/menu","mobileUrl":"https:\/\/foursquare.com\/v\/4b7dec6ff964a5203bda2fe3\/device_menu"},"allowMenuUrlEdit":true,"beenHere":{"lastCheckinExpiredAt":0},"specials":{"count":0,"items":[]},"referralId":"v-1483291025","venueChains":[],"hasPerk":false},{"id":"4a8ed3e6f964a520ce1220e3","name":"Woodrow Diner","contact":{},"location":{"address":"655 Rossville Ave","lat":40.542709441014274,"lng":-74.20669467322833,"labeledLatLngs":[{"label":"display","lat":40.542709441014274,"lng":-74.20669467322833}],"postalCode":"10309","cc":"US","city":"Staten Island","state":"NY","country":"United States","formattedAddress":["655 Rossville Ave","Staten Island, NY 10309","United States"]},"categories":[{"id":"4bf58dd8d48988d147941735","name":"Diner","pluralName":"Diners","shortName":"Diner","icon":{"prefix":"https:\/\/ss3.4sqi.net\/img\/categories_v2\/food\/diner_","suffix":".png"},"primary":true}],"verified":false,"stats":{"checkinsCount":1102,"usersCount":404,"tipCount":10},"url":"http:\/\/woodrowdiner.com","allowMenuUrlEdit":true,"beenHere":{"lastCheckinExpiredAt":0},"specials":{"count":0,"items":[]},"referralId":"v-1483291025","venueChains":[],"hasPerk":false},{"id":"4b930439f964a520002f34e3","name":"The Historic Old Bermuda Inn","contact":{"phone":"7189487600","formattedPhone":"(718) 948-7600"},"location":{"address":"2512 Arthur Kill Rd","crossStreet":"at Hervey St","lat":40.55374575616452,"lng":-74.21741381582459,"labeledLatLngs":[{"label":"display","lat":40.55374575616452,"lng":-74.21741381582459}],"postalCode":"10309","cc":"US","city":"Staten Island","state":"NY","country":"United States","formattedAddress":["2512 Arthur Kill Rd (at Hervey St)","Staten Island, NY 10309","United States"]},"categories":[{"id":"4bf58dd8d48988d171941735","name":"Event Space","pluralName":"Event Spaces","shortName":"Event Space","icon":{"prefix":"https:\/\/ss3.4sqi.net\/img\/categories_v2\/building\/eventspace_","suffix":".png"},"primary":true}],"verified":false,"stats":{"checkinsCount":1207,"usersCount":885,"tipCount":6},"url":"http:\/\/www.oldbermudainnweddings.com","hasMenu":true,"venueRatingBlacklisted":true,"menu":{"type":"Services","label":"Services","anchor":"View Services","url":"https:\/\/foursquare.com\/v\/the-historic-old-bermuda-inn\/4b930439f964a520002f34e3\/menu","mobileUrl":"https:\/\/foursquare.com\/v\/4b930439f964a520002f34e3\/device_menu"},"allowMenuUrlEdit":true,"beenHere":{"lastCheckinExpiredAt":0},"specials":{"count":0,"items":[]},"referralId":"v-1483291025","venueChains":[],"hasPerk":false},{"id":"4b633143f964a52083692ae3","name":"Applebee's","contact":{"phone":"7189431200","formattedPhone":"(718) 943-1200","twitter":"applebees"},"location":{"address":"2720 Veterans Rd W","crossStreet":"Charleston Shopping Plaza","lat":40.53013581,"lng":-74.22909095,"labeledLatLngs":[{"label":"display","lat":40.53013581,"lng":-74.22909095}],"postalCode":"10309","cc":"US","city":"Staten Island","state":"NY","country":"United States","formattedAddress":["2720 Veterans Rd W (Charleston Shopping Plaza)","Staten Island, NY 10309","United States"]},"categories":[{"id":"4bf58dd8d48988d14e941735","name":"American Restaurant","pluralName":"American Restaurants","shortName":"American","icon":{"prefix":"https:\/\/ss3.4sqi.net\/img\/categories_v2\/food\/default_","suffix":".png"},"primary":true}],"verified":true,"stats":{"checkinsCount":2718,"usersCount":1092,"tipCount":7},"url":"http:\/\/restaurants.applebees.com\/ny\/staten-island\/2720-veterans-rd-w.html","allowMenuUrlEdit":true,"beenHere":{"lastCheckinExpiredAt":0},"specials":{"count":0,"items":[]},"storeId":"","referralId":"v-1483291025","venueChains":[{"id":"556e146fa7c82e6b725097e1"}],"hasPerk":false},{"id":"4ba6706af964a520875239e3","name":"Nucci's","contact":{"phone":"7189673600","formattedPhone":"(718) 967-3600"},"location":{"address":"4842 Arthur Kill Rd","lat":40.52410217890756,"lng":-74.23896700143814,"labeledLatLngs":[{"label":"display","lat":40.52410217890756,"lng":-74.23896700143814}],"postalCode":"10309","cc":"US","city":"Staten Island","state":"NY","country":"United States","formattedAddress":["4842 Arthur Kill Rd","Staten Island, NY 10309","United States"]},"categories":[{"id":"4bf58dd8d48988d110941735","name":"Italian Restaurant","pluralName":"Italian Restaurants","shortName":"Italian","icon":{"prefix":"https:\/\/ss3.4sqi.net\/img\/categories_v2\/food\/italian_","suffix":".png"},"primary":true}],"verified":false,"stats":{"checkinsCount":725,"usersCount":463,"tipCount":7},"url":"http:\/\/www.nuccis.net\/","hasMenu":true,"delivery":{"id":"30799","url":"http:\/\/www.seamless.com\/food-delivery\/restaurant.30799.r?a=1026&utm_source=Foursquare&utm_medium=affiliate&utm_campaign=SeamlessOrderDeliveryLink","provider":{"name":"seamless"}},"menu":{"type":"Menu","label":"Menu","anchor":"View Menu","url":"https:\/\/foursquare.com\/v\/nuccis\/4ba6706af964a520875239e3\/menu","mobileUrl":"https:\/\/foursquare.com\/v\/4ba6706af964a520875239e3\/device_menu"},"allowMenuUrlEdit":true,"beenHere":{"lastCheckinExpiredAt":0},"specials":{"count":0,"items":[]},"referralId":"v-1483291025","venueChains":[],"hasPerk":false},{"id":"4c5a2399ec2520a16bfc5012","name":"McDonald's","contact":{"phone":"7182272483","formattedPhone":"(718) 227-2483"},"location":{"address":"260 Page Ave","lat":40.517689207274785,"lng":-74.23480386634942,"labeledLatLngs":[{"label":"display","lat":40.517689207274785,"lng":-74.23480386634942}],"postalCode":"10307","cc":"US","city":"Staten Island","state":"NY","country":"United States","formattedAddress":["260 Page Ave","Staten Island, NY 10307","United States"]},"categories":[{"id":"4bf58dd8d48988d16e941735","name":"Fast Food Restaurant","pluralName":"Fast Food Restaurants","shortName":"Fast Food","icon":{"prefix":"https:\/\/ss3.4sqi.net\/img\/categories_v2\/food\/fastfood_","suffix":".png"},"primary":true}],"verified":true,"stats":{"checkinsCount":781,"usersCount":304,"tipCount":4},"url":"http:\/\/mcdonalds.com","hasMenu":true,"menu":{"type":"Menu","label":"Menu","anchor":"View Menu","url":"https:\/\/foursquare.com\/v\/mcdonalds\/4c5a2399ec2520a16bfc5012\/menu","mobileUrl":"https:\/\/foursquare.com\/v\/4c5a2399ec2520a16bfc5012\/device_menu"},"allowMenuUrlEdit":true,"beenHere":{"lastCheckinExpiredAt":0},"specials":{"count":0,"items":[]},"storeId":"25479","referralId":"v-1483291025","venueChains":[{"id":"556f7a12bd6a75a9903bddb2"}],"hasPerk":false},{"id":"4ce35a8b748d6ea80c9cca50","name":"Bagels R Us","contact":{"phone":"7189672299","formattedPhone":"(718) 967-2299"},"location":{"address":"4300 Amboy Rd","lat":40.5457123,"lng":-74.158973,"labeledLatLngs":[{"label":"display","lat":40.5457123,"lng":-74.158973}],"postalCode":"10312","cc":"US","city":"Staten Island","state":"NY","country":"United States","formattedAddress":["4300 Amboy Rd","Staten Island, NY 10312","United States"]},"categories":[{"id":"4bf58dd8d48988d179941735","name":"Bagel Shop","pluralName":"Bagel Shops","shortName":"Bagels","icon":{"prefix":"https:\/\/ss3.4sqi.net\/img\/categories_v2\/food\/bagels_","suffix":".png"},"primary":true}],"verified":false,"stats":{"checkinsCount":401,"usersCount":118,"tipCount":2},"allowMenuUrlEdit":true,"beenHere":{"lastCheckinExpiredAt":0},"specials":{"count":0,"items":[]},"referralId":"v-1483291025","venueChains":[],"hasPerk":false}]}}