{"meta":{"code":200,"requestId":"58693988db04f53a2b5a5741"},"response":{"venues":[{"id":"4b53abbef964a5203aa727e3","name":"Starbucks","contact":{"phone":"7189798608","formattedPhone":"(718) 979-8608","twitter":"starbucks","facebook":"22092443056","facebookUsername":"Starbucks","facebookName":"Starbucks"},"location":{"address":"2530 Hylan Blvd","crossStreet":"at Hylan Commons","lat":40.56960982165055,"lng":-74.10972476005554,"labeledLatLngs":[{"label":"display","lat":40.56960982165055,"lng":-74.10972476005554}],"postalCode":"10306","cc":"US","city":"Staten Island","state":"NY","country":"United States","formattedAddress":["2530 Hylan Blvd (at Hylan Commons)","Staten Island, NY 10306","United States"]},"categories":[{"id":"4bf58dd8d48988d1e0931735","name":"Coffee Shop","pluralName":"Coffee Shops","shortName":"Coffee Shop","icon":{"prefix":"https:\/\/ss3.4sqi.net\/img\/categories_v2\/food\/coffeeshop_","suffix":".png"},"primary":true}],"verified":true,"stats":{"checkinsCount":7795,"usersCount":1315,"tipCount":31},"url":"http:\/\/www.starbucks.com\/store\/14742\/","hasMenu":true,"menu":{"type":"Menu","label":"Menu","anchor":"View Menu","url":"http:\/\/www.starbucks.com\/menu","mobileUrl":"http:\/\/www.starbucks.com\/menu","externalUrl":"http:\/\/www.starbucks.com\/menu"},"allowMenuUrlEdit":true,"beenHere":{"lastCheckinExpiredAt":0},"specials":{"count":0,"items":[]},"storeId":"7207","referralId":"v-1483291016","venueChains":[{"id":"556f676fbd6a75a99038d8ec"}],"hasPerk":false},{"id":"4b5c7f38f964a520c53229e3","name":"Starbucks","contact":{"phone":"7182735984","formattedPhone":"(718) 273-5984","twitter":"starbucks","facebook":"22092443056","facebookUsername":"Starbucks","facebookName":"Starbucks"},"location":{"address":"480 Forest Ave","crossStreet":"at Bard Ave","lat":40.63030031745,"lng":-74.10604745149612,"labeledLatLngs":[{"label":"display","lat":40.63030031745,"lng":-74.10604745149612}],"postalCode":"10310","cc":"US","city":"Staten Island","state":"NY","country":"United States","formattedAddress":["480 Forest Ave (at Bard Ave)","Staten Island, NY 10310","United States"]},"categories":[{"id":"4bf58dd8d48988d1e0931735","name":"Coffee Shop","pluralName":"Coffee Shops","shortName":"Coffee Shop","icon":{"prefix":"https:\/\/ss3.4sqi.net\/img\/categories_v2\/food\/coffeeshop_","suffix":".png"},"primary":true}],"verified":true,"stats":{"checkinsCount":4914,"usersCount":853,"tipCount":30},"url":"http:\/\/www.starbucks.com\/store\/15314\/","hasMenu":true,"menu":{"type":"Menu","label":"Menu","anchor":"View Menu","url":"http:\/\/www.starbucks.com\/menu","mobileUrl":"http:\/\/www.starbucks.com\/menu","externalUrl":"http:\/\/www.starbucks.com\/menu"},"allowMenuUrlEdit":true,"beenHere":{"lastCheckinExpiredAt":0},"specials":{"count":0,"items":[]},"storeId":"7888","referralId":"v-1483291016","venueChains":[{"id":"556f676fbd6a75a99038d8ec"}],"hasPerk":false},{"id":"4b6c648bf964a5205d362ce3","name":"Royal Crown Bakery","contact":{"phone":"7186680284","formattedPhone":"(718) 668-0284"},"location":{"address":"1350 Hylan Blvd","crossStreet":"at Quintard St","lat":40.595620417680344,"lng":-74.08572609292622,"labeledLatLngs":[{"label":"display","lat":40.595620417680344,"lng":-74.08572609292622}],"postalCode":"10305","cc":"US","city":"Staten Island","state":"NY","country":"United States","formattedAddress":["1350 Hylan Blvd (at Quintard St)","Staten Island, NY 10305","United States"]},"categories":[{"id":"4bf58dd8d48988d16a941735","name":"Bakery","pluralName":"Bakeries","shortName":"Bakery","icon":{"prefix":"https:\/\/ss3.4sqi.net\/img\/categories_v2\/food\/bakery_","suffix":".png"},"primary":true}],"verified":true,"stats":{"checkinsCount":3812,"usersCount":1504,"tipCount":51},"allowMenuUrlEdit":true,"beenHere":{"lastCheckinExpiredAt":0},"specials":{"count":0,"items":[]},"venuePage":{"id":"76203083"},"referralId":"v-1483291016","venueChains":[],"hasPerk":false},{"id":"4b71f6c5f964a52010672de3","name":"Starbucks","contact":{"phone":"7189820167","formattedPhone":"(718) 982-0167","twitter":"starbucks","facebook":"22092443056","facebookUsername":"Starbucks","facebookName":"Starbucks"},"location":{"address":"2070 Victory Blvd","crossStreet":"at Bradley Ave","lat":40.612237,"lng":-74.132583,"labeledLatLngs":[{"label":"display","lat":40.612237,"lng":-74.132583}],"postalCode":"10314","cc":"US","city":"Staten Island","state":"NY","country":"United States","formattedAddress":["2070 Victory Blvd (at Bradley Ave)","Staten Island, NY 10314","United States"]},"categories":[{"id":"4bf58dd8d48988d1e0931735","name":"Coffee Shop","pluralName":"Coffee Shops","shortName":"Coffee Shop","icon":{"prefix":"https:\/\/ss3.4sqi.net\/img\/categories_v2\/food\/coffeeshop_","suffix":".png"},"primary":true}],"verified":true,"stats":{"checkinsCount":5246,"usersCount":1120,"tipCount":27},"url":"http:\/\/www.starbucks.com\/store\/11701\/","hasMenu":true,"menu":{"type":"Menu","label":"Menu","anchor":"View Menu","url":"http:\/\/www.starbucks.com\/menu","mobileUrl":"http:\/\/www.starbucks.com\/menu","externalUrl":"http:\/\/www.starbucks.com\/menu"},"allowMenuUrlEdit":true,"beenHere":{"lastCheckinExpiredAt":0},"specials":{"count":0,"items":[]},"storeId":"7923","referralId":"v-1483291016","venueChains":[{"id":"556f676fbd6a75a99038d8ec"}],"hasPerk":false},{"id":"4bcc99e2fb84c9b6ffab203e","name":"Dunkin Donuts","contact":{"phone":"7183517185","formattedPhone":"(718) 351-7185","twitter":"dunkindonuts","facebook":"6979393237","facebookUsername":"DunkinDonutsUS","facebookName":"Dunkin' Donuts"},"location":{"address":"2704 Hylan Blvd Tysens Park Shopping Center","lat":40.565683319314765,"lng":-74.11299329412257,"labeledLatLngs":[{"label":"display","lat":40.565683319314765,"lng":-74.11299329412257}],"postalCode":"10306","cc":"US","city":"Staten Island","state":"NY","country":"United States","formattedAddress":["2704 Hylan Blvd Tysens Park Shopping Center","Staten Island, NY 10306","United States"]},"categories":[{"id":"4bf58dd8d48988d148941735","name":"Donut Shop","pluralName":"Donut Shops","shortName":"Donuts","icon":{"prefix":"https:\/\/ss3.4sqi.net\/img\/categories_v2\/food\/donuts_","suffix":".png"},"primary":true}],"verified":true,"stats":{"checkinsCount":1728,"usersCount":409,"tipCount":8},"url":"http:\/\/www.dunkindonuts.com","allowMenuUrlEdit":true,"beenHere":{"lastCheckinExpiredAt":0},"specials":{"count":0,"items":[]},"storeId":"343906","referralId":"v-1483291016","venueChains":[{"id":"556f676fbd6a75a99038d8f0"}],"hasPerk":false},{"id":"4bc7431192b376b05d574f3a","name":"McDonald's","contact":{"phone":"7189791524","formattedPhone":"(718) 979-1524"},"location":{"address":"2154 Hylan Blvd","lat":40.57766745081722,"lng":-74.10235404968262,"labeledLatLngs":[{"label":"display","lat":40.57766745081722,"lng":-74.10235404968262}],"postalCode":"10306","cc":"US","city":"Staten Island","state":"NY","country":"United States","formattedAddress":["2154 Hylan Blvd","Staten Island, NY 10306","United States"]},"categories":[{"id":"4bf58dd8d48988d16e941735","name":"Fast Food Restaurant","pluralName":"Fast Food Restaurants","shortName":"Fast Food","icon":{"prefix":"https:\/\/ss3.4sqi.net\/img\/categories_v2\/food\/fastfood_","suffix":".png"},"primary":true}],"verified":true,"stats":{"checkinsCount":1466,"usersCount":567,"tipCount":7},"url":"http:\/\/mcdonalds.com","hasMenu":true,"menu":{"type":"Menu","label":"Menu","anchor":"View Menu","url":"https:\/\/foursquare.com\/v\/mcdonalds\/4bc7431192b376b05d574f3a\/menu","mobileUrl":"https:\/\/foursquare.com\/v\/4bc7431192b376b05d574f3a\/device_menu"},"allowMenuUrlEdit":true,"beenHere":{"lastCheckinExpiredAt":0},"specials":{"count":0,"items":[]},"storeId":"3774","referralId":"v-1483291016","venueChains":[{"id":"556f7a12bd6a75a9903bddb2"}],"hasPerk":false},{"id":"4b11f3c7f964a5206c8723e3","name":"7-Eleven","contact":{"phone":"7189804030","formattedPhone":"(718) 980-4030","twitter":"7eleven","facebook":"158885064194024","facebookUsername":"7ElevenStatenIsland27104","facebookName":"7-Eleven"},"location":{"address":"2477 Hylan Blvd","crossStreet":"New Dorp Lane","lat":40.570957356918214,"lng":-74.10999362058804,"labeledLatLngs":[{"label":"display","lat":40.570957356918214,"lng":-74.10999362058804}],"postalCode":"10306","cc":"US","city":"Staten Island","state":"NY","country":"United States","formattedAddress":["2477 Hylan Blvd (New Dorp Lane)","Staten Island, NY 10306","United States"]},"categories":[{"id":"4d954b0ea243a5684a65b473","name":"Convenience Store","pluralName":"Convenience Stores","shortName":"Convenience Store","icon":{"prefix":"https:\/\/ss3.4sqi.net\/img\/categories_v2\/shops\/conveniencestore_","suffix":".png"},"primary":true}],"verified":true,"stats":{"checkinsCount":2249,"usersCount":553,"tipCount":12},"url":"http:\/\/www.7-eleven.com","allowMenuUrlEdit":true,"beenHere":{"lastCheckinExpiredAt":0},"specials":{"count":0,"items":[]},"storeId":"27104","referralId":"v-1483291016","venueChains":[{"id":"556f676fbd6a75a99038d8e9"}],"hasPerk":false},{"id":"4cb6e700f6616dcb0c57e208","name":"Dunkin Donuts","contact":{"phone":"--","formattedPhone":"--","twitter":"dunkindonuts","facebook":"6979393237","facebookUsername":"DunkinDonutsUS","facebookName":"Dunkin' Donuts"},"location":{"address":"1300 Hylan Blvd","crossStreet":"at Old Town Rd.","lat":40.59657836707412,"lng":-74.08529015270427,"labeledLatLngs":[{"label":"display","lat":40.59657836707412,"lng":-74.08529015270427}],"postalCode":"10305","cc":"US","city":"Staten Island","state":"NY","country":"United States","formattedAddress":["1300 Hylan Blvd (at Old Town Rd.)","Staten Island, NY 10305","United States"]},"categories":[{"id":"4bf58dd8d48988d148941735","name":"Donut Shop","pluralName":"Donut Shops","shortName":"Donuts","icon":{"prefix":"https:\/\/ss3.4sqi.net\/img\/categories_v2\/food\/donuts_","suffix":".png"},"primary":true}],"verified":true,"stats":{"checkinsCount":1096,"usersCount":322,"tipCount":10},"url":"http:\/\/www.dunkindonuts.com","allowMenuUrlEdit":true,"beenHere":{"lastCheckinExpiredAt":0},"specials":{"count":0,"items":[]},"storeId":"346672","referralId":"v-1483291016","venueChains":[{"id":"556f676fbd6a75a99038d8f0"}],"hasPerk":false},{"id":"4c9cc556d3c2b60cbcb0babc","name":"Dunkin Donuts","contact":{"phone":"7184483215","formattedPhone":"(718) 448-3215","twitter":"dunkindonuts","facebook":"6979393237","facebookUsername":"DunkinDonutsUS","facebookName":"Dunkin' Donuts"},"location":{"address":"1201 Victory Blvd","lat":40.61639251106789,"lng":-74.10388554816927,"labeledLatLngs":[{"label":"display","lat":40.61639251106789,"lng":-74.10388554816927}],"postalCode":"10301","cc":"US","city":"Staten Island","state":"NY","country":"United States","formattedAddress":["1201 Victory Blvd","Staten Island, NY 10301","United States"]},"categories":[{"id":"4bf58dd8d48988d148941735","name":"Donut Shop","pluralName":"Donut Shops","shortName":"Donuts","icon":{"prefix":"https:\/\/ss3.4sqi.net\/img\/categories_v2\/food\/donuts_","suffix":".png"},"primary":true}],"verified":true,"stats":{"checkinsCount":1008,"usersCount":351,"tipCount":8},"url":"http:\/\/www.dunkindonuts.com","hasMenu":true,"menu":{"type":"Menu","label":"Menu","anchor":"View Menu","url":"https:\/\/foursquare.com\/v\/dunkin-donuts\/4c9cc556d3c2b60cbcb0babc\/menu","mobileUrl":"https:\/\/foursquare.com\/v\/4c9cc556d3c2b60cbcb0babc\/device_menu"},"allowMenuUrlEdit":true,"beenHere":{"lastCheckinExpiredAt":0},"specials":{"count":0,"items":[]},"storeId":"337725","referralId":"v-1483291016","venueChains":[{"id":"556f676fbd6a75a99038d8f0"}],"hasPerk":false},{"id":"4bd26fe3caff9521b6f6d2f0","name":"7-Eleven","contact":{"phone":"7187208280","formattedPhone":"(718) 720-8280","twitter":"7eleven","facebook":"208372819223680","facebookUsername":"7ElevenStatenIsland32653","facebookName":"7-Eleven"},"location":{"address":"1252 Forest Ave","crossStreet":"at Jewett Ave.","lat":40.625819,"lng":-74.131756,"labeledLatLngs":[{"label":"display","lat":40.625819,"lng":-74.131756}],"postalCode":"10302","cc":"US","city":"Staten Island","state":"NY","country":"United States","formattedAddress":["1252 Forest Ave (at Jewett Ave.)","Staten Island, NY 10302","United States"]},"categories":[{"id":"4d954b0ea243a5684a65b473","name":"Convenience Store","pluralName":"Convenience Stores","shortName":"Convenience Store","icon":{"prefix":"https:\/\/ss3.4sqi.net\/img\/categories_v2\/shops\/conveniencestore_","suffix":".png"},"primary":true}],"verified":true,"stats":{"checkinsCount":2021,"usersCount":448,"tipCount":9},"url":"http:\/\/www.7-eleven.com","allowMenuUrlEdit":true,"beenHere":{"lastCheckinExpiredAt":0},"specials":{"count":0,"items":[]},"storeId":"32653","referralId":"v-1483291016","venueChains":[{"id":"556f676fbd6a75a99038d8e9"}],"hasPerk":false},{"id":"4becc3ebd5510f478a05cd6c","name":"Dunkin Donuts","contact":{"phone":"7189801257","formattedPhone":"(718) 980-1257","twitter":"dunkindonuts","facebook":"6979393237","facebookUsername":"DunkinDonutsUS","facebookName":"Dunkin' Donuts"},"location":{"address":"1854 Hylan Blvd","lat":40.58408417281134,"lng":-74.09469705986389,"labeledLatLngs":[{"label":"display","lat":40.58408417281134,"lng":-74.09469705986389}],"postalCode":"10305","cc":"US","city":"Staten Island","state":"NY","country":"United States","formattedAddress":["1854 Hylan Blvd","Staten Island, NY 10305","United States"]},"categories":[{"id":"4bf58dd8d48988d148941735","name":"Donut Shop","pluralName":"Donut Shops","shortName":"Donuts","icon":{"prefix":"https:\/\/ss3.4sqi.net\/img\/categories_v2\/food\/donuts_","suffix":".png"},"primary":true}],"verified":true,"stats":{"checkinsCount":2084,"usersCount":546,"tipCount":6},"url":"http:\/\/www.dunkindonuts.com","hasMenu":true,"menu":{"type":"Menu","label":"Menu","anchor":"View Menu","url":"https:\/\/foursquare.com\/v\/dunkin-donuts\/4becc3ebd5510f478a05cd6c\/menu","mobileUrl":"https:\/\/foursquare.com\/v\/4becc3ebd5510f478a05cd6c\/device_menu"},"allowMenuUrlEdit":true,"beenHere":{"lastCheckinExpiredAt":0},"specials":{"count":0,"items":[]},"storeId":"337499","referralId":"v-1483291016","venueChains":[{"id":"556f676fbd6a75a99038d8f0"}],"hasPerk":false},{"id":"4a4171aef964a52051a51fe3","name":"New Dakota Diner","contact":{"phone":"7189839286","formattedPhone":"(718) 983-9286"},"location":{"address":"921 Richmond Ave","lat":40.62484951494137,"lng":-74.1488349698983,"labeledLatLngs":[{"label":"display","lat":40.62484951494137,"lng":-74.1488349698983}],"postalCode":"10314","cc":"US","city":"Staten Island","state":"NY","country":"United States","formattedAddress":["921 Richmond Ave","Staten Island, NY 10314","United States"]},"categories":[{"id":"4bf58dd8d48988d147941735","name":"Diner","pluralName":"Diners","shortName":"Diner","icon":{"prefix":"https:\/\/ss3.4sqi.net\/img\/categories_v2\/food\/diner_","suffix":".png"},"primary":true}],"verified":false,"stats":{"checkinsCount":1144,"usersCount":593,"tipCount":7},"url":"http:\/\/newdakotadiner.com","hasMenu":true,"delivery":{"id":"30768","url":"http:\/\/www.seamless.com\/food-delivery\/restaurant.30768.r?a=1026&utm_source=Foursquare&utm_medium=affiliate&utm_campaign=SeamlessOrderDeliveryLink","provider":{"name":"seamless"}},"menu":{"type":"Menu","label":"Menu","anchor":"View Menu","url":"https:\/\/foursquare.com\/v\/new-dakota-diner\/4a4171aef964a52051a51fe3\/menu","mobileUrl":"https:\/\/foursquare.com\/v\/4a4171aef964a52051a51fe3\/device_menu"},"allowMenuUrlEdit":true,"beenHere":{"lastCheckinExpiredAt":0},"specials":{"count":0,"items":[]},"referralId":"v-1483291016","venueChains":[],"hasPerk":false},{"id":"4c291c52e19720a193fff858","name":"7-Eleven","contact":{"phone":"7186673786","formattedPhone":"(718) 667-3786","twitter":"7eleven","facebook":"154460751304866","facebookUsername":"7ElevenStatenIsland19880","facebookName":"7-Eleven"},"location":{"address":"103 Lincoln Ave","crossStreet":"South Railroad","lat":40.579963340949,"lng":-74.10895496606821,"labeledLatLngs":[{"label":"display","lat":40.579963340949,"lng":-74.10895496606821}],"postalCode":"10306","cc":"US","city":"Staten Island","state":"NY","country":"United States","formattedAddress":["103 Lincoln Ave (South Railroad)","Staten Island, NY 10306","United States"]},"categories":[{"id":"4d954b0ea243a5684a65b473","name":"Convenience Store","pluralName":"Convenience Stores","shortName":"Convenience Store","icon":{"prefix":"https:\/\/ss3.4sqi.net\/img\/categories_v2\/shops\/conveniencestore_","suffix":".png"},"primary":true}],"verified":true,"stats":{"checkinsCount":1177,"usersCount":243,"tipCount":0},"url":"http:\/\/www.7-eleven.com","allowMenuUrlEdit":true,"beenHere":{"lastCheckinExpiredAt":0},"specials":{"count":0,"items":[]},"storeId":"19880","referralId":"v-1483291016","venueChains":[{"id":"556f676fbd6a75a99038d8e9"}],"hasPerk":false},{"id":"4b79b276f964a520e70b2fe3","name":"Brother's Pizza","contact":{"phone":"7184422332","formattedPhone":"(718) 442-2332"},"location":{"address":"750 Port Richmond Ave","lat":40.62544584274292,"lng":-74.143902,"labeledLatLngs":[{"label":"display","lat":40.62544584274292,"lng":-74.143902}],"postalCode":"10302","cc":"US","city":"Staten Island","state":"NY","country":"United States","formattedAddress":["750 Port Richmond Ave","Staten Island, NY 10302","United States"]},"categories":[{"id":"4bf58dd8d48988d1ca941735","name":"Pizza Place","pluralName":"Pizza Places","shortName":"Pizza","icon":{"prefix":"https:\/\/ss3.4sqi.net\/img\/categories_v2\/food\/pizza_","suffix":".png"},"primary":true}],"verified":false,"stats":{"checkinsCount":2122,"usersCount":907,"tipCount":40},"hasMenu":true,"menu":{"type":"Menu","label":"Menu","anchor":"View Menu","url":"https:\/\/foursquare.com\/v\/brothers-pizza\/4b79b276f964a520e70b2fe3\/menu","mobileUrl":"https:\/\/foursquare.com\/v\/4b79b276f964a520e70b2fe3\/device_menu"},"allowMenuUrlEdit":true,"beenHere":{"lastCheckinExpiredAt":0},"specials":{"count":0,"items":[]},"referralId":"v-1483291016","venueChains":[],"hasPerk":false},{"id":"4bd4503ca8b3a593a3866b5f","name":"Dunkin Donuts","contact":{"phone":"7182739641","formattedPhone":"(718) 273-9641","twitter":"dunkindonuts","facebook":"6979393237","facebookUsername":"DunkinDonutsUS","facebookName":"Dunkin' Donuts"},"location":{"address":"770 Forest Ave","crossStreet":"N. Burgher Ave","lat":40.6289219578601,"lng":-74.11514972340566,"labeledLatLngs":[{"label":"display","lat":40.6289219578601,"lng":-74.11514972340566}],"postalCode":"10310","cc":"US","city":"Staten Island","state":"NY","country":"United States","formattedAddress":["770 Forest Ave (N. Burgher Ave)","Staten Island, NY 10310","United States"]},"categories":[{"id":"4bf58dd8d48988d148941735","name":"Donut Shop","pluralName":"Donut Shops","shortName":"Donuts","icon":{"prefix":"https:\/\/ss3.4sqi.net\/img\/categories_v2\/food\/donuts_","suffix":".png"},"primary":true}],"verified":true,"stats":{"checkinsCount":2959,"usersCount":526,"tipCount":14},"url":"http:\/\/www.dunkindonuts.com","hasMenu":true,"menu":{"type":"Menu","label":"Menu","anchor":"View Menu","url":"https:\/\/foursquare.com\/v\/dunkin-donuts\/4bd4503ca8b3a593a3866b5f\/menu","mobileUrl":"https:\/\/foursquare.com\/v\/4bd4503ca8b3a593a3866b5f\/device_menu"},"allowMenuUrlEdit":true,"beenHere":{"lastCheckinExpiredAt":0},"specials":{"count":0,"items":[]},"storeId":"335880","referralId":"v-1483291016","venueChains":[{"id":"556f676fbd6a75a99038d8f0"}],"hasPerk":false},{"id":"4b8ebad5f964a520933333e3","name":"McDonald's","contact":{"phone":"7182736688","formattedPhone":"(718) 273-6688"},"location":{"address":"501 Bay St","lat":40.62975170998054,"lng":-74.07642199211263,"labeledLatLngs":[{"label":"display","lat":40.62975170998054,"lng":-74.07642199211263}],"postalCode":"10304","cc":"US","city":"Staten Island","state":"NY","country":"United States","formattedAddress":["501 Bay St","Staten Island, NY 10304","United States"]},"categories":[{"id":"4bf58dd8d48988d16e941735","name":"Fast Food Restaurant","pluralName":"Fast Food Restaurants","shortName":"Fast Food","icon":{"prefix":"https:\/\/ss3.4sqi.net\/img\/categories_v2\/food\/fastfood_","suffix":".png"},"primary":true}],"verified":true,"stats":{"checkinsCount":817,"usersCount":282,"tipCount":10},"url":"http:\/\/mcdonalds.com","hasMenu":true,"menu":{"type":"Menu","label":"Menu","anchor":"View Menu","url":"https:\/\/foursquare.com\/v\/mcdonalds\/4b8ebad5f964a520933333e3\/menu","mobileUrl":"https:\/\/foursquare.com\/v\/4b8ebad5f964a520933333e3\/device_menu"},"allowMenuUrlEdit":true,"beenHere":{"lastCheckinExpiredAt":0},"specials":{"count":0,"items":[]},"storeId":"11112","referralId":"v-1483291016","venueChains":[{"id":"556f7a12bd6a75a9903bddb2"}],"hasPerk":false},{"id":"4a4d4dd2f964a520dcad1fe3","name":"Denino's Pizzeria Tavern","contact":{"phone":"7184429401","formattedPhone":"(718) 442-9401"},"location":{"address":"524 Port Richmond Ave","lat":40.63024235,"lng":-74.14031635,"labeledLatLngs":[{"label":"display","lat":40.63024235,"lng":-74.14031635}],"postalCode":"10302","cc":"US","city":"Staten Island","state":"NY","country":"United States","formattedAddress":["524 Port Richmond Ave","Staten Island, NY 10302","United States"]},"categories":[{"id":"4bf58dd8d48988d1ca941735","name":"Pizza Place","pluralName":"Pizza Places","shortName":"Pizza","icon":{"prefix":"https:\/\/ss3.4sqi.net\/img\/categories_v2\/food\/pizza_","suffix":".png"},"primary":true}],"verified":false,"stats":{"checkinsCount":4617,"usersCount":2309,"tipCount":95},"url":"http:\/\/deninos.com","hasMenu":true,"menu":{"type":"Menu","label":"Menu","anchor":"View Menu","url":"https:\/\/foursquare.com\/v\/deninos-pizzeria-tavern\/4a4d4dd2f964a520dcad1fe3\/menu","mobileUrl":"https:\/\/foursquare.com\/v\/4a4d4dd2f964a520dcad1fe3\/device_menu"},"allowMenuUrlEdit":true,"beenHere":{"lastCheckinExpiredAt":0},"specials":{"count":0,"items":[]},"referralId":"v-1483291016","venueChains":[],"hasPerk":false},{"id":"4b194ddaf964a520efda23e3","name":"IHOP","contact":{"phone":"7184944467","formattedPhone":"(718) 494-4467","twitter":"IHOP","facebook":"10036618151","facebookUsername":"IHOP","facebookName":"IHOP"},"location":{"address":"935 Richmond Avenue #947","crossStreet":"at Forest Ave","lat":40.62444248736525,"lng":-74.14838770816627,"labeledLatLngs":[{"label":"display","lat":40.62444248736525,"lng":-74.14838770816627}],"postalCode":"10314","cc":"US","city":"Staten Island","state":"NY","country":"United States","formattedAddress":["935 Richmond Avenue #947 (at Forest Ave)","Staten Island, NY 10314","United States"]},"categories":[{"id":"4bf58dd8d48988d143941735","name":"Breakfast Spot","pluralName":"Breakfast Spots","shortName":"Breakfast","icon":{"prefix":"https:\/\/ss3.4sqi.net\/img\/categories_v2\/food\/breakfast_","suffix":".png"},"primary":true}],"verified":true,"stats":{"checkinsCount":3297,"usersCount":1565,"tipCount":20},"url":"http:\/\/restaurants.ihop.com\/ny\/staten-island\/4691\/","hasMenu":true,"menu":{"type":"Menu","label":"Menu","anchor":"View Menu","url":"http:\/\/www.ihop.com\/menus\/main-menu","mobileUrl":"http:\/\/www.ihop.com\/menus\/main-menu","externalUrl":"http:\/\/www.ihop.com\/menus\/main-menu"},"allowMenuUrlEdit":true,"beenHere":{"lastCheckinExpiredAt":0},"specials":{"count":0,"items":[]},"storeId":"4691","referralId":"v-1483291016","venueChains":[{"id":"556e0f6fa7c82e6b724f8c84"}],"hasPerk":false},{"id":"4bc2548cabf49521d067c293","name":"Dominick's Bakery & Cafe","contact":{"phone":"7183510040","formattedPhone":"(718) 351-0040"},"location":{"address":"31 New Dorp Ln","lat":40.57417417158632,"lng":-74.11692187677832,"labeledLatLngs":[{"label":"display","lat":40.57417417158632,"lng":-74.11692187677832}],"postalCode":"10306","cc":"US","city":"Staten Island","state":"NY","country":"United States","formattedAddress":["31 New Dorp Ln","Staten Island, NY 10306","United States"]},"categories":[{"id":"4bf58dd8d48988d110941735","name":"Italian Restaurant","pluralName":"Italian Restaurants","shortName":"Italian","icon":{"prefix":"https:\/\/ss3.4sqi.net\/img\/categories_v2\/food\/italian_","suffix":".png"},"primary":true}],"verified":false,"stats":{"checkinsCount":1776,"usersCount":639,"tipCount":30},"url":"http:\/\/dominicksbakerycafe.net","hasMenu":true,"menu":{"type":"Menu","label":"Menu","anchor":"View Menu","url":"https:\/\/foursquare.com\/v\/dominicks-bakery--cafe\/4bc2548cabf49521d067c293\/menu","mobileUrl":"https:\/\/foursquare.com\/v\/4bc2548cabf49521d067c293\/device_menu"},"allowMenuUrlEdit":true,"beenHere":{"lastCheckinExpiredAt":0},"specials":{"count":0,"items":[]},"referralId":"v-1483291016","venueChains":[],"hasPerk":false},{"id":"4bed7312e3562d7f0600fff8","name":"McDonald's","contact":{"phone":"7188766088","formattedPhone":"(718) 876-6088"},"location":{"address":"803 Forest Ave","crossStreet":"at Morningstar Rd.","lat":40.629304901159976,"lng":-74.11588847637177,"labeledLatLngs":[{"label":"display","lat":40.629304901159976,"lng":-74.11588847637177}],"postalCode":"10310","cc":"US","city":"Staten Island","state":"NY","country":"United States","formattedAddress":["803 Forest Ave (at Morningstar Rd.)","Staten Island, NY 10310","United States"]},"categories":[{"id":"4bf58dd8d48988d16e941735","name":"Fast Food Restaurant","pluralName":"Fast Food Restaurants","shortName":"Fast Food","icon":{"prefix":"https:\/\/ss3.4sqi.net\/img\/categories_v2\/food\/fastfood_","suffix":".png"},"primary":true}],"verified":true,"stats":{"checkinsCount":992,"usersCount":409,"tipCount":4},"url":"http:\/\/mcdonalds.com","hasMenu":true,"menu":{"type":"Menu","label":"Menu","anchor":"View Menu","url":"https:\/\/foursquare.com\/v\/mcdonalds\/4bed7312e3562d7f0600fff8\/menu","mobileUrl":"https:\/\/foursquare.com\/v\/4bed7312e3562d7f0600fff8\/device_menu"},"allowMenuUrlEdit":true,"beenHere":{"lastCheckinExpiredAt":0},"specials":{"count":0,"items":[]},"storeId":"11129","referralId":"v-1483291016","venueChains":[{"id":"556f7a12bd6a75a9903bddb2"}],"hasPerk":false},{"id":"4b2053c0f964a520a33024e3","name":"Adobe Blues","contact":{"phone":"7187202583","formattedPhone":"(718) 720-2583","facebook":"309946888575","facebookUsername":"adobeblues","facebookName":"Adobe Blues"},"location":{"address":"63 Lafayette Ave","crossStreet":"btwn Fillmore & W Buchanan St","lat":40.64330074554146,"lng":-74.09545418073836,"labeledLatLngs":[{"label":"display","lat":40.64330074554146,"lng":-74.09545418073836}],"postalCode":"10301","cc":"US","city":"Staten Island","state":"NY","country":"United States","formattedAddress":["63 Lafayette Ave (btwn Fillmore & W Buchanan St)","Staten Island, NY 10301","United States"]},"categories":[{"id":"4bf58dd8d48988d1c1941735","name":"Mexican Restaurant","pluralName":"Mexican Restaurants","shortName":"Mexican","icon":{"prefix":"https:\/\/ss3.4sqi.net\/img\/categories_v2\/food\/mexican_","suffix":".png"},"primary":true}],"verified":true,"stats":{"checkinsCount":5043,"usersCount":1361,"tipCount":62},"hasMenu":true,"menu":{"type":"Menu","label":"Menu","anchor":"View Menu","url":"https:\/\/foursquare.com\/v\/adobe-blues\/4b2053c0f964a520a33024e3\/menu","mobileUrl":"https:\/\/foursquare.com\/v\/4b2053c0f964a520a33024e3\/device_menu"},"allowMenuUrlEdit":true,"beenHere":{"lastCheckinExpiredAt":0},"specials":{"count":0,"items":[]},"venuePage":{"id":"97922389"},"referralId":"v-1483291016","venueChains":[],"hasPerk":false},{"id":"4c5d35ea85a1e21e1ccd5811","name":"7-Eleven","contact":{"phone":"7189792052","formattedPhone":"(718) 979-2052","twitter":"7eleven","facebook":"277869258893106","facebookUsername":"7ElevenStatenIsland34362","facebookName":"7-Eleven"},"location":{"address":"1740 Hylan Blvd","crossStreet":"at Seaview Ave.","lat":40.5862,"lng":-74.091901,"labeledLatLngs":[{"label":"display","lat":40.5862,"lng":-74.091901}],"postalCode":"10305","cc":"US","city":"Staten Island","state":"NY","country":"United States","formattedAddress":["1740 Hylan Blvd (at Seaview Ave.)","Staten Island, NY 10305","United States"]},"categories":[{"id":"4d954b0ea243a5684a65b473","name":"Convenience Store","pluralName":"Convenience Stores","shortName":"Convenience Store","icon":{"prefix":"https:\/\/ss3.4sqi.net\/img\/categories_v2\/shops\/conveniencestore_","suffix":".png"},"primary":true}],"verified":true,"stats":{"checkinsCount":1404,"usersCount":330,"tipCount":5},"url":"http:\/\/www.7-eleven.com","allowMenuUrlEdit":true,"beenHere":{"lastCheckinExpiredAt":0},"specials":{"count":0,"items":[]},"storeId":"34362","referralId":"v-1483291016","venueChains":[{"id":"556f676fbd6a75a99038d8e9"}],"hasPerk":false},{"id":"4b7daa07f964a52033cd2fe3","name":"Colonnade","contact":{},"location":{"address":"2001 Hylan Blvd","lat":40.58100029,"lng":-74.098772,"labeledLatLngs":[{"label":"display","lat":40.58100029,"lng":-74.098772}],"postalCode":"10306","cc":"US","city":"Staten Island","state":"NY","country":"United States","formattedAddress":["2001 Hylan Blvd","Staten Island, NY 10306","United States"]},"categories":[{"id":"4bf58dd8d48988d147941735","name":"Diner","pluralName":"Diners","shortName":"Diner","icon":{"prefix":"https:\/\/ss3.4sqi.net\/img\/categories_v2\/food\/diner_","suffix":".png"},"primary":true}],"verified":false,"stats":{"checkinsCount":1724,"usersCount":782,"tipCount":20},"url":"http:\/\/colonnadediner.com","hasMenu":true,"menu":{"type":"Menu","label":"Menu","anchor":"View Menu","url":"https:\/\/foursquare.com\/v\/colonnade\/4b7daa07f964a52033cd2fe3\/menu","mobileUrl":"https:\/\/foursquare.com\/v\/4b7daa07f964a52033cd2fe3\/device_menu"},"allowMenuUrlEdit":true,"beenHere":{"lastCheckinExpiredAt":0},"specials":{"count":0,"items":[]},"referralId":"v-1483291016","venueChains":[],"hasPerk":false},{"id":"4f9f1d83e4b0dcc38cb53ea4","name":"Bolla Market","contact":{},"location":{"lat":40.636431200841926,"lng":-74.07554433131,"labeledLatLngs":[{"label":"display","lat":40.636431200841926,"lng":-74.07554433131}],"postalCode":"10301","cc":"US","city":"Staten Island","state":"NY","country":"United States","formattedAddress":["Staten Island, NY 10301","United States"]},"categories":[{"id":"4bf58dd8d48988d146941735","name":"Deli \/ Bodega","pluralName":"Delis \/ Bodegas","shortName":"Deli \/ Bodega","icon":{"prefix":"https:\/\/ss3.4sqi.net\/img\/categories_v2\/food\/deli_","suffix":".png"},"primary":true}],"verified":false,"stats":{"checkinsCount":269,"usersCount":72,"tipCount":5},"allowMenuUrlEdit":true,"beenHere":{"lastCheckinExpiredAt":0},"specials":{"count":0,"items":[]},"referralId":"v-1483291016","venueChains":[],"hasPerk":false},{"id":"4b926617f964a520c6f633e3","name":"Dunkin Donuts","contact":{"phone":"7184204920","formattedPhone":"(718) 420-4920","twitter":"dunkindonuts","facebook":"6979393237","facebookUsername":"DunkinDonutsUS","facebookName":"Dunkin' Donuts"},"location":{"address":"1131 Bay St","lat":40.6152646423292,"lng":-74.06694533435564,"labeledLatLngs":[{"label":"display","lat":40.6152646423292,"lng":-74.06694533435564}],"postalCode":"10305","cc":"US","city":"Staten Island","state":"NY","country":"United States","formattedAddress":["1131 Bay St","Staten Island, NY 10305","United States"]},"categories":[{"id":"4bf58dd8d48988d148941735","name":"Donut Shop","pluralName":"Donut Shops","shortName":"Donuts","icon":{"prefix":"https:\/\/ss3.4sqi.net\/img\/categories_v2\/food\/donuts_","suffix":".png"},"primary":true}],"verified":true,"stats":{"checkinsCount":1320,"usersCount":423,"tipCount":9},"url":"http:\/\/www.dunkindonuts.com","hasMenu":true,"menu":{"type":"Menu","label":"Menu","anchor":"View Menu","url":"https:\/\/foursquare.com\/v\/dunkin-donuts\/4b926617f964a520c6f633e3\/menu","mobileUrl":"https:\/\/foursquare.com\/v\/4b926617f964a520c6f633e3\/device_menu"},"allowMenuUrlEdit":true,"beenHere":{"lastCheckinExpiredAt":0},"specials":{"count":0,"items":[]},"storeId":"335881","referralId":"v-1483291016","venueChains":[{"id":"556f676fbd6a75a99038d8f0"}],"hasPerk":false},{"id":"4af72d60f964a520ce0622e3","name":"Pasticceria Bruno","contact":{"phone":"7189875859","formattedPhone":"(718) 987-5859"},"location":{"address":"1650 Hylan Blvd","lat":40.58828419,"lng":-74.090321,"labeledLatLngs":[{"label":"display","lat":40.58828419,"lng":-74.090321}],"postalCode":"10305","cc":"US","city":"Staten Island","state":"NY","country":"United States","formattedAddress":["1650 Hylan Blvd","Staten Island, NY 10305","United States"]},"categories":[{"id":"4bf58dd8d48988d110941735","name":"Italian Restaurant","pluralName":"Italian Restaurants","shortName":"Italian","icon":{"prefix":"https:\/\/ss3.4sqi.net\/img\/categories_v2\/food\/italian_","suffix":".png"},"primary":true}],"verified":false,"stats":{"checkinsCount":1208,"usersCount":577,"tipCount":23},"url":"http:\/\/www.pasticceriabruno.com","hasMenu":true,"menu":{"type":"Menu","label":"Menu","anchor":"View Menu","url":"https:\/\/foursquare.com\/v\/pasticceria-bruno\/4af72d60f964a520ce0622e3\/menu","mobileUrl":"https:\/\/foursquare.com\/v\/4af72d60f964a520ce0622e3\/device_menu"},"allowMenuUrlEdit":true,"beenHere":{"lastCheckinExpiredAt":0},"specials":{"count":0,"items":[]},"referralId":"v-1483291016","venueChains":[],"hasPerk":false},{"id":"4bdc1f0e63c5c9b68a742a68","name":"The Bagel Depot","contact":{"phone":"3134094865","formattedPhone":"(313) 409-4865"},"location":{"address":"3459 Richmond Rd","lat":40.57315968,"lng":-74.136201,"labeledLatLngs":[{"label":"display","lat":40.57315968,"lng":-74.136201}],"postalCode":"10306","cc":"US","city":"Staten Island","state":"NY","country":"United States","formattedAddress":["3459 Richmond Rd","Staten Island, NY 10306","United States"]},"categories":[{"id":"4bf58dd8d48988d179941735","name":"Bagel Shop","pluralName":"Bagel Shops","shortName":"Bagels","icon":{"prefix":"https:\/\/ss3.4sqi.net\/img\/categories_v2\/food\/bagels_","suffix":".png"},"primary":true}],"verified":false,"stats":{"checkinsCount":718,"usersCount":103,"tipCount":1},"hasMenu":true,"delivery":{"id":"33715","url":"http:\/\/www.seamless.com\/food-delivery\/restaurant.33715.r?a=1026&utm_source=Foursquare&utm_medium=affiliate&utm_campaign=SeamlessOrderDeliveryLink","provider":{"name":"seamless"}},"menu":{"type":"Menu","label":"Menu","anchor":"View Menu","url":"https:\/\/foursquare.com\/v\/the-bagel-depot\/4bdc1f0e63c5c9b68a742a68\/menu","mobileUrl":"https:\/\/foursquare.com\/v\/4bdc1f0e63c5c9b68a742a68\/device_menu"},"allowMenuUrlEdit":true,"beenHere":{"lastCheckinExpiredAt":0},"specials":{"count":0,"items":[]},"referralId":"v-1483291016","venueChains":[],"hasPerk":false},{"id":"4303cf80f964a5201c271fe3","name":"Trattoria Romana","contact":{"phone":"7189803113","formattedPhone":"(718) 980-3113"},"location":{"address":"1476 Hylan Blvd","crossStreet":"at Benton Ave","lat":40.59223988766792,"lng":-74.08715436369619,"labeledLatLngs":[{"label":"display","lat":40.59223988766792,"lng":-74.08715436369619}],"postalCode":"10305","cc":"US","city":"Staten Island","state":"NY","country":"United States","formattedAddress":["1476 Hylan Blvd (at Benton Ave)","Staten Island, NY 10305","United States"]},"categories":[{"id":"4bf58dd8d48988d110941735","name":"Italian Restaurant","pluralName":"Italian Restaurants","shortName":"Italian","icon":{"prefix":"https:\/\/ss3.4sqi.net\/img\/categories_v2\/food\/italian_","suffix":".png"},"primary":true}],"verified":false,"stats":{"checkinsCount":1313,"usersCount":523,"tipCount":16},"url":"http:\/\/trattoriaromanasi.com","hasMenu":true,"menu":{"type":"Menu","label":"Menu","anchor":"View Menu","url":"https:\/\/foursquare.com\/v\/trattoria-romana\/4303cf80f964a5201c271fe3\/menu","mobileUrl":"https:\/\/foursquare.com\/v\/4303cf80f964a5201c271fe3\/device_menu"},"allowMenuUrlEdit":true,"beenHere":{"lastCheckinExpiredAt":0},"specials":{"count":0,"items":[]},"referralId":"v-1483291016","venueChains":[],"hasPerk":false},{"id":"4b0f2048f964a520735f23e3","name":"White Castle","contact":{},"location":{"address":"2221 Hylan Blvd","lat":40.57644462,"lng":-74.104103,"labeledLatLngs":[{"label":"display","lat":40.57644462,"lng":-74.104103}],"postalCode":"10306","cc":"US","city":"Staten Island","state":"NY","country":"United States","formattedAddress":["2221 Hylan Blvd","Staten Island, NY 10306","United States"]},"categories":[{"id":"4bf58dd8d48988d16c941735","name":"Burger Joint","pluralName":"Burger Joints","shortName":"Burgers","icon":{"prefix":"https:\/\/ss3.4sqi.net\/img\/categories_v2\/food\/burger_","suffix":".png"},"primary":true}],"verified":true,"stats":{"checkinsCount":1372,"usersCount":583,"tipCount":14},"url":"http:\/\/www.whitecastle.com","hasMenu":true,"menu":{"type":"Menu","label":"Menu","anchor":"View Menu","url":"https:\/\/foursquare.com\/v\/white-castle\/4b0f2048f964a520735f23e3\/menu","mobileUrl":"https:\/\/foursquare.com\/v\/4b0f2048f964a520735f23e3\/device_menu"},"allowMenuUrlEdit":true,"beenHere":{"lastCheckinExpiredAt":0},"specials":{"count":0,"items":[]},"storeId":"52","referralId":"v-1483291016","venueChains":[{"id":"556ce5abaceaff43eb0528b0"}],"hasPerk":false},{"id":"4bcddf9f511f95211255b5c7","name":"Pronto Pizza","contact":{"phone":"7184481166","formattedPhone":"(718) 448-1166","twitter":"prontopizzany"},"location":{"address":"738 Forest Ave","crossStreet":"at N Burgher Ave","lat":40.628936450876964,"lng":-74.11372661590576,"labeledLatLngs":[{"label":"display","lat":40.628936450876964,"lng":-74.11372661590576}],"postalCode":"10310","cc":"US","city":"Staten Island","state":"NY","country":"United States","formattedAddress":["738 Forest Ave (at N Burgher Ave)","Staten Island, NY 10310","United States"]},"categories":[{"id":"4bf58dd8d48988d1ca941735","name":"Pizza Place","pluralName":"Pizza Places","shortName":"Pizza","icon":{"prefix":"https:\/\/ss3.4sqi.net\/img\/categories_v2\/food\/pizza_","suffix":".png"},"primary":true}],"verified":true,"stats":{"checkinsCount":635,"usersCount":219,"tipCount":5},"url":"http:\/\/www.prontopizzany.com","hasMenu":true,"menu":{"type":"Menu","label":"Menu","anchor":"View Menu","url":"https:\/\/foursquare.com\/v\/pronto-pizza\/4bcddf9f511f95211255b5c7\/menu","mobileUrl":"https:\/\/foursquare.com\/v\/4bcddf9f511f95211255b5c7\/device_menu"},"allowMenuUrlEdit":true,"beenHere":{"lastCheckinExpiredAt":0},"specials":{"count":0,"items":[]},"storeId":"02","referralId":"v-1483291016","venueChains":[],"hasPerk":false}]}}