{"meta":{"code":200,"requestId":"586939841ed21945648ef14a"},"response":{"venues":[{"id":"53bf24b2498e27a169a6e717","name":"Shake Shack","contact":{"phone":"7187514760","formattedPhone":"(718) 751-4760","twitter":"shakeshack","facebook":"124653650181","facebookUsername":"shakeshack","facebookName":"Shake Shack"},"location":{"address":"Terminal 4, Gate B23","crossStreet":"JFK International Airport","lat":40.64229701103498,"lng":-73.78341073847061,"labeledLatLngs":[{"label":"display","lat":40.64229701103498,"lng":-73.78341073847061}],"postalCode":"11430","cc":"US","city":"Queens","state":"NY","country":"United States","formattedAddress":["Terminal 4, Gate B23 (JFK International Airport)","Queens, NY 11430","United States"]},"categories":[{"id":"4bf58dd8d48988d16c941735","name":"Burger Joint","pluralName":"Burger Joints","shortName":"Burgers","icon":{"prefix":"https:\/\/ss3.4sqi.net\/img\/categories_v2\/food\/burger_","suffix":".png"},"primary":true}],"verified":true,"stats":{"checkinsCount":4124,"usersCount":3352,"tipCount":58},"url":"http:\/\/www.shakeshack.com","menu":{"type":"Menu","label":"Menu","anchor":"View Menu","url":"http:\/\/shakeshack.com\/location\/jfk-airport-nyc\/#full-menu","mobileUrl":"http:\/\/shakeshack.com\/location\/jfk-airport-nyc\/#full-menu","externalUrl":"http:\/\/shakeshack.com\/location\/jfk-airport-nyc\/#full-menu"},"allowMenuUrlEdit":true,"beenHere":{"lastCheckinExpiredAt":0},"specials":{"count":0,"items":[]},"referralId":"v-1483291012","venueChains":[{"id":"5569f96da7c8896abe7d2328"}],"hasPerk":false},{"id":"519f77db498e69d6f85bbe0f","name":"Shake Shack","contact":{"phone":"7187514760","formattedPhone":"(718) 751-4760","twitter":"shakeshack","facebook":"124653650181","facebookUsername":"shakeshack","facebookName":"Shake Shack"},"location":{"address":"Terminal 4, Gate B34","crossStreet":"JFK International Airport","lat":40.63858671923902,"lng":-73.78111272516561,"labeledLatLngs":[{"label":"display","lat":40.63858671923902,"lng":-73.78111272516561}],"postalCode":"11430","cc":"US","city":"Queens","state":"NY","country":"United States","formattedAddress":["Terminal 4, Gate B34 (JFK International Airport)","Queens, NY 11430","United States"]},"categories":[{"id":"4bf58dd8d48988d16c941735","name":"Burger Joint","pluralName":"Burger Joints","shortName":"Burgers","icon":{"prefix":"https:\/\/ss3.4sqi.net\/img\/categories_v2\/food\/burger_","suffix":".png"},"primary":true}],"verified":true,"stats":{"checkinsCount":8675,"usersCount":6572,"tipCount":132},"url":"http:\/\/www.shakeshack.com","allowMenuUrlEdit":true,"beenHere":{"lastCheckinExpiredAt":0},"specials":{"count":0,"items":[]},"storeId":"","referralId":"v-1483291012","venueChains":[{"id":"5569f96da7c8896abe7d2328"}],"hasPerk":false},{"id":"4b37c120f964a520904525e3","name":"Buffalo Wild Wings","contact":{"phone":"7187514769","formattedPhone":"(718) 751-4769","twitter":"bwwings"},"location":{"address":"Terminal 4","crossStreet":"JFK International Airport","lat":40.64103521391287,"lng":-73.78259181976318,"labeledLatLngs":[{"label":"display","lat":40.64103521391287,"lng":-73.78259181976318}],"postalCode":"11430","cc":"US","city":"Jamaica","state":"NY","country":"United States","formattedAddress":["Terminal 4 (JFK International Airport)","Jamaica, NY 11430","United States"]},"categories":[{"id":"4bf58dd8d48988d14c941735","name":"Wings Joint","pluralName":"Wings Joints","shortName":"Wings","icon":{"prefix":"https:\/\/ss3.4sqi.net\/img\/categories_v2\/food\/wings_","suffix":".png"},"primary":true}],"verified":true,"stats":{"checkinsCount":4101,"usersCount":3617,"tipCount":71},"url":"http:\/\/www.buffalowildwings.com","allowMenuUrlEdit":true,"beenHere":{"lastCheckinExpiredAt":0},"specials":{"count":0,"items":[]},"storeId":"3483","referralId":"v-1483291012","venueChains":[{"id":"556d1d36aceaff43eb0a9e66"}],"hasPerk":false},{"id":"4c040764f423a593fe09d116","name":"7-Eleven","contact":{"phone":"5163719887","formattedPhone":"(516) 371-9887","twitter":"7eleven","facebook":"253426251355189","facebookUsername":"7ElevenLawrence33094","facebookName":"7-Eleven"},"location":{"address":"480 Rockaway Turnpike Nec","lat":40.628861,"lng":-73.736993,"labeledLatLngs":[{"label":"display","lat":40.628861,"lng":-73.736993}],"postalCode":"11559","cc":"US","city":"Lawrence","state":"NY","country":"United States","formattedAddress":["480 Rockaway Turnpike Nec","Lawrence, NY 11559","United States"]},"categories":[{"id":"4d954b0ea243a5684a65b473","name":"Convenience Store","pluralName":"Convenience Stores","shortName":"Convenience Store","icon":{"prefix":"https:\/\/ss3.4sqi.net\/img\/categories_v2\/shops\/conveniencestore_","suffix":".png"},"primary":true}],"verified":true,"stats":{"checkinsCount":1178,"usersCount":342,"tipCount":2},"url":"http:\/\/www.7-eleven.com","allowMenuUrlEdit":true,"beenHere":{"lastCheckinExpiredAt":0},"specials":{"count":0,"items":[]},"storeId":"33094","referralId":"v-1483291012","venueChains":[{"id":"556f676fbd6a75a99038d8e9"}],"hasPerk":false},{"id":"4d67aac7052ea1cdffdd9c49","name":"Ralph's Diner","contact":{"phone":"7183279724","formattedPhone":"(718) 327-9724"},"location":{"address":"21-23 Mott Ave","crossStreet":"at Redfern Ave","lat":40.604753628373174,"lng":-73.75421826123954,"labeledLatLngs":[{"label":"display","lat":40.604753628373174,"lng":-73.75421826123954}],"postalCode":"11691","cc":"US","city":"Far Rockaway","state":"NY","country":"United States","formattedAddress":["21-23 Mott Ave (at Redfern Ave)","Far Rockaway, NY 11691","United States"]},"categories":[{"id":"4bf58dd8d48988d143941735","name":"Breakfast Spot","pluralName":"Breakfast Spots","shortName":"Breakfast","icon":{"prefix":"https:\/\/ss3.4sqi.net\/img\/categories_v2\/food\/breakfast_","suffix":".png"},"primary":true}],"verified":false,"stats":{"checkinsCount":472,"usersCount":91,"tipCount":8},"allowMenuUrlEdit":true,"beenHere":{"lastCheckinExpiredAt":0},"specials":{"count":0,"items":[]},"referralId":"v-1483291012","venueChains":[],"hasPerk":false},{"id":"4d716f2f320b8cfa0fe268e9","name":"Panera Bread","contact":{"phone":"5162390183","formattedPhone":"(516) 239-0183","twitter":"panerabread","facebook":"99044554628","facebookUsername":"panerabread","facebookName":"Panera Bread"},"location":{"address":"345 Rockaway Tpke","lat":40.627341498981494,"lng":-73.73917509312129,"labeledLatLngs":[{"label":"display","lat":40.627341498981494,"lng":-73.73917509312129}],"postalCode":"11559","cc":"US","city":"Lawrence","state":"NY","country":"United States","formattedAddress":["345 Rockaway Tpke","Lawrence, NY 11559","United States"]},"categories":[{"id":"4bf58dd8d48988d1c5941735","name":"Sandwich Place","pluralName":"Sandwich Places","shortName":"Sandwiches","icon":{"prefix":"https:\/\/ss3.4sqi.net\/img\/categories_v2\/food\/deli_","suffix":".png"},"primary":true}],"verified":true,"stats":{"checkinsCount":2823,"usersCount":1056,"tipCount":19},"url":"http:\/\/www.panerabread.com","hasMenu":true,"menu":{"type":"Menu","label":"Menu","anchor":"View Menu","url":"https:\/\/foursquare.com\/v\/panera-bread\/4d716f2f320b8cfa0fe268e9\/menu","mobileUrl":"https:\/\/foursquare.com\/v\/4d716f2f320b8cfa0fe268e9\/device_menu"},"allowMenuUrlEdit":true,"beenHere":{"lastCheckinExpiredAt":0},"specials":{"count":0,"items":[]},"storeId":"4656","referralId":"v-1483291012","venueChains":[{"id":"556e0f6fa7c82e6b724f8c8a"}],"hasPerk":false},{"id":"4b9e327ff964a52027d136e3","name":"Dunkin' Donuts","contact":{"phone":"7184740024","formattedPhone":"(718) 474-0024","twitter":"dunkindonuts","facebook":"6979393237","facebookUsername":"DunkinDonutsUS","facebookName":"Dunkin' Donuts"},"location":{"address":"4901 Beach Channel Dr","crossStreet":"Beach 50th st","lat":40.59581448380241,"lng":-73.7821295993167,"labeledLatLngs":[{"label":"display","lat":40.59581448380241,"lng":-73.7821295993167}],"postalCode":"11691","cc":"US","city":"Far Rockaway","state":"NY","country":"United States","formattedAddress":["4901 Beach Channel Dr (Beach 50th st)","Far Rockaway, NY 11691","United States"]},"categories":[{"id":"4bf58dd8d48988d148941735","name":"Donut Shop","pluralName":"Donut Shops","shortName":"Donuts","icon":{"prefix":"https:\/\/ss3.4sqi.net\/img\/categories_v2\/food\/donuts_","suffix":".png"},"primary":true}],"verified":true,"stats":{"checkinsCount":424,"usersCount":146,"tipCount":3},"url":"http:\/\/www.dunkindonuts.com","hasMenu":true,"menu":{"type":"Menu","label":"Menu","anchor":"View Menu","url":"https:\/\/foursquare.com\/v\/dunkin-donuts\/4b9e327ff964a52027d136e3\/menu","mobileUrl":"https:\/\/foursquare.com\/v\/4b9e327ff964a52027d136e3\/device_menu"},"allowMenuUrlEdit":true,"beenHere":{"lastCheckinExpiredAt":0},"specials":{"count":0,"items":[]},"storeId":"343698","referralId":"v-1483291012","venueChains":[{"id":"556f676fbd6a75a99038d8f0"}],"hasPerk":false},{"id":"4b1ab92df964a5204ff023e3","name":"New York Sports Grill","contact":{"phone":"7186566210","formattedPhone":"(718) 656-6210"},"location":{"address":"Terminal 5","crossStreet":"JFK International Airport","lat":40.645724319777806,"lng":-73.7736976146698,"labeledLatLngs":[{"label":"display","lat":40.645724319777806,"lng":-73.7736976146698}],"postalCode":"11430","cc":"US","city":"Jamaica","state":"NY","country":"United States","formattedAddress":["Terminal 5 (JFK International Airport)","Jamaica, NY 11430","United States"]},"categories":[{"id":"4bf58dd8d48988d116941735","name":"Bar","pluralName":"Bars","shortName":"Bar","icon":{"prefix":"https:\/\/ss3.4sqi.net\/img\/categories_v2\/nightlife\/pub_","suffix":".png"},"primary":true}],"verified":true,"stats":{"checkinsCount":4472,"usersCount":3808,"tipCount":82},"allowMenuUrlEdit":true,"beenHere":{"lastCheckinExpiredAt":0},"specials":{"count":0,"items":[]},"venuePage":{"id":"37611880"},"storeId":"","referralId":"v-1483291012","venueChains":[],"hasPerk":false},{"id":"4eb9c26046906fa3574d411f","name":"Lucky Cornaga","contact":{},"location":{"address":"Cornaga Ave, Queens, NY 11691","lat":40.602499218003516,"lng":-73.74942617484594,"labeledLatLngs":[{"label":"display","lat":40.602499218003516,"lng":-73.74942617484594}],"postalCode":"11691","cc":"US","city":"Queens","state":"NY","country":"United States","formattedAddress":["Cornaga Ave, Queens, NY 11691","Queens, NY 11691","United States"]},"categories":[{"id":"4bf58dd8d48988d145941735","name":"Chinese Restaurant","pluralName":"Chinese Restaurants","shortName":"Chinese","icon":{"prefix":"https:\/\/ss3.4sqi.net\/img\/categories_v2\/food\/asian_","suffix":".png"},"primary":true}],"verified":false,"stats":{"checkinsCount":113,"usersCount":54,"tipCount":0},"allowMenuUrlEdit":true,"beenHere":{"lastCheckinExpiredAt":0},"specials":{"count":0,"items":[]},"referralId":"v-1483291012","venueChains":[],"hasPerk":false},{"id":"4b6b5520f964a52077012ce3","name":"The Palm Bar & Grille","contact":{"phone":"7187514798","formattedPhone":"(718) 751-4798"},"location":{"address":"Terminal 4","crossStreet":"JFK International Airport","lat":40.64349588482962,"lng":-73.7829051778138,"labeledLatLngs":[{"label":"display","lat":40.64349588482962,"lng":-73.7829051778138}],"postalCode":"11430","cc":"US","city":"Jamaica","state":"NY","country":"United States","formattedAddress":["Terminal 4 (JFK International Airport)","Jamaica, NY 11430","United States"]},"categories":[{"id":"4bf58dd8d48988d1cc941735","name":"Steakhouse","pluralName":"Steakhouses","shortName":"Steakhouse","icon":{"prefix":"https:\/\/ss3.4sqi.net\/img\/categories_v2\/food\/steakhouse_","suffix":".png"},"primary":true}],"verified":false,"stats":{"checkinsCount":2944,"usersCount":2492,"tipCount":62},"url":"http:\/\/www.thepalm.com ","allowMenuUrlEdit":true,"beenHere":{"lastCheckinExpiredAt":0},"specials":{"count":0,"items":[]},"referralId":"v-1483291012","venueChains":[],"hasPerk":false},{"id":"4be6e78acf200f4778fa143c","name":"Sherwood Diner","contact":{"phone":"5163714616","formattedPhone":"(516) 371-4616"},"location":{"address":"311 Rockaway Tpke","lat":40.625487237606414,"lng":-73.73624447486257,"labeledLatLngs":[{"label":"display","lat":40.625487237606414,"lng":-73.73624447486257}],"postalCode":"11559","cc":"US","city":"Lawrence","state":"NY","country":"United States","formattedAddress":["311 Rockaway Tpke","Lawrence, NY 11559","United States"]},"categories":[{"id":"4bf58dd8d48988d147941735","name":"Diner","pluralName":"Diners","shortName":"Diner","icon":{"prefix":"https:\/\/ss3.4sqi.net\/img\/categories_v2\/food\/diner_","suffix":".png"},"primary":true}],"verified":false,"stats":{"checkinsCount":1557,"usersCount":664,"tipCount":22},"allowMenuUrlEdit":true,"beenHere":{"lastCheckinExpiredAt":0},"specials":{"count":0,"items":[]},"referralId":"v-1483291012","venueChains":[],"hasPerk":false},{"id":"5273704c11d24d55fe7c6ff9","name":"Starbucks","contact":{"twitter":"starbucks","facebook":"22092443056","facebookUsername":"Starbucks","facebookName":"Starbucks"},"location":{"address":"Terminal 5","crossStreet":"JFK International Airport","lat":40.646005559030144,"lng":-73.77537906665597,"labeledLatLngs":[{"label":"display","lat":40.646005559030144,"lng":-73.77537906665597}],"cc":"US","city":"Jamaica","state":"NY","country":"United States","formattedAddress":["Terminal 5 (JFK International Airport)","Jamaica, NY","United States"]},"categories":[{"id":"4bf58dd8d48988d1e0931735","name":"Coffee Shop","pluralName":"Coffee Shops","shortName":"Coffee Shop","icon":{"prefix":"https:\/\/ss3.4sqi.net\/img\/categories_v2\/food\/coffeeshop_","suffix":".png"},"primary":true}],"verified":false,"stats":{"checkinsCount":1492,"usersCount":918,"tipCount":11},"url":"http:\/\/www.starbucks.com","menu":{"type":"Menu","label":"Menu","anchor":"View Menu","url":"http:\/\/www.starbucks.com\/menu","mobileUrl":"http:\/\/www.starbucks.com\/menu","externalUrl":"http:\/\/www.starbucks.com\/menu"},"allowMenuUrlEdit":true,"beenHere":{"lastCheckinExpiredAt":0},"specials":{"count":0,"items":[]},"referralId":"v-1483291012","venueChains":[{"id":"556f676fbd6a75a99038d8ec"}],"hasPerk":false},{"id":"4aa5c50ff964a5206b4920e3","name":"Marinara Pizzeria & Restaurant","contact":{"phone":"5167915205","formattedPhone":"(516) 791-5205"},"location":{"address":"1308 Peninsula Blvd","crossStreet":"Mill Rd","lat":40.6447962937228,"lng":-73.7043571472168,"labeledLatLngs":[{"label":"display","lat":40.6447962937228,"lng":-73.7043571472168}],"postalCode":"11557","cc":"US","city":"Hewlett","state":"NY","country":"United States","formattedAddress":["1308 Peninsula Blvd (Mill Rd)","Hewlett, NY 11557","United States"]},"categories":[{"id":"4bf58dd8d48988d1ca941735","name":"Pizza Place","pluralName":"Pizza Places","shortName":"Pizza","icon":{"prefix":"https:\/\/ss3.4sqi.net\/img\/categories_v2\/food\/pizza_","suffix":".png"},"primary":true}],"verified":false,"stats":{"checkinsCount":1986,"usersCount":600,"tipCount":22},"url":"http:\/\/www.marinarahewlett.com\/","hasMenu":true,"menu":{"type":"Menu","label":"Menu","anchor":"View Menu","url":"https:\/\/foursquare.com\/v\/marinara-pizzeria--restaurant\/4aa5c50ff964a5206b4920e3\/menu","mobileUrl":"https:\/\/foursquare.com\/v\/4aa5c50ff964a5206b4920e3\/device_menu"},"allowMenuUrlEdit":true,"beenHere":{"lastCheckinExpiredAt":0},"specials":{"count":0,"items":[]},"referralId":"v-1483291012","venueChains":[],"hasPerk":false},{"id":"4b314845f964a520de0325e3","name":"Legends Sports Bar","contact":{"twitter":"hmshost","facebookUsername":"Hmshost","facebookName":"HMSHost"},"location":{"address":"Gate 25, Terminal 2","crossStreet":"JFK International Airport","lat":40.64085610958809,"lng":-73.78935098648071,"labeledLatLngs":[{"label":"display","lat":40.64085610958809,"lng":-73.78935098648071}],"postalCode":"11430","cc":"US","city":"Jamaica","state":"NY","country":"United States","formattedAddress":["Gate 25, Terminal 2 (JFK International Airport)","Jamaica, NY 11430","United States"]},"categories":[{"id":"4bf58dd8d48988d11d941735","name":"Sports Bar","pluralName":"Sports Bars","shortName":"Sports Bar","icon":{"prefix":"https:\/\/ss3.4sqi.net\/img\/categories_v2\/nightlife\/sportsbar_","suffix":".png"},"primary":true}],"verified":true,"stats":{"checkinsCount":2605,"usersCount":1209,"tipCount":40},"allowMenuUrlEdit":true,"beenHere":{"lastCheckinExpiredAt":0},"specials":{"count":0,"items":[]},"storeId":"JFKBAR44","referralId":"v-1483291012","venueChains":[],"hasPerk":false},{"id":"4b51f138f964a5207e5c27e3","name":"IHOP","contact":{"phone":"7189786689","formattedPhone":"(718) 978-6689","twitter":"IHOP","facebook":"10036618151","facebookUsername":"IHOP","facebookName":"IHOP"},"location":{"address":"25402 Rockaway Blvd","lat":40.63543135560662,"lng":-73.74042777575153,"labeledLatLngs":[{"label":"display","lat":40.63543135560662,"lng":-73.74042777575153}],"postalCode":"11422","cc":"US","city":"Rosedale","state":"NY","country":"United States","formattedAddress":["25402 Rockaway Blvd","Rosedale, NY 11422","United States"]},"categories":[{"id":"4bf58dd8d48988d143941735","name":"Breakfast Spot","pluralName":"Breakfast Spots","shortName":"Breakfast","icon":{"prefix":"https:\/\/ss3.4sqi.net\/img\/categories_v2\/food\/breakfast_","suffix":".png"},"primary":true}],"verified":true,"stats":{"checkinsCount":1704,"usersCount":920,"tipCount":19},"url":"http:\/\/restaurants.ihop.com\/ny\/rosedale\/4635\/","hasMenu":true,"delivery":{"id":"100496","url":"http:\/\/www.grubhub.com\/order_redir.jsp?custId=100496&affId=1131","provider":{"name":"grubhub"}},"menu":{"type":"Menu","label":"Menu","anchor":"View Menu","url":"http:\/\/www.ihop.com\/menus\/main-menu","mobileUrl":"http:\/\/www.ihop.com\/menus\/main-menu","externalUrl":"http:\/\/www.ihop.com\/menus\/main-menu"},"allowMenuUrlEdit":true,"beenHere":{"lastCheckinExpiredAt":0},"specials":{"count":0,"items":[]},"storeId":"4635","referralId":"v-1483291012","venueChains":[{"id":"556e0f6fa7c82e6b724f8c84"}],"hasPerk":false},{"id":"4ba51ed7f964a52017e038e3","name":"Cheese Store","contact":{"phone":"5162953099","formattedPhone":"(516) 295-3099"},"location":{"address":"532 Central Ave","lat":40.622532,"lng":-73.723102,"labeledLatLngs":[{"label":"display","lat":40.622532,"lng":-73.723102}],"postalCode":"11221","cc":"US","city":"Brooklyn","state":"NY","country":"United States","formattedAddress":["532 Central Ave","Brooklyn, NY 11221","United States"]},"categories":[{"id":"4bf58dd8d48988d1f5941735","name":"Gourmet Shop","pluralName":"Gourmet Shops","shortName":"Gourmet","icon":{"prefix":"https:\/\/ss3.4sqi.net\/img\/categories_v2\/shops\/food_gourmet_","suffix":".png"},"primary":true}],"verified":false,"stats":{"checkinsCount":1315,"usersCount":210,"tipCount":10},"url":"http:\/\/cheesestorecedarhurst.com","allowMenuUrlEdit":true,"beenHere":{"lastCheckinExpiredAt":0},"specials":{"count":0,"items":[]},"referralId":"v-1483291012","venueChains":[],"hasPerk":false},{"id":"55cb15d6498ec273830430bd","name":"Flatiron Coffee Roasters","contact":{},"location":{"address":"Terminal 4","crossStreet":"JFK International Airport","lat":40.64396280284224,"lng":-73.7822732251917,"labeledLatLngs":[{"label":"display","lat":40.64396280284224,"lng":-73.7822732251917}],"postalCode":"11430","cc":"US","city":"Jamaica","state":"NY","country":"United States","formattedAddress":["Terminal 4 (JFK International Airport)","Jamaica, NY 11430","United States"]},"categories":[{"id":"4bf58dd8d48988d1e0931735","name":"Coffee Shop","pluralName":"Coffee Shops","shortName":"Coffee Shop","icon":{"prefix":"https:\/\/ss3.4sqi.net\/img\/categories_v2\/food\/coffeeshop_","suffix":".png"},"primary":true}],"verified":false,"stats":{"checkinsCount":636,"usersCount":359,"tipCount":14},"allowMenuUrlEdit":true,"beenHere":{"lastCheckinExpiredAt":0},"specials":{"count":0,"items":[]},"referralId":"v-1483291012","venueChains":[],"hasPerk":false},{"id":"519f334a498ef048d73c4160","name":"Blue Smoke On The Road","contact":{},"location":{"address":"Concourse B - Terminal 4","crossStreet":"JFK International Airport","lat":40.63842337852975,"lng":-73.78118741101399,"labeledLatLngs":[{"label":"display","lat":40.63842337852975,"lng":-73.78118741101399}],"postalCode":"11430","cc":"US","city":"Queens","state":"NY","country":"United States","formattedAddress":["Concourse B - Terminal 4 (JFK International Airport)","Queens, NY 11430","United States"]},"categories":[{"id":"4bf58dd8d48988d1df931735","name":"BBQ Joint","pluralName":"BBQ Joints","shortName":"BBQ","icon":{"prefix":"https:\/\/ss3.4sqi.net\/img\/categories_v2\/food\/bbqalt_","suffix":".png"},"primary":true}],"verified":false,"stats":{"checkinsCount":1579,"usersCount":1300,"tipCount":32},"allowMenuUrlEdit":true,"beenHere":{"lastCheckinExpiredAt":0},"specials":{"count":0,"items":[]},"referralId":"v-1483291012","venueChains":[],"hasPerk":false},{"id":"545e883e498e7ab0f033ac72","name":"Chipotle Mexican Grill","contact":{"phone":"5162393952","formattedPhone":"(516) 239-3952","twitter":"chipotletweets"},"location":{"address":"331 Rockaway Tpke","crossStreet":"Bay and Rockaway","lat":40.62757276103285,"lng":-73.73746269782959,"labeledLatLngs":[{"label":"display","lat":40.62757276103285,"lng":-73.73746269782959}],"postalCode":"11559","cc":"US","city":"Lawrence","state":"NY","country":"United States","formattedAddress":["331 Rockaway Tpke (Bay and Rockaway)","Lawrence, NY 11559","United States"]},"categories":[{"id":"4bf58dd8d48988d1c1941735","name":"Mexican Restaurant","pluralName":"Mexican Restaurants","shortName":"Mexican","icon":{"prefix":"https:\/\/ss3.4sqi.net\/img\/categories_v2\/food\/mexican_","suffix":".png"},"primary":true}],"verified":true,"stats":{"checkinsCount":346,"usersCount":151,"tipCount":1},"url":"http:\/\/www.chipotle.com","allowMenuUrlEdit":true,"beenHere":{"lastCheckinExpiredAt":0},"specials":{"count":0,"items":[]},"storeId":"2252","referralId":"v-1483291012","venueChains":[{"id":"556e0f6fa7c82e6b724f8c82"}],"hasPerk":false},{"id":"4c030b080d0e0f47cc16029a","name":"Starbucks","contact":{"phone":"5163710238","formattedPhone":"(516) 371-0238","twitter":"starbucks","facebook":"22092443056","facebookUsername":"Starbucks","facebookName":"Starbucks"},"location":{"address":"316 Rockaway Tpke","crossStreet":"at Rugby Rd","lat":40.626367447796866,"lng":-73.73618701133306,"labeledLatLngs":[{"label":"display","lat":40.626367447796866,"lng":-73.73618701133306}],"postalCode":"11516","cc":"US","city":"Brooklyn","state":"NY","country":"United States","formattedAddress":["316 Rockaway Tpke (at Rugby Rd)","Brooklyn, NY 11516","United States"]},"categories":[{"id":"4bf58dd8d48988d1e0931735","name":"Coffee Shop","pluralName":"Coffee Shops","shortName":"Coffee Shop","icon":{"prefix":"https:\/\/ss3.4sqi.net\/img\/categories_v2\/food\/coffeeshop_","suffix":".png"},"primary":true}],"verified":true,"stats":{"checkinsCount":3872,"usersCount":709,"tipCount":24},"url":"http:\/\/www.starbucks.com\/store\/6870\/","hasMenu":true,"menu":{"type":"Menu","label":"Menu","anchor":"View Menu","url":"http:\/\/www.starbucks.com\/menu","mobileUrl":"http:\/\/www.starbucks.com\/menu","externalUrl":"http:\/\/www.starbucks.com\/menu"},"allowMenuUrlEdit":true,"beenHere":{"lastCheckinExpiredAt":0},"specials":{"count":0,"items":[]},"storeId":"11536","referralId":"v-1483291012","venueChains":[{"id":"556f676fbd6a75a99038d8ec"}],"hasPerk":false},{"id":"4b5700edf964a520822228e3","name":"Jamba Juice JFK - Terminal 4","contact":{"phone":"7187514773","formattedPhone":"(718) 751-4773","twitter":"jambajuice","facebook":"45795797357","facebookUsername":"jambajuice","facebookName":"Jamba Juice"},"location":{"address":"JFK International Airport,","crossStreet":"JFK International Airport","lat":40.64384473,"lng":-73.78220195,"labeledLatLngs":[{"label":"display","lat":40.64384473,"lng":-73.78220195}],"postalCode":"11430","cc":"US","city":"Jamaica","state":"NY","country":"United States","formattedAddress":["JFK International Airport, (JFK International Airport)","Jamaica, NY 11430","United States"]},"categories":[{"id":"4bf58dd8d48988d112941735","name":"Juice Bar","pluralName":"Juice Bars","shortName":"Juice Bar","icon":{"prefix":"https:\/\/ss3.4sqi.net\/img\/categories_v2\/food\/juicebar_","suffix":".png"},"primary":true}],"verified":true,"stats":{"checkinsCount":3649,"usersCount":2485,"tipCount":27},"url":"http:\/\/locations.jambajuice.com\/ny\/jamaica\/jfk-international-airport.html","menu":{"type":"Menu","label":"Menu","anchor":"View Menu","url":"http:\/\/jambajuice.com\/menu-and-nutrition\/menu\/","mobileUrl":"http:\/\/jambajuice.com\/menu-and-nutrition\/menu\/","externalUrl":"http:\/\/jambajuice.com\/menu-and-nutrition\/menu\/"},"allowMenuUrlEdit":true,"beenHere":{"lastCheckinExpiredAt":0},"specials":{"count":0,"items":[]},"storeId":"1433","referralId":"v-1483291012","venueChains":[{"id":"556d0fe9aceaff43eb08b7c9"}],"hasPerk":false},{"id":"519d22b2498e941d434029ac","name":"Uptown Brasserie By Marcus Samuelsson","contact":{"twitter":"uptownbrasserie"},"location":{"address":"JFK Airport Terminal 4","lat":40.639079325171295,"lng":-73.78135976286512,"labeledLatLngs":[{"label":"display","lat":40.639079325171295,"lng":-73.78135976286512}],"cc":"US","city":"Jamaica","state":"NY","country":"United States","formattedAddress":["JFK Airport Terminal 4","Jamaica, NY","United States"]},"categories":[{"id":"4bf58dd8d48988d157941735","name":"New American Restaurant","pluralName":"New American Restaurants","shortName":"New American","icon":{"prefix":"https:\/\/ss3.4sqi.net\/img\/categories_v2\/food\/newamerican_","suffix":".png"},"primary":true}],"verified":false,"stats":{"checkinsCount":1318,"usersCount":1143,"tipCount":30},"allowMenuUrlEdit":true,"beenHere":{"lastCheckinExpiredAt":0},"specials":{"count":0,"items":[]},"referralId":"v-1483291012","venueChains":[],"hasPerk":false},{"id":"5134fe4c5d2462254ac0372e","name":"Dunkin' Donuts","contact":{"phone":"6316620284","formattedPhone":"(631) 662-0284","twitter":"dunkindonuts","facebook":"6979393237","facebookUsername":"DunkinDonutsUS","facebookName":"Dunkin' Donuts"},"location":{"address":"Terminal 5","crossStreet":"JFK International Airport","lat":40.641313042363464,"lng":-73.7767291914392,"labeledLatLngs":[{"label":"display","lat":40.641313042363464,"lng":-73.7767291914392}],"postalCode":"11430","cc":"US","city":"Jamaica","state":"NY","country":"United States","formattedAddress":["Terminal 5 (JFK International Airport)","Jamaica, NY 11430","United States"]},"categories":[{"id":"4bf58dd8d48988d148941735","name":"Donut Shop","pluralName":"Donut Shops","shortName":"Donuts","icon":{"prefix":"https:\/\/ss3.4sqi.net\/img\/categories_v2\/food\/donuts_","suffix":".png"},"primary":true}],"verified":true,"stats":{"checkinsCount":571,"usersCount":220,"tipCount":0},"url":"http:\/\/www.dunkindonuts.com","allowMenuUrlEdit":true,"beenHere":{"lastCheckinExpiredAt":0},"specials":{"count":0,"items":[]},"storeId":"346722","referralId":"v-1483291012","venueChains":[{"id":"556f676fbd6a75a99038d8f0"}],"hasPerk":false},{"id":"4ace6120f964a52038d020e3","name":"Cheeburger Cheeburger","contact":{"phone":"7186566210","formattedPhone":"(718) 656-6210"},"location":{"address":"Terminal 5","crossStreet":"at JFK International Airport","lat":40.6457313227445,"lng":-73.7754135380405,"labeledLatLngs":[{"label":"display","lat":40.6457313227445,"lng":-73.7754135380405}],"postalCode":"11430","cc":"US","city":"Jamaica","state":"NY","country":"United States","formattedAddress":["Terminal 5 (at JFK International Airport)","Jamaica, NY 11430","United States"]},"categories":[{"id":"4bf58dd8d48988d16c941735","name":"Burger Joint","pluralName":"Burger Joints","shortName":"Burgers","icon":{"prefix":"https:\/\/ss3.4sqi.net\/img\/categories_v2\/food\/burger_","suffix":".png"},"primary":true}],"verified":false,"stats":{"checkinsCount":730,"usersCount":553,"tipCount":10},"url":"http:\/\/cheeburger.com\/home2\/index.asp","allowMenuUrlEdit":true,"beenHere":{"lastCheckinExpiredAt":0},"specials":{"count":0,"items":[]},"referralId":"v-1483291012","venueChains":[],"hasPerk":false},{"id":"4d7d1dcc73ca548158f96a7c","name":"McDonald's","contact":{"phone":"7188682289","formattedPhone":"(718) 868-2289"},"location":{"address":"2141 Mott Ave","lat":40.60492840461859,"lng":-73.75531571336546,"labeledLatLngs":[{"label":"display","lat":40.60492840461859,"lng":-73.75531571336546}],"postalCode":"11691","cc":"US","city":"Far Rockaway","state":"NY","country":"United States","formattedAddress":["2141 Mott Ave","Far Rockaway, NY 11691","United States"]},"categories":[{"id":"4bf58dd8d48988d16e941735","name":"Fast Food Restaurant","pluralName":"Fast Food Restaurants","shortName":"Fast Food","icon":{"prefix":"https:\/\/ss3.4sqi.net\/img\/categories_v2\/food\/fastfood_","suffix":".png"},"primary":true}],"verified":true,"stats":{"checkinsCount":656,"usersCount":253,"tipCount":4},"url":"http:\/\/mcdonalds.com","hasMenu":true,"menu":{"type":"Menu","label":"Menu","anchor":"View Menu","url":"https:\/\/foursquare.com\/v\/mcdonalds\/4d7d1dcc73ca548158f96a7c\/menu","mobileUrl":"https:\/\/foursquare.com\/v\/4d7d1dcc73ca548158f96a7c\/device_menu"},"allowMenuUrlEdit":true,"beenHere":{"lastCheckinExpiredAt":0},"specials":{"count":0,"items":[]},"storeId":"2646","referralId":"v-1483291012","venueChains":[{"id":"556f7a12bd6a75a9903bddb2"}],"hasPerk":false},{"id":"4bf9a612328d76b06da314ec","name":"Applebee's","contact":{"phone":"5167920100","formattedPhone":"(516) 792-0100","twitter":"applebees"},"location":{"address":"253-01 Rockaway Blvd","lat":40.63611164,"lng":-73.73939742,"labeledLatLngs":[{"label":"display","lat":40.63611164,"lng":-73.73939742}],"postalCode":"11422","cc":"US","city":"Rosedale","state":"NY","country":"United States","formattedAddress":["253-01 Rockaway Blvd","Rosedale, NY 11422","United States"]},"categories":[{"id":"4bf58dd8d48988d14e941735","name":"American Restaurant","pluralName":"American Restaurants","shortName":"American","icon":{"prefix":"https:\/\/ss3.4sqi.net\/img\/categories_v2\/food\/default_","suffix":".png"},"primary":true}],"verified":true,"stats":{"checkinsCount":1983,"usersCount":985,"tipCount":12},"url":"http:\/\/restaurants.applebees.com\/ny\/rosedale\/253-01-rockaway-blvd.html","hasMenu":true,"menu":{"type":"Menu","label":"Menu","anchor":"View Menu","url":"https:\/\/foursquare.com\/v\/applebees\/4bf9a612328d76b06da314ec\/menu","mobileUrl":"https:\/\/foursquare.com\/v\/4bf9a612328d76b06da314ec\/device_menu"},"allowMenuUrlEdit":true,"beenHere":{"lastCheckinExpiredAt":0},"specials":{"count":0,"items":[]},"referralId":"v-1483291012","venueChains":[{"id":"556e146fa7c82e6b725097e1"}],"hasPerk":false},{"id":"4df21f06b0fb807158bca002","name":"Bagelry","contact":{},"location":{"address":"507 Central Ave","lat":40.62165,"lng":-73.7239447,"labeledLatLngs":[{"label":"display","lat":40.62165,"lng":-73.7239447}],"postalCode":"11221","cc":"US","city":"Brooklyn","state":"NY","country":"United States","formattedAddress":["507 Central Ave","Brooklyn, NY 11221","United States"]},"categories":[{"id":"4bf58dd8d48988d179941735","name":"Bagel Shop","pluralName":"Bagel Shops","shortName":"Bagels","icon":{"prefix":"https:\/\/ss3.4sqi.net\/img\/categories_v2\/food\/bagels_","suffix":".png"},"primary":true}],"verified":false,"stats":{"checkinsCount":206,"usersCount":56,"tipCount":2},"allowMenuUrlEdit":true,"beenHere":{"lastCheckinExpiredAt":0},"specials":{"count":0,"items":[]},"referralId":"v-1483291012","venueChains":[],"hasPerk":false},{"id":"4ca3c5e41ee76dcbf521fcdd","name":"Da Nicola","contact":{"phone":"5168125155","formattedPhone":"(516) 812-5155"},"location":{"address":"1203 Broadway","lat":40.636655868023794,"lng":-73.70255079981092,"labeledLatLngs":[{"label":"display","lat":40.636655868023794,"lng":-73.70255079981092}],"postalCode":"11557","cc":"US","city":"Hewlett","state":"NY","country":"United States","formattedAddress":["1203 Broadway","Hewlett, NY 11557","United States"]},"categories":[{"id":"4bf58dd8d48988d110941735","name":"Italian Restaurant","pluralName":"Italian Restaurants","shortName":"Italian","icon":{"prefix":"https:\/\/ss3.4sqi.net\/img\/categories_v2\/food\/italian_","suffix":".png"},"primary":true}],"verified":false,"stats":{"checkinsCount":476,"usersCount":168,"tipCount":14},"url":"http:\/\/danicolahewlett.com","allowMenuUrlEdit":true,"beenHere":{"lastCheckinExpiredAt":0},"specials":{"count":0,"items":[]},"referralId":"v-1483291012","venueChains":[],"hasPerk":false},{"id":"4a8dca66f964a520df1020e3","name":"Deep Blue","contact":{"phone":"7186566210","formattedPhone":"(718) 656-6210","twitter":"AnOTGexperience"},"location":{"address":"Terminal 5","crossStreet":"JFK International Airport","lat":40.645860403406054,"lng":-73.77513776679773,"labeledLatLngs":[{"label":"display","lat":40.645860403406054,"lng":-73.77513776679773}],"postalCode":"11430","cc":"US","city":"Jamaica","state":"NY","country":"United States","formattedAddress":["Terminal 5 (JFK International Airport)","Jamaica, NY 11430","United States"]},"categories":[{"id":"4bf58dd8d48988d1d2941735","name":"Sushi Restaurant","pluralName":"Sushi Restaurants","shortName":"Sushi","icon":{"prefix":"https:\/\/ss3.4sqi.net\/img\/categories_v2\/food\/sushi_","suffix":".png"},"primary":true}],"verified":true,"stats":{"checkinsCount":5356,"usersCount":4284,"tipCount":112},"url":"http:\/\/www.anotgexperience.com","allowMenuUrlEdit":true,"beenHere":{"lastCheckinExpiredAt":0},"specials":{"count":0,"items":[]},"venuePage":{"id":"33633055"},"storeId":"","referralId":"v-1483291012","venueChains":[],"hasPerk":false},{"id":"4ba66070f964a520cf4b39e3","name":"Hewlett Station Yogurt","contact":{"phone":"5162950630","formattedPhone":"(516) 295-0630"},"location":{"address":"1213 Station Plz","lat":40.63753739205319,"lng":-73.70333243253747,"labeledLatLngs":[{"label":"display","lat":40.63753739205319,"lng":-73.70333243253747}],"postalCode":"11557","cc":"US","city":"Hewlett","state":"NY","country":"United States","formattedAddress":["1213 Station Plz","Hewlett, NY 11557","United States"]},"categories":[{"id":"4bf58dd8d48988d1c9941735","name":"Ice Cream Shop","pluralName":"Ice Cream Shops","shortName":"Ice Cream","icon":{"prefix":"https:\/\/ss3.4sqi.net\/img\/categories_v2\/food\/icecream_","suffix":".png"},"primary":true}],"verified":false,"stats":{"checkinsCount":807,"usersCount":253,"tipCount":1},"allowMenuUrlEdit":true,"beenHere":{"lastCheckinExpiredAt":0},"specials":{"count":0,"items":[]},"referralId":"v-1483291012","venueChains":[],"hasPerk":false}]}}