{"meta":{"code":200,"requestId":"586939876a607107d223fb30"},"response":{"venues":[{"id":"49d006ccf964a520f85a1fe3","name":"L&B Spumoni Gardens","contact":{"phone":"7183728400","formattedPhone":"(718) 372-8400","facebook":"291511858540","facebookUsername":"LBSpumoniGardens","facebookName":"L&B Spumoni Gardens"},"location":{"address":"2725 86th St","crossStreet":"at W 10th St","lat":40.59467187275214,"lng":-73.98132741451263,"postalCode":"11223","cc":"US","city":"Brooklyn","state":"NY","country":"United States","formattedAddress":["2725 86th St (at W 10th St)","Brooklyn, NY 11223","United States"]},"categories":[{"id":"4bf58dd8d48988d1ca941735","name":"Pizza Place","pluralName":"Pizza Places","shortName":"Pizza","icon":{"prefix":"https:\/\/ss3.4sqi.net\/img\/categories_v2\/food\/pizza_","suffix":".png"},"primary":true}],"verified":true,"stats":{"checkinsCount":23104,"usersCount":11811,"tipCount":376},"url":"http:\/\/www.spumonigardens.com","hasMenu":true,"menu":{"type":"Menu","label":"Menu","anchor":"View Menu","url":"https:\/\/foursquare.com\/v\/lb-spumoni-gardens\/49d006ccf964a520f85a1fe3\/menu","mobileUrl":"https:\/\/foursquare.com\/v\/49d006ccf964a520f85a1fe3\/device_menu","externalUrl":"http:\/\/www.spumonigardens.com\/dining-room"},"allowMenuUrlEdit":true,"beenHere":{"lastCheckinExpiredAt":0},"specials":{"count":0,"items":[]},"venuePage":{"id":"94425361"},"referralId":"v-1483291015","venueChains":[],"hasPerk":false},{"id":"4b242ae5f964a520b76224e3","name":"Starbucks","contact":{"phone":"7182661503","formattedPhone":"(718) 266-1503","twitter":"starbucks","facebook":"22092443056","facebookUsername":"Starbucks","facebookName":"Starbucks"},"location":{"address":"1971 86th St","crossStreet":"at 20th Ave","lat":40.605017,"lng":-73.998609,"labeledLatLngs":[{"label":"display","lat":40.605017,"lng":-73.998609}],"postalCode":"11214","cc":"US","city":"Brooklyn","state":"NY","country":"United States","formattedAddress":["1971 86th St (at 20th Ave)","Brooklyn, NY 11214","United States"]},"categories":[{"id":"4bf58dd8d48988d1e0931735","name":"Coffee Shop","pluralName":"Coffee Shops","shortName":"Coffee Shop","icon":{"prefix":"https:\/\/ss3.4sqi.net\/img\/categories_v2\/food\/coffeeshop_","suffix":".png"},"primary":true}],"verified":true,"stats":{"checkinsCount":5444,"usersCount":1272,"tipCount":18},"url":"http:\/\/www.starbucks.com\/store\/7491\/","hasMenu":true,"menu":{"type":"Menu","label":"Menu","anchor":"View Menu","url":"http:\/\/www.starbucks.com\/menu","mobileUrl":"http:\/\/www.starbucks.com\/menu","externalUrl":"http:\/\/www.starbucks.com\/menu"},"allowMenuUrlEdit":true,"beenHere":{"lastCheckinExpiredAt":0},"specials":{"count":0,"items":[]},"storeId":"13983","referralId":"v-1483291015","venueChains":[{"id":"556f676fbd6a75a99038d8ec"}],"hasPerk":false},{"id":"4b3f8624f964a52062a825e3","name":"Fei Long Market","contact":{"phone":"7186800118","formattedPhone":"(718) 680-0118"},"location":{"address":"6301 8th Ave","crossStreet":"btwn 63rd & 64th St.","lat":40.63314753306521,"lng":-74.01103948274474,"labeledLatLngs":[{"label":"display","lat":40.63314753306521,"lng":-74.01103948274474}],"postalCode":"11220","cc":"US","city":"Brooklyn","state":"NY","country":"United States","formattedAddress":["6301 8th Ave (btwn 63rd & 64th St.)","Brooklyn, NY 11220","United States"]},"categories":[{"id":"4bf58dd8d48988d120951735","name":"Food Court","pluralName":"Food Courts","shortName":"Food Court","icon":{"prefix":"https:\/\/ss3.4sqi.net\/img\/categories_v2\/shops\/food_foodcourt_","suffix":".png"},"primary":true}],"verified":false,"stats":{"checkinsCount":4636,"usersCount":1459,"tipCount":29},"allowMenuUrlEdit":true,"beenHere":{"lastCheckinExpiredAt":0},"specials":{"count":0,"items":[]},"referralId":"v-1483291015","venueChains":[],"hasPerk":false},{"id":"4a58ae56f964a520a8b71fe3","name":"East Harbor Seafood Palace (迎賓大酒樓)","contact":{"phone":"7187650098","formattedPhone":"(718) 765-0098"},"location":{"address":"714 65th St","crossStreet":"btwn 7th & 8th Ave","lat":40.6335596218168,"lng":-74.01444800630983,"labeledLatLngs":[{"label":"display","lat":40.6335596218168,"lng":-74.01444800630983}],"postalCode":"11220","cc":"US","city":"Brooklyn","state":"NY","country":"United States","formattedAddress":["714 65th St (btwn 7th & 8th Ave)","Brooklyn, NY 11220","United States"]},"categories":[{"id":"4bf58dd8d48988d1ce941735","name":"Seafood Restaurant","pluralName":"Seafood Restaurants","shortName":"Seafood","icon":{"prefix":"https:\/\/ss3.4sqi.net\/img\/categories_v2\/food\/seafood_","suffix":".png"},"primary":true}],"verified":false,"stats":{"checkinsCount":10126,"usersCount":3547,"tipCount":81},"allowMenuUrlEdit":true,"beenHere":{"lastCheckinExpiredAt":0},"specials":{"count":0,"items":[]},"referralId":"v-1483291015","venueChains":[],"hasPerk":false},{"id":"4c37333d93db0f470b4a1f92","name":"Dunkin Donuts","contact":{"phone":"7182655118","formattedPhone":"(718) 265-5118","twitter":"dunkindonuts","facebook":"6979393237","facebookUsername":"DunkinDonutsUS","facebookName":"Dunkin' Donuts"},"location":{"address":"1620 Neptune Ave Hess","crossStreet":"Cropsey Avenue","lat":40.58048217671372,"lng":-73.98010177430896,"labeledLatLngs":[{"label":"display","lat":40.58048217671372,"lng":-73.98010177430896}],"postalCode":"11224","cc":"US","city":"Brooklyn","state":"NY","country":"United States","formattedAddress":["1620 Neptune Ave Hess (Cropsey Avenue)","Brooklyn, NY 11224","United States"]},"categories":[{"id":"4bf58dd8d48988d148941735","name":"Donut Shop","pluralName":"Donut Shops","shortName":"Donuts","icon":{"prefix":"https:\/\/ss3.4sqi.net\/img\/categories_v2\/food\/donuts_","suffix":".png"},"primary":true}],"verified":true,"stats":{"checkinsCount":1730,"usersCount":274,"tipCount":4},"url":"http:\/\/www.dunkindonuts.com","hasMenu":true,"menu":{"type":"Menu","label":"Menu","anchor":"View Menu","url":"https:\/\/foursquare.com\/v\/dunkin-donuts\/4c37333d93db0f470b4a1f92\/menu","mobileUrl":"https:\/\/foursquare.com\/v\/4c37333d93db0f470b4a1f92\/device_menu"},"allowMenuUrlEdit":true,"beenHere":{"lastCheckinExpiredAt":0},"specials":{"count":0,"items":[]},"storeId":"351777","referralId":"v-1483291015","venueChains":[],"hasPerk":false},{"id":"4b65d02ef964a52058012be3","name":"La Bella Marketplace","contact":{"phone":"7183310050","formattedPhone":"(718) 331-0050"},"location":{"address":"7907 13th Ave","lat":40.61785942487532,"lng":-74.00990903305339,"labeledLatLngs":[{"label":"display","lat":40.61785942487532,"lng":-74.00990903305339}],"postalCode":"11228","cc":"US","city":"Brooklyn","state":"NY","country":"United States","formattedAddress":["7907 13th Ave","Brooklyn, NY 11228","United States"]},"categories":[{"id":"4bf58dd8d48988d1f9941735","name":"Food & Drink Shop","pluralName":"Food & Drink Shops","shortName":"Food & Drink","icon":{"prefix":"https:\/\/ss3.4sqi.net\/img\/categories_v2\/shops\/foodanddrink_","suffix":".png"},"primary":true}],"verified":false,"stats":{"checkinsCount":1524,"usersCount":325,"tipCount":13},"allowMenuUrlEdit":true,"beenHere":{"lastCheckinExpiredAt":0},"specials":{"count":0,"items":[]},"referralId":"v-1483291015","venueChains":[],"hasPerk":false},{"id":"4ae35fe1f964a520319421e3","name":"Starbucks","contact":{"phone":"7188363882","formattedPhone":"(718) 836-3882","twitter":"starbucks","facebook":"22092443056","facebookUsername":"Starbucks","facebookName":"Starbucks"},"location":{"address":"7419 3rd Ave","crossStreet":"at 75th St","lat":40.631573,"lng":-74.027562,"labeledLatLngs":[{"label":"display","lat":40.631573,"lng":-74.027562}],"postalCode":"11209","cc":"US","city":"Brooklyn","state":"NY","country":"United States","formattedAddress":["7419 3rd Ave (at 75th St)","Brooklyn, NY 11209","United States"]},"categories":[{"id":"4bf58dd8d48988d1e0931735","name":"Coffee Shop","pluralName":"Coffee Shops","shortName":"Coffee Shop","icon":{"prefix":"https:\/\/ss3.4sqi.net\/img\/categories_v2\/food\/coffeeshop_","suffix":".png"},"primary":true}],"verified":true,"stats":{"checkinsCount":5659,"usersCount":1331,"tipCount":28},"url":"http:\/\/www.starbucks.com\/store\/13849\/","hasMenu":true,"menu":{"type":"Menu","label":"Menu","anchor":"View Menu","url":"http:\/\/www.starbucks.com\/menu","mobileUrl":"http:\/\/www.starbucks.com\/menu","externalUrl":"http:\/\/www.starbucks.com\/menu"},"allowMenuUrlEdit":true,"beenHere":{"lastCheckinExpiredAt":0},"specials":{"count":0,"items":[]},"storeId":"2864","referralId":"v-1483291015","venueChains":[{"id":"556f676fbd6a75a99038d8ec"}],"hasPerk":false},{"id":"4b522de2f964a520c36d27e3","name":"Starbucks","contact":{"phone":"7183723573","formattedPhone":"(718) 372-3573","twitter":"starbucks","facebook":"22092443056","facebookUsername":"Starbucks","facebookName":"Starbucks"},"location":{"address":"3035 Cropsey Ave","crossStreet":"at Hart Pl","lat":40.58139580417046,"lng":-73.98543918649351,"labeledLatLngs":[{"label":"display","lat":40.58139580417046,"lng":-73.98543918649351}],"postalCode":"11224","cc":"US","city":"Brooklyn","state":"NY","country":"United States","formattedAddress":["3035 Cropsey Ave (at Hart Pl)","Brooklyn, NY 11224","United States"]},"categories":[{"id":"4bf58dd8d48988d1e0931735","name":"Coffee Shop","pluralName":"Coffee Shops","shortName":"Coffee Shop","icon":{"prefix":"https:\/\/ss3.4sqi.net\/img\/categories_v2\/food\/coffeeshop_","suffix":".png"},"primary":true}],"verified":true,"stats":{"checkinsCount":4838,"usersCount":1144,"tipCount":37},"url":"http:\/\/www.starbucks.com\/store\/7189\/","hasMenu":true,"menu":{"type":"Menu","label":"Menu","anchor":"View Menu","url":"http:\/\/www.starbucks.com\/menu","mobileUrl":"http:\/\/www.starbucks.com\/menu","externalUrl":"http:\/\/www.starbucks.com\/menu"},"allowMenuUrlEdit":true,"beenHere":{"lastCheckinExpiredAt":0},"specials":{"count":0,"items":[]},"storeId":"8131","referralId":"v-1483291015","venueChains":[{"id":"556f676fbd6a75a99038d8ec"}],"hasPerk":false},{"id":"46066f16f964a520cb441fe3","name":"Pacificana","contact":{"phone":"7188712880","formattedPhone":"(718) 871-2880"},"location":{"address":"813 55th St","crossStreet":"at 8th Ave","lat":40.638221,"lng":-74.006518,"labeledLatLngs":[{"label":"display","lat":40.638221,"lng":-74.006518}],"postalCode":"11220","cc":"US","city":"Brooklyn","state":"NY","country":"United States","formattedAddress":["813 55th St (at 8th Ave)","Brooklyn, NY 11220","United States"]},"categories":[{"id":"4bf58dd8d48988d1f5931735","name":"Dim Sum Restaurant","pluralName":"Dim Sum Restaurants","shortName":"Dim Sum","icon":{"prefix":"https:\/\/ss3.4sqi.net\/img\/categories_v2\/food\/dimsum_","suffix":".png"},"primary":true}],"verified":false,"stats":{"checkinsCount":4398,"usersCount":2136,"tipCount":37},"url":"http:\/\/sunset-park.com\/mall\/PACIFICANA\/","hasMenu":true,"menu":{"type":"Menu","label":"Menu","anchor":"View Menu","url":"https:\/\/foursquare.com\/v\/pacificana\/46066f16f964a520cb441fe3\/menu","mobileUrl":"https:\/\/foursquare.com\/v\/46066f16f964a520cb441fe3\/device_menu"},"allowMenuUrlEdit":true,"beenHere":{"lastCheckinExpiredAt":0},"specials":{"count":0,"items":[]},"referralId":"v-1483291015","venueChains":[],"hasPerk":false},{"id":"546f2a1e498ec971bfa42c81","name":"Starbucks","contact":{"phone":"7182651069","formattedPhone":"(718) 265-1069","twitter":"starbucks","facebook":"22092443056","facebookUsername":"Starbucks","facebookName":"Starbucks"},"location":{"address":"8973 Bay Parkway","lat":40.595093,"lng":-74.00033,"labeledLatLngs":[{"label":"display","lat":40.595093,"lng":-74.00033}],"postalCode":"11214","cc":"US","city":"Brooklyn","state":"NY","country":"United States","formattedAddress":["8973 Bay Parkway","Brooklyn, NY 11214","United States"]},"categories":[{"id":"4bf58dd8d48988d1e0931735","name":"Coffee Shop","pluralName":"Coffee Shops","shortName":"Coffee Shop","icon":{"prefix":"https:\/\/ss3.4sqi.net\/img\/categories_v2\/food\/coffeeshop_","suffix":".png"},"primary":true}],"verified":true,"stats":{"checkinsCount":792,"usersCount":314,"tipCount":4},"url":"http:\/\/www.starbucks.com","menu":{"type":"Menu","label":"Menu","anchor":"View Menu","url":"http:\/\/starbucks.com\/menu\/","mobileUrl":"http:\/\/starbucks.com\/menu\/","externalUrl":"http:\/\/starbucks.com\/menu\/"},"allowMenuUrlEdit":true,"beenHere":{"lastCheckinExpiredAt":0},"specials":{"count":0,"items":[]},"storeId":"23267","referralId":"v-1483291015","venueChains":[{"id":"556f676fbd6a75a99038d8ec"}],"hasPerk":false},{"id":"4b796b49f964a5208df82ee3","name":"Starbucks","contact":{"phone":"7184925331","formattedPhone":"(718) 492-5331","twitter":"starbucks","facebook":"22092443056","facebookUsername":"Starbucks","facebookName":"Starbucks"},"location":{"address":"9202 3rd Ave","crossStreet":"at 92nd St","lat":40.619274,"lng":-74.032948,"labeledLatLngs":[{"label":"display","lat":40.619274,"lng":-74.032948}],"postalCode":"11209","cc":"US","neighborhood":"Fort Hamilton","city":"Brooklyn","state":"NY","country":"United States","formattedAddress":["9202 3rd Ave (at 92nd St)","Brooklyn, NY 11209","United States"]},"categories":[{"id":"4bf58dd8d48988d1e0931735","name":"Coffee Shop","pluralName":"Coffee Shops","shortName":"Coffee Shop","icon":{"prefix":"https:\/\/ss3.4sqi.net\/img\/categories_v2\/food\/coffeeshop_","suffix":".png"},"primary":true}],"verified":true,"stats":{"checkinsCount":6938,"usersCount":1038,"tipCount":16},"url":"http:\/\/www.starbucks.com\/store\/18465\/","hasMenu":true,"menu":{"type":"Menu","label":"Menu","anchor":"View Menu","url":"http:\/\/www.starbucks.com\/menu","mobileUrl":"http:\/\/www.starbucks.com\/menu","externalUrl":"http:\/\/www.starbucks.com\/menu"},"allowMenuUrlEdit":true,"beenHere":{"lastCheckinExpiredAt":0},"specials":{"count":0,"items":[]},"storeId":"7646","referralId":"v-1483291015","venueChains":[{"id":"556f676fbd6a75a99038d8ec"}],"hasPerk":false},{"id":"4b6b98a7f964a520c8112ce3","name":"McDonald's","contact":{"phone":"7183729098","formattedPhone":"(718) 372-9098"},"location":{"address":"2413 86th St","crossStreet":"at 24th Ave","lat":40.59929336556548,"lng":-73.98902607371383,"labeledLatLngs":[{"label":"display","lat":40.59929336556548,"lng":-73.98902607371383}],"postalCode":"11214","cc":"US","city":"Brooklyn","state":"NY","country":"United States","formattedAddress":["2413 86th St (at 24th Ave)","Brooklyn, NY 11214","United States"]},"categories":[{"id":"4bf58dd8d48988d16e941735","name":"Fast Food Restaurant","pluralName":"Fast Food Restaurants","shortName":"Fast Food","icon":{"prefix":"https:\/\/ss3.4sqi.net\/img\/categories_v2\/food\/fastfood_","suffix":".png"},"primary":true}],"verified":true,"stats":{"checkinsCount":1829,"usersCount":666,"tipCount":5},"url":"http:\/\/mcdonalds.com","hasMenu":true,"menu":{"type":"Menu","label":"Menu","anchor":"View Menu","url":"https:\/\/foursquare.com\/v\/mcdonalds\/4b6b98a7f964a520c8112ce3\/menu","mobileUrl":"https:\/\/foursquare.com\/v\/4b6b98a7f964a520c8112ce3\/device_menu"},"allowMenuUrlEdit":true,"beenHere":{"lastCheckinExpiredAt":0},"specials":{"count":0,"items":[]},"storeId":"2467","referralId":"v-1483291015","venueChains":[{"id":"556f7a12bd6a75a9903bddb2"}],"hasPerk":false},{"id":"4bafaa5df964a52066153ce3","name":"Nathan's Famous","contact":{"phone":"7189462202","formattedPhone":"(718) 946-2202","twitter":"nathansdogs","facebook":"109841792385927","facebookUsername":"nathansfamous","facebookName":"Nathan's Famous"},"location":{"address":"1310 Surf Ave","crossStreet":"at Stillwell Ave","lat":40.5753984407893,"lng":-73.98146770681164,"postalCode":"11224","cc":"US","city":"Brooklyn","state":"NY","country":"United States","formattedAddress":["1310 Surf Ave (at Stillwell Ave)","Brooklyn, NY 11224","United States"]},"categories":[{"id":"4bf58dd8d48988d16f941735","name":"Hot Dog Joint","pluralName":"Hot Dog Joints","shortName":"Hot Dogs","icon":{"prefix":"https:\/\/ss3.4sqi.net\/img\/categories_v2\/food\/hotdog_","suffix":".png"},"primary":true}],"verified":true,"stats":{"checkinsCount":30083,"usersCount":22969,"tipCount":302},"url":"http:\/\/www.nathansfamous.com","hasMenu":true,"menu":{"type":"Menu","label":"Menu","anchor":"View Menu","url":"https:\/\/foursquare.com\/v\/nathans-famous\/4bafaa5df964a52066153ce3\/menu","mobileUrl":"https:\/\/foursquare.com\/v\/4bafaa5df964a52066153ce3\/device_menu","externalUrl":"http:\/\/www.viewmenu.com\/nathans-famous\/menu?ref=google"},"allowMenuUrlEdit":true,"beenHere":{"lastCheckinExpiredAt":0},"specials":{"count":0,"items":[]},"venuePage":{"id":"99833915"},"referralId":"v-1483291015","venueChains":[{"id":"556f3bd9bd6a8104863be5a1"}],"hasPerk":false},{"id":"4bebf37361aca59313948500","name":"7-Eleven","contact":{"phone":"7184399280","formattedPhone":"(718) 439-9280","twitter":"7eleven","facebook":"254918567863926","facebookUsername":"7ElevenBrooklyn32884","facebookName":"7-Eleven"},"location":{"address":"301 65th St","crossStreet":"at 3rd Ave","lat":40.639309279513256,"lng":-74.0228171646595,"labeledLatLngs":[{"label":"display","lat":40.639309279513256,"lng":-74.0228171646595}],"postalCode":"11220","cc":"US","city":"Brooklyn","state":"NY","country":"United States","formattedAddress":["301 65th St (at 3rd Ave)","Brooklyn, NY 11220","United States"]},"categories":[{"id":"4d954b0ea243a5684a65b473","name":"Convenience Store","pluralName":"Convenience Stores","shortName":"Convenience Store","icon":{"prefix":"https:\/\/ss3.4sqi.net\/img\/categories_v2\/shops\/conveniencestore_","suffix":".png"},"primary":true}],"verified":true,"stats":{"checkinsCount":2480,"usersCount":496,"tipCount":4},"url":"http:\/\/www.7-eleven.com","allowMenuUrlEdit":true,"beenHere":{"lastCheckinExpiredAt":0},"specials":{"count":0,"items":[]},"storeId":"32884","referralId":"v-1483291015","venueChains":[{"id":"556f676fbd6a75a99038d8e9"}],"hasPerk":false},{"id":"4b3febc4f964a52019b225e3","name":"Starbucks","contact":{"phone":"7182347160","formattedPhone":"(718) 234-7160","twitter":"starbucks","facebook":"22092443056","facebookUsername":"Starbucks","facebookName":"Starbucks"},"location":{"address":"6423 18th Ave","crossStreet":"at 65th St","lat":40.61922770329639,"lng":-73.99015664667239,"labeledLatLngs":[{"label":"display","lat":40.61922770329639,"lng":-73.99015664667239}],"postalCode":"11204","cc":"US","neighborhood":"Bensonhurst","city":"Brooklyn","state":"NY","country":"United States","formattedAddress":["6423 18th Ave (at 65th St)","Brooklyn, NY 11204","United States"]},"categories":[{"id":"4bf58dd8d48988d1e0931735","name":"Coffee Shop","pluralName":"Coffee Shops","shortName":"Coffee Shop","icon":{"prefix":"https:\/\/ss3.4sqi.net\/img\/categories_v2\/food\/coffeeshop_","suffix":".png"},"primary":true}],"verified":true,"stats":{"checkinsCount":7660,"usersCount":1358,"tipCount":38},"url":"http:\/\/www.starbucks.com\/store\/13895\/","hasMenu":true,"menu":{"type":"Menu","label":"Menu","anchor":"View Menu","url":"http:\/\/www.starbucks.com\/menu","mobileUrl":"http:\/\/www.starbucks.com\/menu","externalUrl":"http:\/\/www.starbucks.com\/menu"},"allowMenuUrlEdit":true,"beenHere":{"lastCheckinExpiredAt":0},"specials":{"count":0,"items":[]},"storeId":"7921","referralId":"v-1483291015","venueChains":[{"id":"556f676fbd6a75a99038d8ec"}],"hasPerk":false},{"id":"4ad09cf7f964a520bed820e3","name":"Bagel Boy","contact":{"phone":"7187480366","formattedPhone":"(718) 748-0366","twitter":"bagelboyonline"},"location":{"address":"8002 3rd Ave","crossStreet":"80th St","lat":40.62775476224578,"lng":-74.0293036381559,"labeledLatLngs":[{"label":"display","lat":40.62775476224578,"lng":-74.0293036381559}],"postalCode":"11209","cc":"US","city":"Brooklyn","state":"NY","country":"United States","formattedAddress":["8002 3rd Ave (80th St)","Brooklyn, NY 11209","United States"]},"categories":[{"id":"4bf58dd8d48988d179941735","name":"Bagel Shop","pluralName":"Bagel Shops","shortName":"Bagels","icon":{"prefix":"https:\/\/ss3.4sqi.net\/img\/categories_v2\/food\/bagels_","suffix":".png"},"primary":true}],"verified":true,"stats":{"checkinsCount":3545,"usersCount":894,"tipCount":26},"url":"http:\/\/bagelboyonline.com","hasMenu":true,"delivery":{"id":"38926","url":"http:\/\/www.seamless.com\/food-delivery\/restaurant.38926.r?a=1026&utm_source=Foursquare&utm_medium=affiliate&utm_campaign=SeamlessOrderDeliveryLink","provider":{"name":"seamless"}},"menu":{"type":"Menu","label":"Menu","anchor":"View Menu","url":"https:\/\/foursquare.com\/v\/bagel-boy\/4ad09cf7f964a520bed820e3\/menu","mobileUrl":"https:\/\/foursquare.com\/v\/4ad09cf7f964a520bed820e3\/device_menu"},"allowMenuUrlEdit":true,"beenHere":{"lastCheckinExpiredAt":0},"specials":{"count":0,"items":[]},"venuePage":{"id":"64934446"},"referralId":"v-1483291015","venueChains":[],"hasPerk":false},{"id":"4a732bf6f964a520c1db1fe3","name":"Dunkin Donuts","contact":{"phone":"7183720650","formattedPhone":"(718) 372-0650","twitter":"dunkindonuts","facebook":"6979393237","facebookUsername":"DunkinDonutsUS","facebookName":"Dunkin' Donuts"},"location":{"address":"2630 86th St","crossStreet":"at Avenue U","lat":40.59606703655169,"lng":-73.98465867095769,"labeledLatLngs":[{"label":"display","lat":40.59606703655169,"lng":-73.98465867095769}],"postalCode":"11223","cc":"US","city":"Brooklyn","state":"NY","country":"United States","formattedAddress":["2630 86th St (at Avenue U)","Brooklyn, NY 11223","United States"]},"categories":[{"id":"4bf58dd8d48988d148941735","name":"Donut Shop","pluralName":"Donut Shops","shortName":"Donuts","icon":{"prefix":"https:\/\/ss3.4sqi.net\/img\/categories_v2\/food\/donuts_","suffix":".png"},"primary":true}],"verified":true,"stats":{"checkinsCount":3615,"usersCount":816,"tipCount":13},"url":"http:\/\/www.dunkindonuts.com","hasMenu":true,"menu":{"type":"Menu","label":"Menu","anchor":"View Menu","url":"https:\/\/foursquare.com\/v\/dunkin-donuts\/4a732bf6f964a520c1db1fe3\/menu","mobileUrl":"https:\/\/foursquare.com\/v\/4a732bf6f964a520c1db1fe3\/device_menu"},"allowMenuUrlEdit":true,"beenHere":{"lastCheckinExpiredAt":0},"specials":{"count":0,"items":[]},"storeId":"304362","referralId":"v-1483291015","venueChains":[{"id":"556f676fbd6a75a99038d8f0"}],"hasPerk":false},{"id":"4bb3a80c2397b713ac6f38b3","name":"Key Food","contact":{"phone":"7189344279","formattedPhone":"(718) 934-4279","twitter":"keyfood","facebook":"126122102671","facebookUsername":"keyfood","facebookName":"Key Food"},"location":{"address":"599 Avenue Z","crossStreet":"btwn W 2nd St & W 3rd St","lat":40.586617082380414,"lng":-73.97161326199841,"labeledLatLngs":[{"label":"display","lat":40.586617082380414,"lng":-73.97161326199841}],"postalCode":"11223","cc":"US","city":"Brooklyn","state":"NY","country":"United States","formattedAddress":["599 Avenue Z (btwn W 2nd St & W 3rd St)","Brooklyn, NY 11223","United States"]},"categories":[{"id":"4bf58dd8d48988d118951735","name":"Grocery Store","pluralName":"Grocery Stores","shortName":"Grocery Store","icon":{"prefix":"https:\/\/ss3.4sqi.net\/img\/categories_v2\/shops\/food_grocery_","suffix":".png"},"primary":true}],"verified":true,"stats":{"checkinsCount":976,"usersCount":178,"tipCount":2},"url":"http:\/\/www.keyfood.com","allowMenuUrlEdit":true,"beenHere":{"lastCheckinExpiredAt":0},"specials":{"count":0,"items":[]},"storeId":"1588","referralId":"v-1483291015","venueChains":[{"id":"556a3f61a7c8957d73d5b990"}],"hasPerk":false},{"id":"4d59219d8492a1430f472327","name":"Dunkin Donuts","contact":{"phone":"7183723198","formattedPhone":"(718) 372-3198","twitter":"dunkindonuts","facebook":"6979393237","facebookUsername":"DunkinDonutsUS","facebookName":"Dunkin' Donuts"},"location":{"address":"3015 Mermaid Ave","lat":40.5756469629299,"lng":-73.99673908885973,"labeledLatLngs":[{"label":"display","lat":40.5756469629299,"lng":-73.99673908885973}],"postalCode":"11224","cc":"US","city":"Brooklyn","state":"NY","country":"United States","formattedAddress":["3015 Mermaid Ave","Brooklyn, NY 11224","United States"]},"categories":[{"id":"4bf58dd8d48988d148941735","name":"Donut Shop","pluralName":"Donut Shops","shortName":"Donuts","icon":{"prefix":"https:\/\/ss3.4sqi.net\/img\/categories_v2\/food\/donuts_","suffix":".png"},"primary":true}],"verified":true,"stats":{"checkinsCount":981,"usersCount":158,"tipCount":4},"url":"http:\/\/www.dunkindonuts.com","hasMenu":true,"menu":{"type":"Menu","label":"Menu","anchor":"View Menu","url":"https:\/\/foursquare.com\/v\/dunkin-donuts\/4d59219d8492a1430f472327\/menu","mobileUrl":"https:\/\/foursquare.com\/v\/4d59219d8492a1430f472327\/device_menu"},"allowMenuUrlEdit":true,"beenHere":{"lastCheckinExpiredAt":0},"specials":{"count":0,"items":[]},"storeId":"336064","referralId":"v-1483291015","venueChains":[{"id":"556f676fbd6a75a99038d8f0"}],"hasPerk":false},{"id":"4baf7c11f964a520a8033ce3","name":"Dunkin' Donuts\/Baskin Robbins","contact":{"phone":"7188368847","formattedPhone":"(718) 836-8847","twitter":"dunkindonuts","facebook":"6979393237","facebookUsername":"DunkinDonutsUS","facebookName":"Dunkin' Donuts"},"location":{"address":"8425 5th Ave #84","crossStreet":"85th St.","lat":40.62192977571823,"lng":-74.02576914700387,"labeledLatLngs":[{"label":"display","lat":40.62192977571823,"lng":-74.02576914700387}],"postalCode":"11209","cc":"US","city":"Brooklyn","state":"NY","country":"United States","formattedAddress":["8425 5th Ave #84 (85th St.)","Brooklyn, NY 11209","United States"]},"categories":[{"id":"4bf58dd8d48988d148941735","name":"Donut Shop","pluralName":"Donut Shops","shortName":"Donuts","icon":{"prefix":"https:\/\/ss3.4sqi.net\/img\/categories_v2\/food\/donuts_","suffix":".png"},"primary":true}],"verified":true,"stats":{"checkinsCount":1909,"usersCount":466,"tipCount":11},"url":"http:\/\/www.dunkindonuts.com","hasMenu":true,"menu":{"type":"Menu","label":"Menu","anchor":"View Menu","url":"https:\/\/foursquare.com\/v\/dunkin-donutsbaskin-robbins\/4baf7c11f964a520a8033ce3\/menu","mobileUrl":"https:\/\/foursquare.com\/v\/4baf7c11f964a520a8033ce3\/device_menu"},"allowMenuUrlEdit":true,"beenHere":{"lastCheckinExpiredAt":0},"specials":{"count":0,"items":[]},"storeId":"307580","referralId":"v-1483291015","venueChains":[{"id":"556f676fbd6a75a99038d8f0"}],"hasPerk":false},{"id":"4abed54df964a5202a9020e3","name":"Starbucks","contact":{"phone":"7184911340","formattedPhone":"(718) 491-1340","twitter":"starbucks","facebook":"22092443056","facebookUsername":"Starbucks","facebookName":"Starbucks"},"location":{"address":"514 86th St","crossStreet":"at 5th Ave","lat":40.621133,"lng":-74.025818,"labeledLatLngs":[{"label":"display","lat":40.621133,"lng":-74.025818}],"postalCode":"11209","cc":"US","city":"Brooklyn","state":"NY","country":"United States","formattedAddress":["514 86th St (at 5th Ave)","Brooklyn, NY 11209","United States"]},"categories":[{"id":"4bf58dd8d48988d1e0931735","name":"Coffee Shop","pluralName":"Coffee Shops","shortName":"Coffee Shop","icon":{"prefix":"https:\/\/ss3.4sqi.net\/img\/categories_v2\/food\/coffeeshop_","suffix":".png"},"primary":true}],"verified":true,"stats":{"checkinsCount":5572,"usersCount":1520,"tipCount":19},"url":"http:\/\/www.starbucks.com\/store\/17881\/","hasMenu":true,"menu":{"type":"Menu","label":"Menu","anchor":"View Menu","url":"http:\/\/www.starbucks.com\/menu","mobileUrl":"http:\/\/www.starbucks.com\/menu","externalUrl":"http:\/\/www.starbucks.com\/menu"},"allowMenuUrlEdit":true,"beenHere":{"lastCheckinExpiredAt":0},"specials":{"count":0,"items":[]},"storeId":"11808","referralId":"v-1483291015","venueChains":[{"id":"556f676fbd6a75a99038d8ec"}],"hasPerk":false},{"id":"4ac0d4f3f964a520a39420e3","name":"Park Asia","contact":{"phone":"7188331688","formattedPhone":"(718) 833-1688"},"location":{"address":"6521 8th Ave","crossStreet":"8th Ave","lat":40.632266051531055,"lng":-74.01295606745097,"labeledLatLngs":[{"label":"display","lat":40.632266051531055,"lng":-74.01295606745097}],"postalCode":"11220","cc":"US","city":"Brooklyn","state":"NY","country":"United States","formattedAddress":["6521 8th Ave (8th Ave)","Brooklyn, NY 11220","United States"]},"categories":[{"id":"4bf58dd8d48988d145941735","name":"Chinese Restaurant","pluralName":"Chinese Restaurants","shortName":"Chinese","icon":{"prefix":"https:\/\/ss3.4sqi.net\/img\/categories_v2\/food\/asian_","suffix":".png"},"primary":true}],"verified":false,"stats":{"checkinsCount":2198,"usersCount":929,"tipCount":15},"hasMenu":true,"menu":{"type":"Menu","label":"Menu","anchor":"View Menu","url":"https:\/\/foursquare.com\/v\/park-asia\/4ac0d4f3f964a520a39420e3\/menu","mobileUrl":"https:\/\/foursquare.com\/v\/4ac0d4f3f964a520a39420e3\/device_menu"},"allowMenuUrlEdit":true,"beenHere":{"lastCheckinExpiredAt":0},"specials":{"count":0,"items":[]},"referralId":"v-1483291015","venueChains":[],"hasPerk":false},{"id":"4ad139f1f964a52092dd20e3","name":"100 Fun","contact":{"phone":"7184368883","formattedPhone":"(718) 436-8883","twitter":"100funktv"},"location":{"address":"932 60th St","crossStreet":"btwn 9th Ave. & Fort Hamilton Pkwy.","lat":40.63357692052703,"lng":-74.00645452100342,"labeledLatLngs":[{"label":"display","lat":40.63357692052703,"lng":-74.00645452100342}],"postalCode":"11219","cc":"US","city":"Brooklyn","state":"NY","country":"United States","formattedAddress":["932 60th St (btwn 9th Ave. & Fort Hamilton Pkwy.)","Brooklyn, NY 11219","United States"]},"categories":[{"id":"4bf58dd8d48988d120941735","name":"Karaoke Bar","pluralName":"Karaoke Bars","shortName":"Karaoke","icon":{"prefix":"https:\/\/ss3.4sqi.net\/img\/categories_v2\/nightlife\/karaoke_","suffix":".png"},"primary":true}],"verified":true,"stats":{"checkinsCount":6475,"usersCount":1490,"tipCount":23},"url":"http:\/\/www.100funusa.com","allowMenuUrlEdit":true,"beenHere":{"lastCheckinExpiredAt":0},"specials":{"count":0,"items":[]},"venuePage":{"id":"114336297"},"referralId":"v-1483291015","venueChains":[],"hasPerk":false},{"id":"533c362e498eabd6ae13393c","name":"Coffee Rx","contact":{"phone":"6468018321","formattedPhone":"(646) 801-8321","twitter":"coffeelabbk"},"location":{"address":"6903 3rd Ave","crossStreet":"at Bay Ridge Ave","lat":40.63560384551693,"lng":-74.02599866140656,"labeledLatLngs":[{"label":"display","lat":40.63560384551693,"lng":-74.02599866140656}],"postalCode":"11209","cc":"US","city":"Brooklyn","state":"NY","country":"United States","formattedAddress":["6903 3rd Ave (at Bay Ridge Ave)","Brooklyn, NY 11209","United States"]},"categories":[{"id":"4bf58dd8d48988d1e0931735","name":"Coffee Shop","pluralName":"Coffee Shops","shortName":"Coffee Shop","icon":{"prefix":"https:\/\/ss3.4sqi.net\/img\/categories_v2\/food\/coffeeshop_","suffix":".png"},"primary":true}],"verified":true,"stats":{"checkinsCount":1398,"usersCount":462,"tipCount":27},"allowMenuUrlEdit":true,"beenHere":{"lastCheckinExpiredAt":0},"specials":{"count":0,"items":[]},"venuePage":{"id":"87027695"},"referralId":"v-1483291015","venueChains":[],"hasPerk":false},{"id":"4bb9145f314e9521a51e499d","name":"Villabate Alba","contact":{"phone":"7183318430","formattedPhone":"(718) 331-8430"},"location":{"address":"7001 18th Ave","crossStreet":"at 70th St","lat":40.616154810227776,"lng":-73.99320399542526,"labeledLatLngs":[{"label":"display","lat":40.616154810227776,"lng":-73.99320399542526}],"postalCode":"11204","cc":"US","city":"Brooklyn","state":"NY","country":"United States","formattedAddress":["7001 18th Ave (at 70th St)","Brooklyn, NY 11204","United States"]},"categories":[{"id":"4bf58dd8d48988d16a941735","name":"Bakery","pluralName":"Bakeries","shortName":"Bakery","icon":{"prefix":"https:\/\/ss3.4sqi.net\/img\/categories_v2\/food\/bakery_","suffix":".png"},"primary":true}],"verified":true,"stats":{"checkinsCount":2798,"usersCount":1043,"tipCount":49},"url":"http:\/\/www.villabate.net","allowMenuUrlEdit":true,"beenHere":{"lastCheckinExpiredAt":0},"specials":{"count":0,"items":[]},"venuePage":{"id":"74077579"},"referralId":"v-1483291015","venueChains":[],"hasPerk":false},{"id":"4bd075f2caff952145d3cef0","name":"Gino's Restaurant","contact":{"phone":"7187481698","formattedPhone":"(718) 748-1698"},"location":{"address":"7414 5th Ave","crossStreet":"btwn 74th St & Bay Ridge Pky","lat":40.62988098233495,"lng":-74.02266025543213,"labeledLatLngs":[{"label":"display","lat":40.62988098233495,"lng":-74.02266025543213}],"postalCode":"11209","cc":"US","city":"Brooklyn","state":"NY","country":"United States","formattedAddress":["7414 5th Ave (btwn 74th St & Bay Ridge Pky)","Brooklyn, NY 11209","United States"]},"categories":[{"id":"4bf58dd8d48988d110941735","name":"Italian Restaurant","pluralName":"Italian Restaurants","shortName":"Italian","icon":{"prefix":"https:\/\/ss3.4sqi.net\/img\/categories_v2\/food\/italian_","suffix":".png"},"primary":true}],"verified":true,"stats":{"checkinsCount":2851,"usersCount":1460,"tipCount":50},"url":"http:\/\/ginosbayridge.com","hasMenu":true,"menu":{"type":"Menu","label":"Menu","anchor":"View Menu","url":"https:\/\/foursquare.com\/v\/ginos-restaurant\/4bd075f2caff952145d3cef0\/menu","mobileUrl":"https:\/\/foursquare.com\/v\/4bd075f2caff952145d3cef0\/device_menu"},"allowMenuUrlEdit":true,"beenHere":{"lastCheckinExpiredAt":0},"specials":{"count":0,"items":[]},"venuePage":{"id":"56943792"},"referralId":"v-1483291015","venueChains":[],"hasPerk":false},{"id":"4b3c1225f964a5204e8125e3","name":"Dunkin Donuts","contact":{"phone":"7187454060","formattedPhone":"(718) 745-4060","twitter":"dunkindonuts","facebook":"6979393237","facebookUsername":"DunkinDonutsUS","facebookName":"Dunkin' Donuts"},"location":{"address":"9243 4th Ave","crossStreet":"at 93rd St.","lat":40.61719504195245,"lng":-74.0305143010544,"labeledLatLngs":[{"label":"display","lat":40.61719504195245,"lng":-74.0305143010544}],"postalCode":"11209","cc":"US","city":"Brooklyn","state":"NY","country":"United States","formattedAddress":["9243 4th Ave (at 93rd St.)","Brooklyn, NY 11209","United States"]},"categories":[{"id":"4bf58dd8d48988d148941735","name":"Donut Shop","pluralName":"Donut Shops","shortName":"Donuts","icon":{"prefix":"https:\/\/ss3.4sqi.net\/img\/categories_v2\/food\/donuts_","suffix":".png"},"primary":true}],"verified":true,"stats":{"checkinsCount":4565,"usersCount":998,"tipCount":14},"url":"http:\/\/www.dunkindonuts.com","hasMenu":true,"menu":{"type":"Menu","label":"Menu","anchor":"View Menu","url":"https:\/\/foursquare.com\/v\/dunkin-donuts\/4b3c1225f964a5204e8125e3\/menu","mobileUrl":"https:\/\/foursquare.com\/v\/4b3c1225f964a5204e8125e3\/device_menu"},"allowMenuUrlEdit":true,"beenHere":{"lastCheckinExpiredAt":0},"specials":{"count":0,"items":[]},"storeId":"304361","referralId":"v-1483291015","venueChains":[{"id":"556f676fbd6a75a99038d8f0"}],"hasPerk":false},{"id":"4d98831fdaec224bfb214a3e","name":"Mocha Mocha Cafe","contact":{"phone":"7184911300","formattedPhone":"(718) 491-1300"},"location":{"address":"8602 4th Ave","crossStreet":"at 86th St","lat":40.622845448671285,"lng":-74.0283855948093,"labeledLatLngs":[{"label":"display","lat":40.622845448671285,"lng":-74.0283855948093}],"postalCode":"11209","cc":"US","city":"Brooklyn","state":"NY","country":"United States","formattedAddress":["8602 4th Ave (at 86th St)","Brooklyn, NY 11209","United States"]},"categories":[{"id":"4bf58dd8d48988d1e0931735","name":"Coffee Shop","pluralName":"Coffee Shops","shortName":"Coffee Shop","icon":{"prefix":"https:\/\/ss3.4sqi.net\/img\/categories_v2\/food\/coffeeshop_","suffix":".png"},"primary":true}],"verified":true,"stats":{"checkinsCount":2179,"usersCount":931,"tipCount":39},"menu":{"type":"Menu","label":"Menu","anchor":"View Menu","url":"http:\/\/www.menupages.com\/restaurants\/mocha-mocha-coffee\/menu","mobileUrl":"http:\/\/www.menupages.com\/restaurants\/mocha-mocha-coffee\/menu","externalUrl":"http:\/\/www.menupages.com\/restaurants\/mocha-mocha-coffee\/menu"},"allowMenuUrlEdit":true,"beenHere":{"lastCheckinExpiredAt":0},"specials":{"count":0,"items":[]},"venuePage":{"id":"65712657"},"referralId":"v-1483291015","venueChains":[],"hasPerk":false},{"id":"4bc24f5fabf49521275ec293","name":"Parkview Diner","contact":{"phone":"7183339400","formattedPhone":"(718) 333-9400"},"location":{"address":"2937 W 17th St.","crossStreet":"btwn Bay 52nd St. & Canal Ave.","lat":40.58356693505376,"lng":-73.98618221282959,"labeledLatLngs":[{"label":"display","lat":40.58356693505376,"lng":-73.98618221282959}],"postalCode":"11214","cc":"US","city":"Brooklyn","state":"NY","country":"United States","formattedAddress":["2937 W 17th St. (btwn Bay 52nd St. & Canal Ave.)","Brooklyn, NY 11214","United States"]},"categories":[{"id":"4bf58dd8d48988d147941735","name":"Diner","pluralName":"Diners","shortName":"Diner","icon":{"prefix":"https:\/\/ss3.4sqi.net\/img\/categories_v2\/food\/diner_","suffix":".png"},"primary":true}],"verified":false,"stats":{"checkinsCount":3415,"usersCount":1221,"tipCount":42},"url":"http:\/\/www.parkviewdiner.com","hasMenu":true,"menu":{"type":"Menu","label":"Menu","anchor":"View Menu","url":"https:\/\/foursquare.com\/v\/parkview-diner\/4bc24f5fabf49521275ec293\/menu","mobileUrl":"https:\/\/foursquare.com\/v\/4bc24f5fabf49521275ec293\/device_menu"},"allowMenuUrlEdit":true,"beenHere":{"lastCheckinExpiredAt":0},"specials":{"count":0,"items":[]},"referralId":"v-1483291015","venueChains":[],"hasPerk":false},{"id":"4b5738e2f964a520ce2b28e3","name":"McDonald's","contact":{"phone":"7189468319","formattedPhone":"(718) 946-8319"},"location":{"address":"606 Neptune Ave","crossStreet":"W 6th St","lat":40.57941127518455,"lng":-73.97523880004883,"labeledLatLngs":[{"label":"display","lat":40.57941127518455,"lng":-73.97523880004883}],"postalCode":"11224","cc":"US","city":"Brooklyn","state":"NY","country":"United States","formattedAddress":["606 Neptune Ave (W 6th St)","Brooklyn, NY 11224","United States"]},"categories":[{"id":"4bf58dd8d48988d16e941735","name":"Fast Food Restaurant","pluralName":"Fast Food Restaurants","shortName":"Fast Food","icon":{"prefix":"https:\/\/ss3.4sqi.net\/img\/categories_v2\/food\/fastfood_","suffix":".png"},"primary":true}],"verified":true,"stats":{"checkinsCount":894,"usersCount":479,"tipCount":7},"url":"http:\/\/mcdonalds.com","hasMenu":true,"menu":{"type":"Menu","label":"Menu","anchor":"View Menu","url":"https:\/\/foursquare.com\/v\/mcdonalds\/4b5738e2f964a520ce2b28e3\/menu","mobileUrl":"https:\/\/foursquare.com\/v\/4b5738e2f964a520ce2b28e3\/device_menu"},"allowMenuUrlEdit":true,"beenHere":{"lastCheckinExpiredAt":0},"specials":{"count":0,"items":[]},"storeId":"4345","referralId":"v-1483291015","venueChains":[{"id":"556f7a12bd6a75a9903bddb2"}],"hasPerk":false}]}}