{"meta":{"code":200,"requestId":"5869398a6a607107d30bb9f6"},"response":{"venues":[{"id":"55c51a4b498e6a7ffd5ac998","name":"Whole Foods Market","contact":{"phone":"7323811010","formattedPhone":"(732) 381-1010","twitter":"wfmclarknj","facebook":"24922591487","facebookUsername":"WholeFoods","facebookName":"Whole Foods Market"},"location":{"address":"1255 Raritan Road","lat":40.631660145892745,"lng":-74.30419857990398,"labeledLatLngs":[{"label":"display","lat":40.631660145892745,"lng":-74.30419857990398}],"postalCode":"07066","cc":"US","city":"Clark","state":"NJ","country":"United States","formattedAddress":["1255 Raritan Road","Clark, NJ 07066","United States"]},"categories":[{"id":"4bf58dd8d48988d118951735","name":"Grocery Store","pluralName":"Grocery Stores","shortName":"Grocery Store","icon":{"prefix":"https:\/\/ss3.4sqi.net\/img\/categories_v2\/shops\/food_grocery_","suffix":".png"},"primary":true}],"verified":true,"stats":{"checkinsCount":1625,"usersCount":458,"tipCount":7},"url":"http:\/\/www.wholefoodsmarket.com\/stores\/clark","allowMenuUrlEdit":true,"beenHere":{"lastCheckinExpiredAt":0},"specials":{"count":0,"items":[]},"storeId":"CLA","referralId":"v-1483291018","venueChains":[{"id":"556cdf5baceaff43eb042df6"}],"hasPerk":false},{"id":"4c731b40ad69b60c1d7385b9","name":"Jose Tejas","contact":{"phone":"7322833883","formattedPhone":"(732) 283-3883"},"location":{"address":"700 US Route 1","crossStreet":"at Green St","lat":40.56109070146679,"lng":-74.301438331604,"labeledLatLngs":[{"label":"display","lat":40.56109070146679,"lng":-74.301438331604}],"postalCode":"08830","cc":"US","city":"Iselin","state":"NJ","country":"United States","formattedAddress":["700 US Route 1 (at Green St)","Iselin, NJ 08830","United States"]},"categories":[{"id":"4bf58dd8d48988d1c1941735","name":"Mexican Restaurant","pluralName":"Mexican Restaurants","shortName":"Mexican","icon":{"prefix":"https:\/\/ss3.4sqi.net\/img\/categories_v2\/food\/mexican_","suffix":".png"},"primary":true}],"verified":false,"stats":{"checkinsCount":23279,"usersCount":9548,"tipCount":261},"url":"http:\/\/bordercafe.com","allowMenuUrlEdit":true,"beenHere":{"lastCheckinExpiredAt":0},"specials":{"count":0,"items":[]},"referralId":"v-1483291018","venueChains":[],"hasPerk":false},{"id":"4aaea9a1f964a520d26220e3","name":"Starbucks","contact":{"phone":"7325969112","formattedPhone":"(732) 596-9112","twitter":"starbucks","facebook":"22092443056","facebookUsername":"Starbucks","facebookName":"Starbucks"},"location":{"address":"774 US Highway 1 N","crossStreet":"at Larsen St","lat":40.563379,"lng":-74.298491,"labeledLatLngs":[{"label":"display","lat":40.563379,"lng":-74.298491}],"postalCode":"08830","cc":"US","city":"Iselin","state":"NJ","country":"United States","formattedAddress":["774 US Highway 1 N (at Larsen St)","Iselin, NJ 08830","United States"]},"categories":[{"id":"4bf58dd8d48988d1e0931735","name":"Coffee Shop","pluralName":"Coffee Shops","shortName":"Coffee Shop","icon":{"prefix":"https:\/\/ss3.4sqi.net\/img\/categories_v2\/food\/coffeeshop_","suffix":".png"},"primary":true}],"verified":true,"stats":{"checkinsCount":6443,"usersCount":1219,"tipCount":26},"url":"http:\/\/www.starbucks.com\/store\/13554\/","hasMenu":true,"menu":{"type":"Menu","label":"Menu","anchor":"View Menu","url":"http:\/\/www.starbucks.com\/menu","mobileUrl":"http:\/\/www.starbucks.com\/menu","externalUrl":"http:\/\/www.starbucks.com\/menu"},"allowMenuUrlEdit":true,"beenHere":{"lastCheckinExpiredAt":0},"specials":{"count":0,"items":[]},"storeId":"7719","referralId":"v-1483291018","venueChains":[{"id":"556f676fbd6a75a99038d8ec"}],"hasPerk":false},{"id":"4b7abadef964a520a2392fe3","name":"Barnes & Noble","contact":{"phone":"7325741818","formattedPhone":"(732) 574-1818","twitter":"bnbuzz"},"location":{"address":"1180 Raritan Rd","crossStreet":"at Central Ave","lat":40.630464119328515,"lng":-74.31122253126289,"labeledLatLngs":[{"label":"display","lat":40.630464119328515,"lng":-74.31122253126289}],"postalCode":"07066","cc":"US","city":"Clark","state":"NJ","country":"United States","formattedAddress":["1180 Raritan Rd (at Central Ave)","Clark, NJ 07066","United States"]},"categories":[{"id":"4bf58dd8d48988d114951735","name":"Bookstore","pluralName":"Bookstores","shortName":"Bookstore","icon":{"prefix":"https:\/\/ss3.4sqi.net\/img\/categories_v2\/shops\/bookstore_","suffix":".png"},"primary":true}],"verified":true,"stats":{"checkinsCount":5377,"usersCount":1682,"tipCount":19},"url":"http:\/\/bn.com","allowMenuUrlEdit":true,"beenHere":{"lastCheckinExpiredAt":0},"specials":{"count":0,"items":[]},"storeId":"2946","referralId":"v-1483291018","venueChains":[{"id":"556d1612aceaff43eb0990c6"}],"hasPerk":false},{"id":"540f8b5d498e0a6893f0309b","name":"Buffalo Wild Wings","contact":{},"location":{"address":"625 US Highway 1 S","crossStreet":"Gill Ln","lat":40.5580129410562,"lng":-74.30763611052299,"labeledLatLngs":[{"label":"display","lat":40.5580129410562,"lng":-74.30763611052299}],"postalCode":"08830","cc":"US","city":"Iselin","state":"NJ","country":"United States","formattedAddress":["625 US Highway 1 S (Gill Ln)","Iselin, NJ 08830","United States"]},"categories":[{"id":"4bf58dd8d48988d14c941735","name":"Wings Joint","pluralName":"Wings Joints","shortName":"Wings","icon":{"prefix":"https:\/\/ss3.4sqi.net\/img\/categories_v2\/food\/wings_","suffix":".png"},"primary":true}],"verified":false,"stats":{"checkinsCount":1599,"usersCount":733,"tipCount":13},"allowMenuUrlEdit":true,"beenHere":{"lastCheckinExpiredAt":0},"specials":{"count":0,"items":[]},"referralId":"v-1483291018","venueChains":[{"id":"556d1d36aceaff43eb0a9e66"}],"hasPerk":false},{"id":"4b1d3cadf964a520730d24e3","name":"Quick Chek","contact":{"phone":"7323811080","formattedPhone":"(732) 381-1080","twitter":"QuickChek"},"location":{"address":"1999 Route 1 & 9 North","crossStreet":"at E. Scott Ave","lat":40.60701445104453,"lng":-74.26084573629034,"labeledLatLngs":[{"label":"display","lat":40.60701445104453,"lng":-74.26084573629034}],"postalCode":"07065","cc":"US","city":"Rahway","state":"NJ","country":"United States","formattedAddress":["1999 Route 1 & 9 North (at E. Scott Ave)","Rahway, NJ 07065","United States"]},"categories":[{"id":"4bf58dd8d48988d1f9941735","name":"Food & Drink Shop","pluralName":"Food & Drink Shops","shortName":"Food & Drink","icon":{"prefix":"https:\/\/ss3.4sqi.net\/img\/categories_v2\/shops\/foodanddrink_","suffix":".png"},"primary":true}],"verified":true,"stats":{"checkinsCount":2531,"usersCount":802,"tipCount":9},"url":"http:\/\/quickchek.com","allowMenuUrlEdit":true,"beenHere":{"lastCheckinExpiredAt":0},"specials":{"count":0,"items":[]},"storeId":"","referralId":"v-1483291018","venueChains":[{"id":"556f431fbd6a007c77388d9e"}],"hasPerk":false},{"id":"4a79834af964a52020e71fe3","name":"Starbucks","contact":{"phone":"9088628545","formattedPhone":"(908) 862-8545","twitter":"starbucks","facebook":"22092443056","facebookUsername":"Starbucks","facebookName":"Starbucks"},"location":{"address":"693 W Edgar Rd","crossStreet":"at Aviation Plaza","lat":40.619522976409385,"lng":-74.24875974655151,"labeledLatLngs":[{"label":"display","lat":40.619522976409385,"lng":-74.24875974655151}],"postalCode":"07036","cc":"US","city":"Linden","state":"NJ","country":"United States","formattedAddress":["693 W Edgar Rd (at Aviation Plaza)","Linden, NJ 07036","United States"]},"categories":[{"id":"4bf58dd8d48988d1e0931735","name":"Coffee Shop","pluralName":"Coffee Shops","shortName":"Coffee Shop","icon":{"prefix":"https:\/\/ss3.4sqi.net\/img\/categories_v2\/food\/coffeeshop_","suffix":".png"},"primary":true}],"verified":true,"stats":{"checkinsCount":5389,"usersCount":1399,"tipCount":39},"url":"http:\/\/www.starbucks.com\/store\/14733\/","hasMenu":true,"menu":{"type":"Menu","label":"Menu","anchor":"View Menu","url":"http:\/\/www.starbucks.com\/menu","mobileUrl":"http:\/\/www.starbucks.com\/menu","externalUrl":"http:\/\/www.starbucks.com\/menu"},"allowMenuUrlEdit":true,"beenHere":{"lastCheckinExpiredAt":0},"specials":{"count":0,"items":[]},"storeId":"7739","referralId":"v-1483291018","venueChains":[{"id":"556f676fbd6a75a99038d8ec"}],"hasPerk":false},{"id":"4c41ca01d7fad13aae0408da","name":"Dunkin' Donuts","contact":{"phone":"7328551420","formattedPhone":"(732) 855-1420","twitter":"dunkindonuts","facebook":"6979393237","facebookUsername":"DunkinDonutsUS","facebookName":"Dunkin' Donuts"},"location":{"address":"US Highway 1 & Green St","lat":40.56249422381157,"lng":-74.29898486737864,"labeledLatLngs":[{"label":"display","lat":40.56249422381157,"lng":-74.29898486737864}],"postalCode":"8830","cc":"US","city":"Iselin","state":"NJ","country":"United States","formattedAddress":["US Highway 1 & Green St","Iselin, NJ 8830","United States"]},"categories":[{"id":"4bf58dd8d48988d148941735","name":"Donut Shop","pluralName":"Donut Shops","shortName":"Donuts","icon":{"prefix":"https:\/\/ss3.4sqi.net\/img\/categories_v2\/food\/donuts_","suffix":".png"},"primary":true}],"verified":true,"stats":{"checkinsCount":5002,"usersCount":933,"tipCount":11},"url":"http:\/\/www.dunkindonuts.com","allowMenuUrlEdit":true,"beenHere":{"lastCheckinExpiredAt":0},"specials":{"count":0,"items":[]},"storeId":"304358","referralId":"v-1483291018","venueChains":[{"id":"556f676fbd6a75a99038d8f0"}],"hasPerk":false},{"id":"5591bcc9498ec5210e489713","name":"Panera Bread","contact":{"phone":"7328509007","formattedPhone":"(732) 850-9007","twitter":"panerabread","facebook":"99044554628","facebookUsername":"panerabread","facebookName":"Panera Bread"},"location":{"address":"1255 Raritan Rd","lat":40.63227781095682,"lng":-74.30563662148096,"labeledLatLngs":[{"label":"display","lat":40.63227781095682,"lng":-74.30563662148096}],"postalCode":"07066","cc":"US","city":"Clark","state":"NJ","country":"United States","formattedAddress":["1255 Raritan Rd","Clark, NJ 07066","United States"]},"categories":[{"id":"4bf58dd8d48988d1c5941735","name":"Sandwich Place","pluralName":"Sandwich Places","shortName":"Sandwiches","icon":{"prefix":"https:\/\/ss3.4sqi.net\/img\/categories_v2\/food\/deli_","suffix":".png"},"primary":true}],"verified":false,"stats":{"checkinsCount":596,"usersCount":208,"tipCount":1},"url":"https:\/\/www.panerabread.com\/en-us\/home.html","hasMenu":true,"menu":{"type":"Menu","label":"Menu","anchor":"View Menu","url":"https:\/\/foursquare.com\/v\/panera-bread\/5591bcc9498ec5210e489713\/menu","mobileUrl":"https:\/\/foursquare.com\/v\/5591bcc9498ec5210e489713\/device_menu","externalUrl":"http:\/\/www.listingextensions.com\/f43115baa3\/696200673\/menu"},"allowMenuUrlEdit":true,"beenHere":{"lastCheckinExpiredAt":0},"specials":{"count":0,"items":[]},"referralId":"v-1483291018","venueChains":[{"id":"556e0f6fa7c82e6b724f8c8a"}],"hasPerk":false},{"id":"5609bf2d498e54da6254b94f","name":"Chick-fil-A St. Georges Ave","contact":{"phone":"7326362074","formattedPhone":"(732) 636-2074","facebook":"313501065044","facebookUsername":"EatMorChikin","facebookName":"Eat Mor Chikin Cowz"},"location":{"address":"1040 US Highway 1 N","lat":40.57016285176426,"lng":-74.29344605753418,"labeledLatLngs":[{"label":"display","lat":40.57016285176426,"lng":-74.29344605753418}],"postalCode":"07095","cc":"US","city":"Woodbridge","state":"NJ","country":"United States","formattedAddress":["1040 US Highway 1 N","Woodbridge, NJ 07095","United States"]},"categories":[{"id":"4bf58dd8d48988d16e941735","name":"Fast Food Restaurant","pluralName":"Fast Food Restaurants","shortName":"Fast Food","icon":{"prefix":"https:\/\/ss3.4sqi.net\/img\/categories_v2\/food\/fastfood_","suffix":".png"},"primary":true}],"verified":true,"stats":{"checkinsCount":471,"usersCount":221,"tipCount":5},"url":"https:\/\/www.chick-fil-a.com\/Locations\/NJ\/St.-Georges-Ave","menu":{"type":"Menu","label":"Menu","anchor":"View Menu","url":"http:\/\/www.chick-fil-a.com\/Food\/Menu","mobileUrl":"http:\/\/www.chick-fil-a.com\/Food\/Menu","externalUrl":"http:\/\/www.chick-fil-a.com\/Food\/Menu"},"allowMenuUrlEdit":true,"beenHere":{"lastCheckinExpiredAt":0},"specials":{"count":0,"items":[]},"storeId":"3429","referralId":"v-1483291018","venueChains":[{"id":"556e1846a7c82e6b72513d6b"}],"hasPerk":false},{"id":"4e4e84c77d8bd425e481ed81","name":"Central Park","contact":{"phone":"9082418386","formattedPhone":"(908) 241-8386","twitter":"centralparknj"},"location":{"address":"2401 Wood Ave","lat":40.63771618360412,"lng":-74.26461072624303,"labeledLatLngs":[{"label":"display","lat":40.63771618360412,"lng":-74.26461072624303}],"postalCode":"07203","cc":"US","city":"Roselle","state":"NJ","country":"United States","formattedAddress":["2401 Wood Ave","Roselle, NJ 07203","United States"]},"categories":[{"id":"4bf58dd8d48988d157941735","name":"New American Restaurant","pluralName":"New American Restaurants","shortName":"New American","icon":{"prefix":"https:\/\/ss3.4sqi.net\/img\/categories_v2\/food\/newamerican_","suffix":".png"},"primary":true}],"verified":true,"stats":{"checkinsCount":7533,"usersCount":1920,"tipCount":24},"url":"http:\/\/centralparknj.com\/","hasMenu":true,"menu":{"type":"Menu","label":"Menu","anchor":"View Menu","url":"https:\/\/foursquare.com\/v\/central-park\/4e4e84c77d8bd425e481ed81\/menu","mobileUrl":"https:\/\/foursquare.com\/v\/4e4e84c77d8bd425e481ed81\/device_menu"},"allowMenuUrlEdit":true,"beenHere":{"lastCheckinExpiredAt":0},"specials":{"count":0,"items":[]},"storeId":"","referralId":"v-1483291018","venueChains":[],"hasPerk":false},{"id":"5064774de4b030dd86eda9e4","name":"Manny's Diner","contact":{"phone":"7323827755","formattedPhone":"(732) 382-7755"},"location":{"address":"1030 Raritan Rd","lat":40.626919680746,"lng":-74.31660775800961,"labeledLatLngs":[{"label":"display","lat":40.626919680746,"lng":-74.31660775800961}],"postalCode":"07066","cc":"US","city":"Clark","state":"NJ","country":"United States","formattedAddress":["1030 Raritan Rd","Clark, NJ 07066","United States"]},"categories":[{"id":"4bf58dd8d48988d147941735","name":"Diner","pluralName":"Diners","shortName":"Diner","icon":{"prefix":"https:\/\/ss3.4sqi.net\/img\/categories_v2\/food\/diner_","suffix":".png"},"primary":true}],"verified":false,"stats":{"checkinsCount":1525,"usersCount":590,"tipCount":26},"url":"http:\/\/mannysdiners.com","allowMenuUrlEdit":true,"beenHere":{"lastCheckinExpiredAt":0},"specials":{"count":0,"items":[]},"referralId":"v-1483291018","venueChains":[],"hasPerk":false},{"id":"4b8d5019f964a520d3f332e3","name":"Dunkin Donuts","contact":{"phone":"7325740715","formattedPhone":"(732) 574-0715","twitter":"dunkindonuts","facebook":"6979393237","facebookUsername":"DunkinDonutsUS","facebookName":"Dunkin' Donuts"},"location":{"address":"196 Westfield Ave","lat":40.622170966666665,"lng":-74.30316,"labeledLatLngs":[{"label":"display","lat":40.622170966666665,"lng":-74.30316}],"postalCode":"07066","cc":"US","city":"Clark","state":"NJ","country":"United States","formattedAddress":["196 Westfield Ave","Clark, NJ 07066","United States"]},"categories":[{"id":"4bf58dd8d48988d148941735","name":"Donut Shop","pluralName":"Donut Shops","shortName":"Donuts","icon":{"prefix":"https:\/\/ss3.4sqi.net\/img\/categories_v2\/food\/donuts_","suffix":".png"},"primary":true}],"verified":true,"stats":{"checkinsCount":2961,"usersCount":639,"tipCount":9},"url":"http:\/\/www.dunkindonuts.com","allowMenuUrlEdit":true,"beenHere":{"lastCheckinExpiredAt":0},"specials":{"count":0,"items":[]},"storeId":"301795","referralId":"v-1483291018","venueChains":[{"id":"556f676fbd6a75a99038d8f0"}],"hasPerk":false},{"id":"4b357087f964a5202c2d25e3","name":"Bonefish Grill","contact":{"phone":"7326347379","formattedPhone":"(732) 634-7379","twitter":"bonefishgrill","facebook":"149786898424355","facebookUsername":"BonefishGrill.Iselin","facebookName":"Bonefish Grill - Iselin"},"location":{"address":"625 US 1","lat":40.557758640134715,"lng":-74.30793975592573,"labeledLatLngs":[{"label":"display","lat":40.557758640134715,"lng":-74.30793975592573}],"postalCode":"08830","cc":"US","city":"Iselin","state":"NJ","country":"United States","formattedAddress":["625 US 1","Iselin, NJ 08830","United States"]},"categories":[{"id":"4bf58dd8d48988d1ce941735","name":"Seafood Restaurant","pluralName":"Seafood Restaurants","shortName":"Seafood","icon":{"prefix":"https:\/\/ss3.4sqi.net\/img\/categories_v2\/food\/seafood_","suffix":".png"},"primary":true}],"verified":true,"stats":{"checkinsCount":3227,"usersCount":1787,"tipCount":60},"url":"http:\/\/www.BonefishGrill.com","hasMenu":true,"menu":{"type":"Menu","label":"Menu","anchor":"View Menu","url":"https:\/\/foursquare.com\/v\/bonefish-grill\/4b357087f964a5202c2d25e3\/menu","mobileUrl":"https:\/\/foursquare.com\/v\/4b357087f964a5202c2d25e3\/device_menu"},"allowMenuUrlEdit":true,"beenHere":{"lastCheckinExpiredAt":0},"specials":{"count":0,"items":[]},"storeId":"9102","referralId":"v-1483291018","venueChains":[{"id":"556c8cb7a7c8a11a36bcb5bb"}],"hasPerk":false},{"id":"4e99d2e84690c21334d15c17","name":"Bahama Breeze","contact":{"phone":"7327268951","formattedPhone":"(732) 726-8951","twitter":"bahamabreeze","facebook":"22343544970","facebookUsername":"BahamaBreeze","facebookName":"Bahama Breeze Island Grille"},"location":{"address":"520 Woodbridge Center Dr","lat":40.55710663,"lng":-74.30454234,"labeledLatLngs":[{"label":"display","lat":40.55710663,"lng":-74.30454234}],"postalCode":"07095","cc":"US","city":"Woodbridge","state":"NJ","country":"United States","formattedAddress":["520 Woodbridge Center Dr","Woodbridge, NJ 07095","United States"]},"categories":[{"id":"4bf58dd8d48988d144941735","name":"Caribbean Restaurant","pluralName":"Caribbean Restaurants","shortName":"Caribbean","icon":{"prefix":"https:\/\/ss3.4sqi.net\/img\/categories_v2\/food\/caribbean_","suffix":".png"},"primary":true}],"verified":true,"stats":{"checkinsCount":6494,"usersCount":3254,"tipCount":104},"url":"http:\/\/www.bahamabreeze.com","hasMenu":true,"menu":{"type":"Menu","label":"Menu","anchor":"View Menu","url":"https:\/\/foursquare.com\/v\/bahama-breeze\/4e99d2e84690c21334d15c17\/menu","mobileUrl":"https:\/\/foursquare.com\/v\/4e99d2e84690c21334d15c17\/device_menu"},"allowMenuUrlEdit":true,"beenHere":{"lastCheckinExpiredAt":0},"specials":{"count":0,"items":[]},"storeId":"3042","referralId":"v-1483291018","venueChains":[{"id":"5569f571a7c8896abe7c9d0f"}],"hasPerk":false},{"id":"54849a5f498eb80c2a851740","name":"Buffalo Wild Wings","contact":{},"location":{"lat":40.61307261317804,"lng":-74.25472531304301,"labeledLatLngs":[{"label":"display","lat":40.61307261317804,"lng":-74.25472531304301}],"postalCode":"07036","cc":"US","city":"Linden","state":"NJ","country":"United States","formattedAddress":["Linden, NJ 07036","United States"]},"categories":[{"id":"4bf58dd8d48988d14e941735","name":"American Restaurant","pluralName":"American Restaurants","shortName":"American","icon":{"prefix":"https:\/\/ss3.4sqi.net\/img\/categories_v2\/food\/default_","suffix":".png"},"primary":true}],"verified":false,"stats":{"checkinsCount":554,"usersCount":311,"tipCount":4},"allowMenuUrlEdit":true,"beenHere":{"lastCheckinExpiredAt":0},"specials":{"count":0,"items":[]},"referralId":"v-1483291018","venueChains":[{"id":"556d1d36aceaff43eb0a9e66"}],"hasPerk":false},{"id":"4bbb28e1935e9521a2d02890","name":"Dunkin' Donuts","contact":{"phone":"9086530245","formattedPhone":"(908) 653-0245","twitter":"dunkindonuts","facebook":"6979393237","facebookUsername":"DunkinDonutsUS","facebookName":"Dunkin' Donuts"},"location":{"address":"1230 Raritan Rd","crossStreet":"at Walnut Ave","lat":40.634591476198594,"lng":-74.3033391870603,"labeledLatLngs":[{"label":"display","lat":40.634591476198594,"lng":-74.3033391870603}],"postalCode":"07016","cc":"US","city":"Cranford","state":"NJ","country":"United States","formattedAddress":["1230 Raritan Rd (at Walnut Ave)","Cranford, NJ 07016","United States"]},"categories":[{"id":"4bf58dd8d48988d148941735","name":"Donut Shop","pluralName":"Donut Shops","shortName":"Donuts","icon":{"prefix":"https:\/\/ss3.4sqi.net\/img\/categories_v2\/food\/donuts_","suffix":".png"},"primary":true}],"verified":true,"stats":{"checkinsCount":2232,"usersCount":524,"tipCount":8},"url":"http:\/\/www.dunkindonuts.com","hasMenu":true,"menu":{"type":"Menu","label":"Menu","anchor":"View Menu","url":"https:\/\/foursquare.com\/v\/dunkin-donuts\/4bbb28e1935e9521a2d02890\/menu","mobileUrl":"https:\/\/foursquare.com\/v\/4bbb28e1935e9521a2d02890\/device_menu"},"allowMenuUrlEdit":true,"beenHere":{"lastCheckinExpiredAt":0},"specials":{"count":0,"items":[]},"storeId":"337394","referralId":"v-1483291018","venueChains":[{"id":"556f676fbd6a75a99038d8f0"}],"hasPerk":false},{"id":"5793d9c3498ec563695cef89","name":"Blu Ale House","contact":{},"location":{"address":"855 Saint George Ave","lat":40.56863,"lng":-74.29069,"labeledLatLngs":[{"label":"display","lat":40.56863,"lng":-74.29069}],"postalCode":"07095","cc":"US","city":"Woodbridge","state":"NJ","country":"United States","formattedAddress":["855 Saint George Ave","Woodbridge, NJ 07095","United States"]},"categories":[{"id":"4bf58dd8d48988d14e941735","name":"American Restaurant","pluralName":"American Restaurants","shortName":"American","icon":{"prefix":"https:\/\/ss3.4sqi.net\/img\/categories_v2\/food\/default_","suffix":".png"},"primary":true}],"verified":false,"stats":{"checkinsCount":152,"usersCount":106,"tipCount":0},"allowMenuUrlEdit":true,"beenHere":{"lastCheckinExpiredAt":0},"specials":{"count":0,"items":[]},"referralId":"v-1483291018","venueChains":[],"hasPerk":false},{"id":"4bf2870e55c7c9b62d2b6204","name":"Dunkin' Donuts","contact":{"phone":"7323883388","formattedPhone":"(732) 388-3388","twitter":"dunkindonuts","facebook":"6979393237","facebookUsername":"DunkinDonutsUS","facebookName":"Dunkin' Donuts"},"location":{"address":"1800 US Highway 1","crossStreet":"Merck","lat":40.60504170747715,"lng":-74.26368811031635,"labeledLatLngs":[{"label":"display","lat":40.60504170747715,"lng":-74.26368811031635}],"postalCode":"07065","cc":"US","city":"Rahway","state":"NJ","country":"United States","formattedAddress":["1800 US Highway 1 (Merck)","Rahway, NJ 07065","United States"]},"categories":[{"id":"4bf58dd8d48988d148941735","name":"Donut Shop","pluralName":"Donut Shops","shortName":"Donuts","icon":{"prefix":"https:\/\/ss3.4sqi.net\/img\/categories_v2\/food\/donuts_","suffix":".png"},"primary":true}],"verified":true,"stats":{"checkinsCount":1328,"usersCount":432,"tipCount":8},"url":"http:\/\/www.dunkindonuts.com","allowMenuUrlEdit":true,"beenHere":{"lastCheckinExpiredAt":0},"specials":{"count":0,"items":[]},"storeId":"306610","referralId":"v-1483291018","venueChains":[{"id":"556f676fbd6a75a99038d8f0"}],"hasPerk":false},{"id":"4ae49ab6f964a520389c21e3","name":"Dimple's Bombay Talk","contact":{"phone":"7322830066","formattedPhone":"(732) 283-0066"},"location":{"address":"1358 Oak Tree Rd","lat":40.573908,"lng":-74.32539,"labeledLatLngs":[{"label":"display","lat":40.573908,"lng":-74.32539}],"postalCode":"08830","cc":"US","city":"Iselin","state":"NJ","country":"United States","formattedAddress":["1358 Oak Tree Rd","Iselin, NJ 08830","United States"]},"categories":[{"id":"4bf58dd8d48988d10f941735","name":"Indian Restaurant","pluralName":"Indian Restaurants","shortName":"Indian","icon":{"prefix":"https:\/\/ss3.4sqi.net\/img\/categories_v2\/food\/indian_","suffix":".png"},"primary":true}],"verified":false,"stats":{"checkinsCount":1608,"usersCount":1009,"tipCount":33},"url":"http:\/\/www.bombaytalkusa.com","hasMenu":true,"menu":{"type":"Menu","label":"Menu","anchor":"View Menu","url":"https:\/\/foursquare.com\/v\/dimples-bombay-talk\/4ae49ab6f964a520389c21e3\/menu","mobileUrl":"https:\/\/foursquare.com\/v\/4ae49ab6f964a520389c21e3\/device_menu"},"allowMenuUrlEdit":true,"beenHere":{"lastCheckinExpiredAt":0},"specials":{"count":0,"items":[]},"referralId":"v-1483291018","venueChains":[],"hasPerk":false},{"id":"4bbf99d6920eb7134d9f172c","name":"Quick Chek","contact":{"phone":"7326369587","formattedPhone":"(732) 636-9587","twitter":"QuickChek"},"location":{"address":"15 Gill Ln","crossStreet":"at Middlesex Essex Tpk","lat":40.56999082369607,"lng":-74.3241834640503,"labeledLatLngs":[{"label":"display","lat":40.56999082369607,"lng":-74.3241834640503}],"postalCode":"08830","cc":"US","city":"Iselin","state":"NJ","country":"United States","formattedAddress":["15 Gill Ln (at Middlesex Essex Tpk)","Iselin, NJ 08830","United States"]},"categories":[{"id":"4d954b0ea243a5684a65b473","name":"Convenience Store","pluralName":"Convenience Stores","shortName":"Convenience Store","icon":{"prefix":"https:\/\/ss3.4sqi.net\/img\/categories_v2\/shops\/conveniencestore_","suffix":".png"},"primary":true}],"verified":true,"stats":{"checkinsCount":2204,"usersCount":498,"tipCount":6},"url":"http:\/\/quickchek.com","hasMenu":true,"menu":{"type":"Products","label":"Products","anchor":"View Products","url":"https:\/\/foursquare.com\/v\/quick-chek\/4bbf99d6920eb7134d9f172c\/menu","mobileUrl":"https:\/\/foursquare.com\/v\/4bbf99d6920eb7134d9f172c\/device_menu"},"allowMenuUrlEdit":true,"beenHere":{"lastCheckinExpiredAt":0},"specials":{"count":0,"items":[]},"storeId":"","referralId":"v-1483291018","venueChains":[{"id":"556f431fbd6a007c77388d9e"}],"hasPerk":false},{"id":"4e25de4f8877099df4c2be2b","name":"Quik Mart","contact":{},"location":{"address":"701 Knopf St","lat":40.62825602860417,"lng":-74.25959645306628,"labeledLatLngs":[{"label":"display","lat":40.62825602860417,"lng":-74.25959645306628}],"postalCode":"07036","cc":"US","city":"Linden","state":"NJ","country":"United States","formattedAddress":["701 Knopf St","Linden, NJ 07036","United States"]},"categories":[{"id":"4bf58dd8d48988d146941735","name":"Deli \/ Bodega","pluralName":"Delis \/ Bodegas","shortName":"Deli \/ Bodega","icon":{"prefix":"https:\/\/ss3.4sqi.net\/img\/categories_v2\/food\/deli_","suffix":".png"},"primary":true}],"verified":false,"stats":{"checkinsCount":632,"usersCount":22,"tipCount":0},"allowMenuUrlEdit":true,"beenHere":{"lastCheckinExpiredAt":0},"specials":{"count":0,"items":[]},"referralId":"v-1483291018","venueChains":[],"hasPerk":false},{"id":"4bb68ad86edc76b0e221311c","name":"Firehouse Eatery & Pub","contact":{"phone":"7323829500","formattedPhone":"(732) 382-9500"},"location":{"address":"455 Saint Georges Ave","crossStreet":"at Minna St","lat":40.598671805691836,"lng":-74.29006576538086,"labeledLatLngs":[{"label":"display","lat":40.598671805691836,"lng":-74.29006576538086}],"postalCode":"07065","cc":"US","city":"Rahway","state":"NJ","country":"United States","formattedAddress":["455 Saint Georges Ave (at Minna St)","Rahway, NJ 07065","United States"]},"categories":[{"id":"4bf58dd8d48988d116941735","name":"Bar","pluralName":"Bars","shortName":"Bar","icon":{"prefix":"https:\/\/ss3.4sqi.net\/img\/categories_v2\/nightlife\/pub_","suffix":".png"},"primary":true}],"verified":false,"stats":{"checkinsCount":2117,"usersCount":589,"tipCount":13},"url":"http:\/\/firehouseeatery.com","hasMenu":true,"menu":{"type":"Menu","label":"Menu","anchor":"View Menu","url":"https:\/\/foursquare.com\/v\/firehouse-eatery--pub\/4bb68ad86edc76b0e221311c\/menu","mobileUrl":"https:\/\/foursquare.com\/v\/4bb68ad86edc76b0e221311c\/device_menu"},"allowMenuUrlEdit":true,"beenHere":{"lastCheckinExpiredAt":0},"specials":{"count":0,"items":[]},"referralId":"v-1483291018","venueChains":[],"hasPerk":false},{"id":"4a724a25f964a520cbda1fe3","name":"U-Yee Sushi","contact":{"phone":"7322837888","formattedPhone":"(732) 283-7888"},"location":{"address":"675 US 1","lat":40.56003833236055,"lng":-74.31042619157927,"labeledLatLngs":[{"label":"display","lat":40.56003833236055,"lng":-74.31042619157927}],"postalCode":"08863","cc":"US","city":"Iselin","state":"NJ","country":"United States","formattedAddress":["675 US 1","Iselin, NJ 08863","United States"]},"categories":[{"id":"4bf58dd8d48988d1d2941735","name":"Sushi Restaurant","pluralName":"Sushi Restaurants","shortName":"Sushi","icon":{"prefix":"https:\/\/ss3.4sqi.net\/img\/categories_v2\/food\/sushi_","suffix":".png"},"primary":true}],"verified":false,"stats":{"checkinsCount":7582,"usersCount":2715,"tipCount":98},"url":"http:\/\/uyeesushihibachi.com","allowMenuUrlEdit":true,"beenHere":{"lastCheckinExpiredAt":0},"specials":{"count":0,"items":[]},"referralId":"v-1483291018","venueChains":[],"hasPerk":false},{"id":"4e958d0fb8f73812d08d95f2","name":"Olive Garden","contact":{"phone":"7327263191","formattedPhone":"(732) 726-3191","twitter":"olivegarden"},"location":{"address":"510 Woodbridge Center Dr","lat":40.55645356367928,"lng":-74.30485744499116,"labeledLatLngs":[{"label":"display","lat":40.55645356367928,"lng":-74.30485744499116}],"postalCode":"07095","cc":"US","city":"Woodbridge","state":"NJ","country":"United States","formattedAddress":["510 Woodbridge Center Dr","Woodbridge, NJ 07095","United States"]},"categories":[{"id":"4bf58dd8d48988d110941735","name":"Italian Restaurant","pluralName":"Italian Restaurants","shortName":"Italian","icon":{"prefix":"https:\/\/ss3.4sqi.net\/img\/categories_v2\/food\/italian_","suffix":".png"},"primary":true}],"verified":true,"stats":{"checkinsCount":4163,"usersCount":2137,"tipCount":42},"url":"http:\/\/www.olivegarden.com\/italian-restaurant\/nj\/woodbridge\/1745\/","hasMenu":true,"menu":{"type":"Menu","label":"Menu","anchor":"View Menu","url":"https:\/\/foursquare.com\/v\/olive-garden\/4e958d0fb8f73812d08d95f2\/menu","mobileUrl":"https:\/\/foursquare.com\/v\/4e958d0fb8f73812d08d95f2\/device_menu"},"allowMenuUrlEdit":true,"beenHere":{"lastCheckinExpiredAt":0},"specials":{"count":0,"items":[]},"storeId":"1745","referralId":"v-1483291018","venueChains":[{"id":"556d1777aceaff43eb09d1f1"}],"hasPerk":false},{"id":"4c06cbf32e80a59354ab74f9","name":"Taco Bell","contact":{"phone":"7327501234","formattedPhone":"(732) 750-1234"},"location":{"address":"901 Saint George Ave","lat":40.56961926,"lng":-74.29154,"labeledLatLngs":[{"label":"display","lat":40.56961926,"lng":-74.29154}],"postalCode":"07095","cc":"US","city":"Woodbridge","state":"NJ","country":"United States","formattedAddress":["901 Saint George Ave","Woodbridge, NJ 07095","United States"]},"categories":[{"id":"4bf58dd8d48988d16e941735","name":"Fast Food Restaurant","pluralName":"Fast Food Restaurants","shortName":"Fast Food","icon":{"prefix":"https:\/\/ss3.4sqi.net\/img\/categories_v2\/food\/fastfood_","suffix":".png"},"primary":true}],"verified":true,"stats":{"checkinsCount":2245,"usersCount":867,"tipCount":21},"url":"http:\/\/www.tacobell.com","hasMenu":true,"menu":{"type":"Menu","label":"Menu","anchor":"View Menu","url":"https:\/\/foursquare.com\/v\/taco-bell\/4c06cbf32e80a59354ab74f9\/menu","mobileUrl":"https:\/\/foursquare.com\/v\/4c06cbf32e80a59354ab74f9\/device_menu"},"allowMenuUrlEdit":true,"beenHere":{"lastCheckinExpiredAt":0},"specials":{"count":0,"items":[]},"storeId":"291074","referralId":"v-1483291018","venueChains":[{"id":"556f46f6bd6a007c77390fac"}],"hasPerk":false},{"id":"4b65a806f964a5201cf82ae3","name":"Dunkin' Donuts","contact":{"phone":"9082986800","formattedPhone":"(908) 298-6800","twitter":"dunkindonuts","facebook":"6979393237","facebookUsername":"DunkinDonutsUS","facebookName":"Dunkin' Donuts"},"location":{"address":"1001 Wood Ave","lat":40.644411,"lng":-74.273445,"labeledLatLngs":[{"label":"display","lat":40.644411,"lng":-74.273445}],"postalCode":"07203","cc":"US","city":"Roselle","state":"NJ","country":"United States","formattedAddress":["1001 Wood Ave","Roselle, NJ 07203","United States"]},"categories":[{"id":"4bf58dd8d48988d148941735","name":"Donut Shop","pluralName":"Donut Shops","shortName":"Donuts","icon":{"prefix":"https:\/\/ss3.4sqi.net\/img\/categories_v2\/food\/donuts_","suffix":".png"},"primary":true}],"verified":true,"stats":{"checkinsCount":1653,"usersCount":386,"tipCount":11},"url":"http:\/\/www.dunkindonuts.com","hasMenu":true,"menu":{"type":"Menu","label":"Menu","anchor":"View Menu","url":"https:\/\/foursquare.com\/v\/dunkin-donuts\/4b65a806f964a5201cf82ae3\/menu","mobileUrl":"https:\/\/foursquare.com\/v\/4b65a806f964a5201cf82ae3\/device_menu"},"allowMenuUrlEdit":true,"beenHere":{"lastCheckinExpiredAt":0},"specials":{"count":0,"items":[]},"storeId":"304817","referralId":"v-1483291018","venueChains":[{"id":"556f676fbd6a75a99038d8f0"}],"hasPerk":false},{"id":"55ad1a6f498e9265da36b95d","name":"Applebee's","contact":{"phone":"7323811429","formattedPhone":"(732) 381-1429","twitter":"applebees"},"location":{"address":"Raritan Rd and Walnut Ave","lat":40.63194718,"lng":-74.30516212,"labeledLatLngs":[{"label":"display","lat":40.63194718,"lng":-74.30516212}],"postalCode":"07066","cc":"US","city":"Clark","state":"NJ","country":"United States","formattedAddress":["Raritan Rd and Walnut Ave","Clark, NJ 07066","United States"]},"categories":[{"id":"4bf58dd8d48988d14e941735","name":"American Restaurant","pluralName":"American Restaurants","shortName":"American","icon":{"prefix":"https:\/\/ss3.4sqi.net\/img\/categories_v2\/food\/default_","suffix":".png"},"primary":true}],"verified":true,"stats":{"checkinsCount":427,"usersCount":170,"tipCount":6},"url":"http:\/\/restaurants.applebees.com","allowMenuUrlEdit":true,"beenHere":{"lastCheckinExpiredAt":0},"specials":{"count":0,"items":[]},"storeId":"78026","referralId":"v-1483291018","venueChains":[{"id":"556e146fa7c82e6b725097e1"}],"hasPerk":false},{"id":"4b638811f964a52053812ae3","name":"Sukhadia's","contact":{"phone":"7325481888","formattedPhone":"(732) 548-1888","twitter":"sukahdianj","facebook":"330912646952052","facebookUsername":"SukhadiaNJ","facebookName":"Sukhadia"},"location":{"address":"1507 Oak Tree Rd","lat":40.57313950569923,"lng":-74.33114706882779,"labeledLatLngs":[{"label":"display","lat":40.57313950569923,"lng":-74.33114706882779}],"postalCode":"08830","cc":"US","city":"Iselin","state":"NJ","country":"United States","formattedAddress":["1507 Oak Tree Rd","Iselin, NJ 08830","United States"]},"categories":[{"id":"4bf58dd8d48988d10f941735","name":"Indian Restaurant","pluralName":"Indian Restaurants","shortName":"Indian","icon":{"prefix":"https:\/\/ss3.4sqi.net\/img\/categories_v2\/food\/indian_","suffix":".png"},"primary":true}],"verified":false,"stats":{"checkinsCount":384,"usersCount":278,"tipCount":4},"url":"http:\/\/sukhadia.com","allowMenuUrlEdit":true,"beenHere":{"lastCheckinExpiredAt":0},"specials":{"count":0,"items":[]},"referralId":"v-1483291018","venueChains":[],"hasPerk":false},{"id":"4b171418f964a520f3c123e3","name":"QuickChek","contact":{"phone":"9088629853","formattedPhone":"(908) 862-9853"},"location":{"address":"9-11 W Elizabeth Ave","crossStreet":"at Wood Ave","lat":40.63039575399041,"lng":-74.25218653802737,"labeledLatLngs":[{"label":"display","lat":40.63039575399041,"lng":-74.25218653802737}],"postalCode":"07036","cc":"US","city":"Linden","state":"NJ","country":"United States","formattedAddress":["9-11 W Elizabeth Ave (at Wood Ave)","Linden, NJ 07036","United States"]},"categories":[{"id":"4d954b0ea243a5684a65b473","name":"Convenience Store","pluralName":"Convenience Stores","shortName":"Convenience Store","icon":{"prefix":"https:\/\/ss3.4sqi.net\/img\/categories_v2\/shops\/conveniencestore_","suffix":".png"},"primary":true}],"verified":false,"stats":{"checkinsCount":2413,"usersCount":359,"tipCount":7},"allowMenuUrlEdit":true,"beenHere":{"lastCheckinExpiredAt":0},"specials":{"count":0,"items":[]},"referralId":"v-1483291018","venueChains":[{"id":"556f431fbd6a007c77388d9e"}],"hasPerk":false}]}}