{"meta":{"code":200,"requestId":"586939851ed21945687a7bd3"},"response":{"venues":[{"id":"55566a18498ec05744cc106a","name":"The Local @ JFK","contact":{},"location":{"lat":40.64201,"lng":-73.791941,"labeledLatLngs":[{"label":"display","lat":40.64201,"lng":-73.791941}],"cc":"US","city":"Queens","state":"NY","country":"United States","formattedAddress":["Queens, NY","United States"]},"categories":[{"id":"4bf58dd8d48988d14e941735","name":"American Restaurant","pluralName":"American Restaurants","shortName":"American","icon":{"prefix":"https:\/\/ss3.4sqi.net\/img\/categories_v2\/food\/default_","suffix":".png"},"primary":true}],"verified":false,"stats":{"checkinsCount":600,"usersCount":573,"tipCount":24},"allowMenuUrlEdit":true,"beenHere":{"lastCheckinExpiredAt":0},"specials":{"count":0,"items":[]},"referralId":"v-1483291013","venueChains":[],"hasPerk":false},{"id":"52606a9f498ee1a7b1b262d3","name":"Pico","contact":{"phone":"7189453474","formattedPhone":"(718) 945-3474","twitter":"picorestaurant"},"location":{"address":"419 Beach 129th St","crossStreet":"Newport Avenue","lat":40.578411,"lng":-73.849721,"labeledLatLngs":[{"label":"display","lat":40.578411,"lng":-73.849721}],"postalCode":"11694","cc":"US","city":"Rockaway Park","state":"NY","country":"United States","formattedAddress":["419 Beach 129th St (Newport Avenue)","Rockaway Park, NY 11694","United States"]},"categories":[{"id":"4bf58dd8d48988d1c1941735","name":"Mexican Restaurant","pluralName":"Mexican Restaurants","shortName":"Mexican","icon":{"prefix":"https:\/\/ss3.4sqi.net\/img\/categories_v2\/food\/mexican_","suffix":".png"},"primary":true}],"verified":true,"stats":{"checkinsCount":524,"usersCount":260,"tipCount":15},"url":"http:\/\/picorbny.com","allowMenuUrlEdit":true,"beenHere":{"lastCheckinExpiredAt":0},"specials":{"count":0,"items":[]},"venuePage":{"id":"72850436"},"referralId":"v-1483291013","venueChains":[],"hasPerk":false},{"id":"4c88e751105237040f17c4f1","name":"Rockaway Bagels","contact":{"phone":"7184741372","formattedPhone":"(718) 474-1372"},"location":{"address":"11408 Beach Channel Dr","lat":40.58217359551419,"lng":-73.83721232414246,"labeledLatLngs":[{"label":"display","lat":40.58217359551419,"lng":-73.83721232414246}],"postalCode":"11694","cc":"US","city":"Rockaway Park","state":"NY","country":"United States","formattedAddress":["11408 Beach Channel Dr","Rockaway Park, NY 11694","United States"]},"categories":[{"id":"4bf58dd8d48988d179941735","name":"Bagel Shop","pluralName":"Bagel Shops","shortName":"Bagels","icon":{"prefix":"https:\/\/ss3.4sqi.net\/img\/categories_v2\/food\/bagels_","suffix":".png"},"primary":true}],"verified":false,"stats":{"checkinsCount":470,"usersCount":161,"tipCount":2},"allowMenuUrlEdit":true,"beenHere":{"lastCheckinExpiredAt":0},"specials":{"count":0,"items":[]},"referralId":"v-1483291013","venueChains":[],"hasPerk":false},{"id":"511a95cee4b0392b2a272df7","name":"Dunkin' Donuts","contact":{"phone":"3472304213","formattedPhone":"(347) 230-4213","twitter":"dunkindonuts","facebook":"6979393237","facebookUsername":"DunkinDonutsUS","facebookName":"Dunkin' Donuts"},"location":{"address":"6820 Rockaway Beach Blvd","lat":40.590564087725205,"lng":-73.79731315417442,"labeledLatLngs":[{"label":"display","lat":40.590564087725205,"lng":-73.79731315417442}],"postalCode":"11692","cc":"US","city":"Arverne","state":"NY","country":"United States","formattedAddress":["6820 Rockaway Beach Blvd","Arverne, NY 11692","United States"]},"categories":[{"id":"4bf58dd8d48988d148941735","name":"Donut Shop","pluralName":"Donut Shops","shortName":"Donuts","icon":{"prefix":"https:\/\/ss3.4sqi.net\/img\/categories_v2\/food\/donuts_","suffix":".png"},"primary":true}],"verified":true,"stats":{"checkinsCount":518,"usersCount":177,"tipCount":8},"url":"http:\/\/www.dunkindonuts.com","allowMenuUrlEdit":true,"beenHere":{"lastCheckinExpiredAt":0},"specials":{"count":0,"items":[]},"storeId":"350254","referralId":"v-1483291013","venueChains":[{"id":"556f676fbd6a75a99038d8f0"}],"hasPerk":false},{"id":"4c1d2142fcf8c9b6393eab0b","name":"Dunkin Donuts\/Baskin Robbins","contact":{"phone":"7183189500","formattedPhone":"(718) 318-9500","twitter":"dunkindonuts","facebook":"6979393237","facebookUsername":"DunkinDonutsUS","facebookName":"Dunkin' Donuts"},"location":{"address":"269 Beach 116th St","lat":40.5825284072256,"lng":-73.8366655037584,"labeledLatLngs":[{"label":"display","lat":40.5825284072256,"lng":-73.8366655037584}],"postalCode":"11694","cc":"US","city":"Far Rockaway","state":"NY","country":"United States","formattedAddress":["269 Beach 116th St","Far Rockaway, NY 11694","United States"]},"categories":[{"id":"4bf58dd8d48988d148941735","name":"Donut Shop","pluralName":"Donut Shops","shortName":"Donuts","icon":{"prefix":"https:\/\/ss3.4sqi.net\/img\/categories_v2\/food\/donuts_","suffix":".png"},"primary":true}],"verified":true,"stats":{"checkinsCount":1076,"usersCount":287,"tipCount":6},"url":"http:\/\/www.dunkindonuts.com","allowMenuUrlEdit":true,"beenHere":{"lastCheckinExpiredAt":0},"specials":{"count":0,"items":[]},"storeId":"337565","referralId":"v-1483291013","venueChains":[{"id":"556f676fbd6a75a99038d8f0"},{"id":"556e146fa7c82e6b725097d1"}],"hasPerk":false},{"id":"4b91e22af964a52071dd33e3","name":"Pickles & Pies Food Market & Deli","contact":{"phone":"7186346041","formattedPhone":"(718) 634-6041"},"location":{"address":"202 Beach 116th St","crossStreet":"at Rockaway Beach Blvd.","lat":40.58012506148157,"lng":-73.83728579638417,"labeledLatLngs":[{"label":"display","lat":40.58012506148157,"lng":-73.83728579638417}],"postalCode":"11694","cc":"US","city":"Rockaway Park","state":"NY","country":"United States","formattedAddress":["202 Beach 116th St (at Rockaway Beach Blvd.)","Rockaway Park, NY 11694","United States"]},"categories":[{"id":"4bf58dd8d48988d146941735","name":"Deli \/ Bodega","pluralName":"Delis \/ Bodegas","shortName":"Deli \/ Bodega","icon":{"prefix":"https:\/\/ss3.4sqi.net\/img\/categories_v2\/food\/deli_","suffix":".png"},"primary":true}],"verified":false,"stats":{"checkinsCount":1251,"usersCount":337,"tipCount":9},"hasMenu":true,"menu":{"type":"Menu","label":"Menu","anchor":"View Menu","url":"https:\/\/foursquare.com\/v\/pickles--pies-food-market--deli\/4b91e22af964a52071dd33e3\/menu","mobileUrl":"https:\/\/foursquare.com\/v\/4b91e22af964a52071dd33e3\/device_menu"},"allowMenuUrlEdit":true,"beenHere":{"lastCheckinExpiredAt":0},"specials":{"count":0,"items":[]},"referralId":"v-1483291013","venueChains":[],"hasPerk":false},{"id":"4c1fd746b306c928080c69b7","name":"McDonald's","contact":{"phone":"7184746678","formattedPhone":"(718) 474-6678"},"location":{"address":"91-18 Beach Channel Dr","lat":40.58891887873369,"lng":-73.8167404398776,"labeledLatLngs":[{"label":"display","lat":40.58891887873369,"lng":-73.8167404398776}],"postalCode":"11693","cc":"US","city":"Queens","state":"NY","country":"United States","formattedAddress":["91-18 Beach Channel Dr","Rockaway Beach, NY 11693","United States"]},"categories":[{"id":"4bf58dd8d48988d16e941735","name":"Fast Food Restaurant","pluralName":"Fast Food Restaurants","shortName":"Fast Food","icon":{"prefix":"https:\/\/ss3.4sqi.net\/img\/categories_v2\/food\/fastfood_","suffix":".png"},"primary":true}],"verified":true,"stats":{"checkinsCount":751,"usersCount":339,"tipCount":9},"url":"http:\/\/mcdonalds.com","hasMenu":true,"menu":{"type":"Menu","label":"Menu","anchor":"View Menu","url":"https:\/\/foursquare.com\/v\/mcdonalds\/4c1fd746b306c928080c69b7\/menu","mobileUrl":"https:\/\/foursquare.com\/v\/4c1fd746b306c928080c69b7\/device_menu"},"allowMenuUrlEdit":true,"beenHere":{"lastCheckinExpiredAt":0},"specials":{"count":0,"items":[]},"storeId":"1893","referralId":"v-1483291013","venueChains":[{"id":"556f7a12bd6a75a9903bddb2"}],"hasPerk":false},{"id":"4b9271cff964a52000fa33e3","name":"Starbucks","contact":{"phone":"7186568610","formattedPhone":"(718) 656-8610","twitter":"starbucks","facebook":"22092443056","facebookUsername":"Starbucks","facebookName":"Starbucks"},"location":{"address":"Terminal 1","crossStreet":"JFK International Airport","lat":40.64349939486561,"lng":-73.79068952088699,"labeledLatLngs":[{"label":"display","lat":40.64349939486561,"lng":-73.79068952088699}],"postalCode":"11430","cc":"US","city":"Jamaica","state":"NY","country":"United States","formattedAddress":["Terminal 1 (JFK International Airport)","Jamaica, NY 11430","United States"]},"categories":[{"id":"4bf58dd8d48988d1e0931735","name":"Coffee Shop","pluralName":"Coffee Shops","shortName":"Coffee Shop","icon":{"prefix":"https:\/\/ss3.4sqi.net\/img\/categories_v2\/food\/coffeeshop_","suffix":".png"},"primary":true}],"verified":true,"stats":{"checkinsCount":1741,"usersCount":1479,"tipCount":9},"url":"http:\/\/www.starbucks.com","hasMenu":true,"menu":{"type":"Menu","label":"Menu","anchor":"View Menu","url":"http:\/\/www.starbucks.com\/menu","mobileUrl":"http:\/\/www.starbucks.com\/menu","externalUrl":"http:\/\/www.starbucks.com\/menu"},"allowMenuUrlEdit":true,"beenHere":{"lastCheckinExpiredAt":0},"specials":{"count":0,"items":[]},"storeId":"75953","referralId":"v-1483291013","venueChains":[{"id":"556f676fbd6a75a99038d8ec"}],"hasPerk":false},{"id":"4bdc8c482a3a0f472a5ab3b6","name":"Panini Express","contact":{},"location":{"address":"Terminal 1","crossStreet":"JFK International Airport","lat":40.64196329226261,"lng":-73.79205465316772,"labeledLatLngs":[{"label":"display","lat":40.64196329226261,"lng":-73.79205465316772}],"postalCode":"11430","cc":"US","city":"Jamaica","state":"NY","country":"United States","formattedAddress":["Terminal 1 (JFK International Airport)","Jamaica, NY 11430","United States"]},"categories":[{"id":"4bf58dd8d48988d1c5941735","name":"Sandwich Place","pluralName":"Sandwich Places","shortName":"Sandwiches","icon":{"prefix":"https:\/\/ss3.4sqi.net\/img\/categories_v2\/food\/deli_","suffix":".png"},"primary":true}],"verified":false,"stats":{"checkinsCount":531,"usersCount":378,"tipCount":12},"hasMenu":true,"menu":{"type":"Menu","label":"Menu","anchor":"View Menu","url":"https:\/\/foursquare.com\/v\/panini-express\/4bdc8c482a3a0f472a5ab3b6\/menu","mobileUrl":"https:\/\/foursquare.com\/v\/4bdc8c482a3a0f472a5ab3b6\/device_menu"},"allowMenuUrlEdit":true,"beenHere":{"lastCheckinExpiredAt":0},"specials":{"count":0,"items":[]},"referralId":"v-1483291013","venueChains":[],"hasPerk":false},{"id":"4d31ea9cb6093704551ef1df","name":"Goody's","contact":{"phone":"7183189616","formattedPhone":"(718) 318-9616"},"location":{"address":"7018 Amstel Blvd","crossStreet":"at Beach Channel Dr","lat":40.59265341875196,"lng":-73.79997288591959,"labeledLatLngs":[{"label":"display","lat":40.59265341875196,"lng":-73.79997288591959}],"postalCode":"11692","cc":"US","city":"Arverne","state":"NY","country":"United States","formattedAddress":["7018 Amstel Blvd (at Beach Channel Dr)","Arverne, NY 11692","United States"]},"categories":[{"id":"4bf58dd8d48988d144941735","name":"Caribbean Restaurant","pluralName":"Caribbean Restaurants","shortName":"Caribbean","icon":{"prefix":"https:\/\/ss3.4sqi.net\/img\/categories_v2\/food\/caribbean_","suffix":".png"},"primary":true}],"verified":false,"stats":{"checkinsCount":413,"usersCount":193,"tipCount":9},"hasMenu":true,"menu":{"type":"Menu","label":"Menu","anchor":"View Menu","url":"https:\/\/foursquare.com\/v\/goodys\/4d31ea9cb6093704551ef1df\/menu","mobileUrl":"https:\/\/foursquare.com\/v\/4d31ea9cb6093704551ef1df\/device_menu"},"allowMenuUrlEdit":true,"beenHere":{"lastCheckinExpiredAt":0},"specials":{"count":0,"items":[]},"referralId":"v-1483291013","venueChains":[],"hasPerk":false},{"id":"55ce8cc8498e5feccf47e689","name":"Community House","contact":{"phone":"3476199417","formattedPhone":"(347) 619-9417"},"location":{"address":"101-19 Rockaway Beach","lat":40.583210001265,"lng":-73.82227187088495,"labeledLatLngs":[{"label":"display","lat":40.583210001265,"lng":-73.82227187088495}],"postalCode":"11694","cc":"US","city":"Queens","state":"NY","country":"United States","formattedAddress":["101-19 Rockaway Beach","Rockaway Beach, NY 11694","United States"]},"categories":[{"id":"4bf58dd8d48988d157941735","name":"New American Restaurant","pluralName":"New American Restaurants","shortName":"New American","icon":{"prefix":"https:\/\/ss3.4sqi.net\/img\/categories_v2\/food\/newamerican_","suffix":".png"},"primary":true}],"verified":false,"stats":{"checkinsCount":239,"usersCount":141,"tipCount":2},"url":"http:\/\/communityhouserb.com","allowMenuUrlEdit":true,"beenHere":{"lastCheckinExpiredAt":0},"specials":{"count":0,"items":[]},"referralId":"v-1483291013","venueChains":[],"hasPerk":false},{"id":"4b5b8fe3f964a520530729e3","name":"Surfside Bagels","contact":{"phone":"7186343196","formattedPhone":"(718) 634-3196","twitter":"surfsidebagels","facebook":"494159790634","facebookUsername":"surfsidebagelsny","facebookName":"Surfside Bagels"},"location":{"address":"95-11 Rockaway Beach Blvd","crossStreet":"95th Street","lat":40.585482,"lng":-73.81762809381055,"labeledLatLngs":[{"label":"display","lat":40.585482,"lng":-73.81762809381055}],"postalCode":"11693","cc":"US","city":"Queens","state":"NY","country":"United States","formattedAddress":["95-11 Rockaway Beach Blvd (95th Street)","Rockaway Beach, NY 11693","United States"]},"categories":[{"id":"4bf58dd8d48988d179941735","name":"Bagel Shop","pluralName":"Bagel Shops","shortName":"Bagels","icon":{"prefix":"https:\/\/ss3.4sqi.net\/img\/categories_v2\/food\/bagels_","suffix":".png"},"primary":true}],"verified":true,"stats":{"checkinsCount":845,"usersCount":366,"tipCount":15},"url":"http:\/\/www.surfsidebagels.com","hasMenu":true,"delivery":{"id":"28611","url":"http:\/\/www.seamless.com\/food-delivery\/restaurant.28611.r?a=1026&utm_source=Foursquare&utm_medium=affiliate&utm_campaign=SeamlessOrderDeliveryLink","provider":{"name":"seamless"}},"menu":{"type":"Menu","label":"Menu","anchor":"View Menu","url":"https:\/\/foursquare.com\/v\/surfside-bagels\/4b5b8fe3f964a520530729e3\/menu","mobileUrl":"https:\/\/foursquare.com\/v\/4b5b8fe3f964a520530729e3\/device_menu"},"allowMenuUrlEdit":true,"beenHere":{"lastCheckinExpiredAt":0},"specials":{"count":0,"items":[]},"venuePage":{"id":"47900081"},"storeId":"","referralId":"v-1483291013","venueChains":[],"hasPerk":false},{"id":"4c302c8b09a99c74d2ff0a2a","name":"Jamesons Pub","contact":{"phone":"7184749364","formattedPhone":"(718) 474-9364","twitter":"jamesonspubny"},"location":{"address":"421 Beach 129th St","crossStreet":"btwn Cronston Ave & Newport Ave","lat":40.57843,"lng":-73.849596,"labeledLatLngs":[{"label":"display","lat":40.57843,"lng":-73.849596}],"postalCode":"11694","cc":"US","city":"Rockaway Park","state":"NY","country":"United States","formattedAddress":["421 Beach 129th St (btwn Cronston Ave & Newport Ave)","Rockaway Park, NY 11694","United States"]},"categories":[{"id":"4bf58dd8d48988d11b941735","name":"Pub","pluralName":"Pubs","shortName":"Pub","icon":{"prefix":"https:\/\/ss3.4sqi.net\/img\/categories_v2\/nightlife\/pub_","suffix":".png"},"primary":true}],"verified":true,"stats":{"checkinsCount":587,"usersCount":239,"tipCount":53},"allowMenuUrlEdit":true,"beenHere":{"lastCheckinExpiredAt":0},"specials":{"count":0,"items":[]},"venuePage":{"id":"96204121"},"storeId":"","referralId":"v-1483291013","venueChains":[],"hasPerk":false},{"id":"4f71ce9de4b0a89fa4b084de","name":"Cuisine By Claudette","contact":{"phone":"7189455511","formattedPhone":"(718) 945-5511"},"location":{"address":"143 Beach 116th St","lat":40.57889399962087,"lng":-73.83698713721493,"labeledLatLngs":[{"label":"display","lat":40.57889399962087,"lng":-73.83698713721493}],"postalCode":"11694","cc":"US","city":"Rockaway Park","state":"NY","country":"United States","formattedAddress":["143 Beach 116th St","Rockaway Park, NY 11694","United States"]},"categories":[{"id":"4bf58dd8d48988d10c941735","name":"French Restaurant","pluralName":"French Restaurants","shortName":"French","icon":{"prefix":"https:\/\/ss3.4sqi.net\/img\/categories_v2\/food\/french_","suffix":".png"},"primary":true}],"verified":true,"stats":{"checkinsCount":215,"usersCount":71,"tipCount":4},"hasMenu":true,"menu":{"type":"Menu","label":"Menu","anchor":"View Menu","url":"https:\/\/foursquare.com\/v\/cuisine-by-claudette\/4f71ce9de4b0a89fa4b084de\/menu","mobileUrl":"https:\/\/foursquare.com\/v\/4f71ce9de4b0a89fa4b084de\/device_menu"},"allowMenuUrlEdit":true,"beenHere":{"lastCheckinExpiredAt":0},"specials":{"count":0,"items":[]},"venuePage":{"id":"94604626"},"referralId":"v-1483291013","venueChains":[],"hasPerk":false},{"id":"53eb4f21498e8ee1b1987fc0","name":"McDonald's","contact":{},"location":{"lat":40.588484194545714,"lng":-73.80979577686574,"labeledLatLngs":[{"label":"display","lat":40.588484194545714,"lng":-73.80979577686574}],"cc":"US","city":"Queens","state":"NY","country":"United States","formattedAddress":["Queens, NY","United States"]},"categories":[{"id":"4bf58dd8d48988d16e941735","name":"Fast Food Restaurant","pluralName":"Fast Food Restaurants","shortName":"Fast Food","icon":{"prefix":"https:\/\/ss3.4sqi.net\/img\/categories_v2\/food\/fastfood_","suffix":".png"},"primary":true}],"verified":false,"stats":{"checkinsCount":183,"usersCount":88,"tipCount":0},"allowMenuUrlEdit":true,"beenHere":{"lastCheckinExpiredAt":0},"specials":{"count":0,"items":[]},"referralId":"v-1483291013","venueChains":[{"id":"556f7a12bd6a75a9903bddb2"}],"hasPerk":false},{"id":"4c940f7b533aa09300fcbb45","name":"Eat & Go","contact":{"phone":"7187512824","formattedPhone":"(718) 751-2824","twitter":"eatgo"},"location":{"address":"Terminal 1","crossStreet":"at JFK International Airport","lat":40.64197540116899,"lng":-73.79199358405832,"labeledLatLngs":[{"label":"display","lat":40.64197540116899,"lng":-73.79199358405832}],"postalCode":"11430","cc":"US","city":"Jamaica","state":"NY","country":"United States","formattedAddress":["Terminal 1 (at JFK International Airport)","Jamaica, NY 11430","United States"]},"categories":[{"id":"4bf58dd8d48988d1ef931735","name":"Airport Food Court","pluralName":"Airport Food Courts","shortName":"Food Court","icon":{"prefix":"https:\/\/ss3.4sqi.net\/img\/categories_v2\/travel\/airport_","suffix":".png"},"primary":true}],"verified":false,"stats":{"checkinsCount":911,"usersCount":810,"tipCount":32},"allowMenuUrlEdit":true,"beenHere":{"lastCheckinExpiredAt":0},"specials":{"count":0,"items":[]},"referralId":"v-1483291013","venueChains":[],"hasPerk":false},{"id":"4b9e635af964a5203adf36e3","name":"101 Deli","contact":{"phone":"7186341121","formattedPhone":"(718) 634-1121","twitter":"101Deli"},"location":{"address":"10016 Rockaway Beach Blvd","crossStreet":"btwn Beach 101 & 100 St","lat":40.58374789599523,"lng":-73.82163429948389,"labeledLatLngs":[{"label":"display","lat":40.58374789599523,"lng":-73.82163429948389}],"postalCode":"11694","cc":"US","city":"Rockaway Park","state":"NY","country":"United States","formattedAddress":["10016 Rockaway Beach Blvd (btwn Beach 101 & 100 St)","Rockaway Park, NY 11694","United States"]},"categories":[{"id":"4bf58dd8d48988d146941735","name":"Deli \/ Bodega","pluralName":"Delis \/ Bodegas","shortName":"Deli \/ Bodega","icon":{"prefix":"https:\/\/ss3.4sqi.net\/img\/categories_v2\/food\/deli_","suffix":".png"},"primary":true}],"verified":false,"stats":{"checkinsCount":318,"usersCount":162,"tipCount":8},"url":"http:\/\/101deli.com","allowMenuUrlEdit":true,"beenHere":{"lastCheckinExpiredAt":0},"specials":{"count":0,"items":[]},"referralId":"v-1483291013","venueChains":[],"hasPerk":false},{"id":"4c707a36df6b8cfae192b84d","name":"Belle Harbor Steak & Seafood","contact":{"phone":"7183185100","formattedPhone":"(718) 318-5100"},"location":{"address":"268 Beach 116th St","lat":40.581199266921054,"lng":-73.83787736994368,"labeledLatLngs":[{"label":"display","lat":40.581199266921054,"lng":-73.83787736994368}],"postalCode":"11694","cc":"US","city":"Belle Harbor","state":"NY","country":"United States","formattedAddress":["268 Beach 116th St","Belle Harbor, NY 11694","United States"]},"categories":[{"id":"4bf58dd8d48988d1cc941735","name":"Steakhouse","pluralName":"Steakhouses","shortName":"Steakhouse","icon":{"prefix":"https:\/\/ss3.4sqi.net\/img\/categories_v2\/food\/steakhouse_","suffix":".png"},"primary":true}],"verified":false,"stats":{"checkinsCount":336,"usersCount":192,"tipCount":14},"hasMenu":true,"menu":{"type":"Menu","label":"Menu","anchor":"View Menu","url":"https:\/\/foursquare.com\/v\/belle-harbor-steak--seafood\/4c707a36df6b8cfae192b84d\/menu","mobileUrl":"https:\/\/foursquare.com\/v\/4c707a36df6b8cfae192b84d\/device_menu"},"allowMenuUrlEdit":true,"beenHere":{"lastCheckinExpiredAt":0},"specials":{"count":0,"items":[]},"referralId":"v-1483291013","venueChains":[],"hasPerk":false},{"id":"4c94eade6b35a143c8da1fdc","name":"Hammel Stop 1 Supermarket","contact":{},"location":{"lat":40.58826307610216,"lng":-73.80999108088385,"labeledLatLngs":[{"label":"display","lat":40.58826307610216,"lng":-73.80999108088385}],"postalCode":"11693","cc":"US","city":"Far Rockaway","state":"NY","country":"United States","formattedAddress":["Far Rockaway, NY 11693","United States"]},"categories":[{"id":"4bf58dd8d48988d146941735","name":"Deli \/ Bodega","pluralName":"Delis \/ Bodegas","shortName":"Deli \/ Bodega","icon":{"prefix":"https:\/\/ss3.4sqi.net\/img\/categories_v2\/food\/deli_","suffix":".png"},"primary":true}],"verified":false,"stats":{"checkinsCount":140,"usersCount":53,"tipCount":0},"allowMenuUrlEdit":true,"beenHere":{"lastCheckinExpiredAt":0},"specials":{"count":0,"items":[]},"referralId":"v-1483291013","venueChains":[],"hasPerk":false},{"id":"4bdc6e88fed22d7fe32058c9","name":"The Bungalow Bar","contact":{"phone":"7189452100","formattedPhone":"(718) 945-2100"},"location":{"address":"377 Beach 92nd St","crossStreet":"at Beach Channel Dr","lat":40.58924003268739,"lng":-73.81724591454088,"labeledLatLngs":[{"label":"display","lat":40.58924003268739,"lng":-73.81724591454088}],"postalCode":"11693","cc":"US","city":"Queens","state":"NY","country":"United States","formattedAddress":["377 Beach 92nd St (at Beach Channel Dr)","Rockaway Beach, NY 11693","United States"]},"categories":[{"id":"52e81612bcbc57f1066b7a0d","name":"Beach Bar","pluralName":"Beach Bars","shortName":"Beach Bar","icon":{"prefix":"https:\/\/ss3.4sqi.net\/img\/categories_v2\/nightlife\/default_","suffix":".png"},"primary":true}],"verified":false,"stats":{"checkinsCount":2736,"usersCount":1656,"tipCount":38},"url":"http:\/\/www.bungalowbarny.com","hasMenu":true,"menu":{"type":"Menu","label":"Menu","anchor":"View Menu","url":"https:\/\/foursquare.com\/v\/the-bungalow-bar\/4bdc6e88fed22d7fe32058c9\/menu","mobileUrl":"https:\/\/foursquare.com\/v\/4bdc6e88fed22d7fe32058c9\/device_menu"},"allowMenuUrlEdit":true,"beenHere":{"lastCheckinExpiredAt":0},"specials":{"count":0,"items":[]},"storeId":"","referralId":"v-1483291013","venueChains":[],"hasPerk":false},{"id":"51c5255c498eb080b12c61cd","name":"Sayra's Wine Bar","contact":{"phone":"3476198009","formattedPhone":"(347) 619-8009","twitter":"sayraswinebar","facebook":"129645637243728","facebookName":"Sayra's Wine Bar"},"location":{"address":"91-11 Rockaway Beach Blvd","lat":40.586406739935235,"lng":-73.81496552431959,"labeledLatLngs":[{"label":"display","lat":40.586406739935235,"lng":-73.81496552431959}],"postalCode":"11693","cc":"US","neighborhood":"Rockaway Beach, Queens, NY","city":"Queens","state":"NY","country":"United States","formattedAddress":["91-11 Rockaway Beach Blvd","Rockaway Beach, NY 11693","United States"]},"categories":[{"id":"4bf58dd8d48988d123941735","name":"Wine Bar","pluralName":"Wine Bars","shortName":"Wine Bar","icon":{"prefix":"https:\/\/ss3.4sqi.net\/img\/categories_v2\/food\/winery_","suffix":".png"},"primary":true}],"verified":false,"stats":{"checkinsCount":590,"usersCount":372,"tipCount":15},"menu":{"type":"Menu","label":"Menu","anchor":"View Menu","url":"http:\/\/www.urbanspoon.com\/r\/3\/1767617\/restaurant\/NYC\/Rockaway-Peninsula\/Sayras-Wine-Bar-Rockaway-Beach","mobileUrl":"http:\/\/www.urbanspoon.com\/r\/3\/1767617\/restaurant\/NYC\/Rockaway-Peninsula\/Sayras-Wine-Bar-Rockaway-Beach","externalUrl":"http:\/\/www.urbanspoon.com\/r\/3\/1767617\/restaurant\/NYC\/Rockaway-Peninsula\/Sayras-Wine-Bar-Rockaway-Beach"},"allowMenuUrlEdit":true,"beenHere":{"lastCheckinExpiredAt":0},"specials":{"count":0,"items":[]},"referralId":"v-1483291013","venueChains":[],"hasPerk":false},{"id":"51e0413e498e460462f65cc3","name":"Uma's","contact":{},"location":{"address":"9207 Rockaway Beach Blvd","lat":40.58628397182939,"lng":-73.8156950222809,"labeledLatLngs":[{"label":"display","lat":40.58628397182939,"lng":-73.8156950222809}],"postalCode":"11693","cc":"US","city":"Queens","state":"NY","country":"United States","formattedAddress":["9207 Rockaway Beach Blvd","Rockaway Beach, NY 11693","United States"]},"categories":[{"id":"4bf58dd8d48988d109941735","name":"Eastern European Restaurant","pluralName":"Eastern European Restaurants","shortName":"Eastern European","icon":{"prefix":"https:\/\/ss3.4sqi.net\/img\/categories_v2\/food\/default_","suffix":".png"},"primary":true}],"verified":false,"stats":{"checkinsCount":721,"usersCount":444,"tipCount":22},"allowMenuUrlEdit":true,"beenHere":{"lastCheckinExpiredAt":0},"specials":{"count":0,"items":[]},"referralId":"v-1483291013","venueChains":[],"hasPerk":false},{"id":"538226c9498e907db34a6af9","name":"Breezy Dogs Shakes and More","contact":{"phone":"7186347000","formattedPhone":"(718) 634-7000"},"location":{"address":"410 Beach 129th St","crossStreet":"Newport Avenue","lat":40.578201,"lng":-73.849142,"labeledLatLngs":[{"label":"display","lat":40.578201,"lng":-73.849142}],"postalCode":"11694","cc":"US","city":"Rockaway Park","state":"NY","country":"United States","formattedAddress":["410 Beach 129th St (Newport Avenue)","Rockaway Park, NY 11694","United States"]},"categories":[{"id":"4bf58dd8d48988d1c9941735","name":"Ice Cream Shop","pluralName":"Ice Cream Shops","shortName":"Ice Cream","icon":{"prefix":"https:\/\/ss3.4sqi.net\/img\/categories_v2\/food\/icecream_","suffix":".png"},"primary":true}],"verified":false,"stats":{"checkinsCount":116,"usersCount":59,"tipCount":49},"allowMenuUrlEdit":true,"beenHere":{"lastCheckinExpiredAt":0},"specials":{"count":0,"items":[]},"referralId":"v-1483291013","venueChains":[],"hasPerk":false},{"id":"4bc3260c4cdfc9b641e79621","name":"The Restaurant","contact":{"phone":"7186345809","formattedPhone":"(718) 634-5809"},"location":{"address":"8605 Rockaway Beach Blvd","lat":40.588052187194435,"lng":-73.8102897807752,"labeledLatLngs":[{"label":"display","lat":40.588052187194435,"lng":-73.8102897807752}],"postalCode":"11693","cc":"US","city":"Queens","state":"NY","country":"United States","formattedAddress":["8605 Rockaway Beach Blvd","Rockaway Beach, NY 11693","United States"]},"categories":[{"id":"4bf58dd8d48988d147941735","name":"Diner","pluralName":"Diners","shortName":"Diner","icon":{"prefix":"https:\/\/ss3.4sqi.net\/img\/categories_v2\/food\/diner_","suffix":".png"},"primary":true}],"verified":false,"stats":{"checkinsCount":521,"usersCount":138,"tipCount":2},"delivery":{"id":"36618","url":"http:\/\/www.seamless.com\/food-delivery\/restaurant.36618.r?a=1026&utm_source=Foursquare&utm_medium=affiliate&utm_campaign=SeamlessOrderDeliveryLink","provider":{"name":"seamless"}},"allowMenuUrlEdit":true,"beenHere":{"lastCheckinExpiredAt":0},"specials":{"count":0,"items":[]},"referralId":"v-1483291013","venueChains":[],"hasPerk":false},{"id":"4be5d4c2bcef2d7fdb6404e5","name":"Last Stop Gourmet Shop","contact":{"phone":"7189456450","formattedPhone":"(718) 945-6450"},"location":{"address":"222 Beach 116th St","lat":40.58046080968231,"lng":-73.8373604611059,"labeledLatLngs":[{"label":"display","lat":40.58046080968231,"lng":-73.8373604611059}],"postalCode":"11694","cc":"US","city":"Rockaway Park","state":"NY","country":"United States","formattedAddress":["222 Beach 116th St","Rockaway Park, NY 11694","United States"]},"categories":[{"id":"4bf58dd8d48988d147941735","name":"Diner","pluralName":"Diners","shortName":"Diner","icon":{"prefix":"https:\/\/ss3.4sqi.net\/img\/categories_v2\/food\/diner_","suffix":".png"},"primary":true}],"verified":true,"stats":{"checkinsCount":617,"usersCount":143,"tipCount":4},"hasMenu":true,"menu":{"type":"Menu","label":"Menu","anchor":"View Menu","url":"https:\/\/foursquare.com\/v\/last-stop-gourmet-shop\/4be5d4c2bcef2d7fdb6404e5\/menu","mobileUrl":"https:\/\/foursquare.com\/v\/4be5d4c2bcef2d7fdb6404e5\/device_menu"},"allowMenuUrlEdit":true,"beenHere":{"lastCheckinExpiredAt":0},"specials":{"count":0,"items":[]},"venuePage":{"id":"85862565"},"referralId":"v-1483291013","venueChains":[],"hasPerk":false},{"id":"4bf0467fc8d920a103ab9430","name":"The Wharf","contact":{"phone":"7184748807","formattedPhone":"(718) 474-8807"},"location":{"address":"416 Beach 116th St","crossStreet":"at Beach Channel Drive","lat":40.582659448719426,"lng":-73.83844022469484,"labeledLatLngs":[{"label":"display","lat":40.582659448719426,"lng":-73.83844022469484}],"postalCode":"11694","cc":"US","city":"Rockaway Park","state":"NY","country":"United States","formattedAddress":["416 Beach 116th St (at Beach Channel Drive)","Rockaway Park, NY 11694","United States"]},"categories":[{"id":"4bf58dd8d48988d1ce941735","name":"Seafood Restaurant","pluralName":"Seafood Restaurants","shortName":"Seafood","icon":{"prefix":"https:\/\/ss3.4sqi.net\/img\/categories_v2\/food\/seafood_","suffix":".png"},"primary":true}],"verified":false,"stats":{"checkinsCount":1184,"usersCount":727,"tipCount":25},"allowMenuUrlEdit":true,"beenHere":{"lastCheckinExpiredAt":0},"specials":{"count":0,"items":[]},"referralId":"v-1483291013","venueChains":[],"hasPerk":false},{"id":"550239d6498eadb9159dcda4","name":"Chicks To Go","contact":{},"location":{"address":"97-02 Rockaway Beach Blvd","lat":40.584957,"lng":-73.818899,"labeledLatLngs":[{"label":"display","lat":40.584957,"lng":-73.818899}],"postalCode":"11693","cc":"US","city":"Queens","state":"NY","country":"United States","formattedAddress":["97-02 Rockaway Beach Blvd","Queens, NY 11693","United States"]},"categories":[{"id":"4eb1bfa43b7b52c0e1adc2e8","name":"Peruvian Restaurant","pluralName":"Peruvian Restaurants","shortName":"Peruvian","icon":{"prefix":"https:\/\/ss3.4sqi.net\/img\/categories_v2\/food\/peruvian_","suffix":".png"},"primary":true}],"verified":false,"stats":{"checkinsCount":101,"usersCount":75,"tipCount":4},"allowMenuUrlEdit":true,"beenHere":{"lastCheckinExpiredAt":0},"specials":{"count":0,"items":[]},"referralId":"v-1483291013","venueChains":[],"hasPerk":false},{"id":"4c258e2ac9bbef3bc87cafac","name":"Belle Harbor Yacht Club","contact":{"phone":"7189454445","formattedPhone":"(718) 945-4445"},"location":{"address":"533 B 126th St","crossStreet":"at Beach Channel Dr","lat":40.58159506589152,"lng":-73.85022640228271,"labeledLatLngs":[{"label":"display","lat":40.58159506589152,"lng":-73.85022640228271}],"postalCode":"11694","cc":"US","city":"Belle Harbor","state":"NY","country":"United States","formattedAddress":["533 B 126th St (at Beach Channel Dr)","Belle Harbor, NY 11694","United States"]},"categories":[{"id":"4bf58dd8d48988d171941735","name":"Event Space","pluralName":"Event Spaces","shortName":"Event Space","icon":{"prefix":"https:\/\/ss3.4sqi.net\/img\/categories_v2\/building\/eventspace_","suffix":".png"},"primary":true}],"verified":false,"stats":{"checkinsCount":244,"usersCount":145,"tipCount":0},"venueRatingBlacklisted":true,"allowMenuUrlEdit":true,"beenHere":{"lastCheckinExpiredAt":0},"specials":{"count":0,"items":[]},"referralId":"v-1483291013","venueChains":[],"hasPerk":false}]}}