{"meta":{"code":200,"requestId":"58693981351e3d7033114a22"},"response":{"venues":[{"id":"4bc24d5eabf49521655ac293","name":"ShopRite","contact":{"phone":"9085589126","formattedPhone":"(908) 558-9126"},"location":{"address":"865 W Grand St","crossStreet":"at Standish","lat":40.66358772752173,"lng":-74.23986466923367,"labeledLatLngs":[{"label":"display","lat":40.66358772752173,"lng":-74.23986466923367}],"postalCode":"07202","cc":"US","city":"Elizabeth","state":"NJ","country":"United States","formattedAddress":["865 W Grand St (at Standish)","Elizabeth, NJ 07202","United States"]},"categories":[{"id":"52f2ab2ebcbc57f1066b8b46","name":"Supermarket","pluralName":"Supermarkets","shortName":"Supermarket","icon":{"prefix":"https:\/\/ss3.4sqi.net\/img\/categories_v2\/shops\/food_grocery_","suffix":".png"},"primary":true}],"verified":true,"stats":{"checkinsCount":3214,"usersCount":622,"tipCount":11},"allowMenuUrlEdit":true,"beenHere":{"lastCheckinExpiredAt":0},"specials":{"count":0,"items":[]},"referralId":"v-1483291009","venueChains":[{"id":"556a4d09a7c8957d73d6afa5"}],"hasPerk":false},{"id":"4f6a50ef1081b56a9458a51f","name":"Dinosaur Bar-B-Que","contact":{"phone":"8622146100","formattedPhone":"(862) 214-6100","twitter":"dinosaur_bbq","facebook":"22030722560","facebookUsername":"DinosaurBBQ","facebookName":"Dinosaur BBQ"},"location":{"address":"224-226 Market St","crossStreet":"at Mulberry St","lat":40.73475879519373,"lng":-74.17015492916106,"labeledLatLngs":[{"label":"display","lat":40.73475879519373,"lng":-74.17015492916106}],"postalCode":"07102","cc":"US","city":"Newark","state":"NJ","country":"United States","formattedAddress":["224-226 Market St (at Mulberry St)","Newark, NJ 07102","United States"]},"categories":[{"id":"4bf58dd8d48988d1df931735","name":"BBQ Joint","pluralName":"BBQ Joints","shortName":"BBQ","icon":{"prefix":"https:\/\/ss3.4sqi.net\/img\/categories_v2\/food\/bbqalt_","suffix":".png"},"primary":true}],"verified":false,"stats":{"checkinsCount":8644,"usersCount":5270,"tipCount":113},"url":"http:\/\/www.dinosaurbarbque.com","hasMenu":true,"delivery":{"id":"36012","url":"http:\/\/www.seamless.com\/food-delivery\/restaurant.36012.r?a=1026&utm_source=Foursquare&utm_medium=affiliate&utm_campaign=SeamlessOrderDeliveryLink","provider":{"name":"seamless"}},"menu":{"type":"Menu","label":"Menu","anchor":"View Menu","url":"https:\/\/foursquare.com\/v\/dinosaur-barbque\/4f6a50ef1081b56a9458a51f\/menu","mobileUrl":"https:\/\/foursquare.com\/v\/4f6a50ef1081b56a9458a51f\/device_menu","externalUrl":"https:\/\/www.dinosaurbarbque.com\/media\/documents\/2014\/6\/NewarkRestMenu_2012May.pdf"},"allowMenuUrlEdit":true,"beenHere":{"lastCheckinExpiredAt":0},"specials":{"count":0,"items":[]},"referralId":"v-1483291009","venueChains":[],"hasPerk":false},{"id":"507ca04ae4b070cbfc76df8d","name":"Applebee's","contact":{"phone":"9082895974","formattedPhone":"(908) 289-5974","twitter":"applebees"},"location":{"address":"651 Kapowski Rd.","crossStreet":"Lower Level, inside Entrance E by Marshalls","lat":40.65941497,"lng":-74.16960835,"labeledLatLngs":[{"label":"display","lat":40.65941497,"lng":-74.16960835}],"postalCode":"07201","cc":"US","city":"Elizabeth","state":"NJ","country":"United States","formattedAddress":["651 Kapowski Rd. (Lower Level, inside Entrance E by Marshalls)","Elizabeth, NJ 07201","United States"]},"categories":[{"id":"4bf58dd8d48988d14e941735","name":"American Restaurant","pluralName":"American Restaurants","shortName":"American","icon":{"prefix":"https:\/\/ss3.4sqi.net\/img\/categories_v2\/food\/default_","suffix":".png"},"primary":true}],"verified":true,"stats":{"checkinsCount":1864,"usersCount":1558,"tipCount":34},"url":"http:\/\/restaurants.applebees.com\/nj\/elizabeth\/651-kapowski-rd.html","allowMenuUrlEdit":true,"beenHere":{"lastCheckinExpiredAt":0},"specials":{"count":0,"items":[]},"referralId":"v-1483291009","venueChains":[{"id":"556e146fa7c82e6b725097e1"}],"hasPerk":false},{"id":"4bdc24922a3a0f47a39db1b6","name":"IHOP","contact":{"phone":"9083537600","formattedPhone":"(908) 353-7600","twitter":"IHOP","facebook":"10036618151","facebookUsername":"IHOP","facebookName":"IHOP"},"location":{"address":"650-672 Kapowski Road","lat":40.66241,"lng":-74.17486,"labeledLatLngs":[{"label":"display","lat":40.66241,"lng":-74.17486}],"postalCode":"07201","cc":"US","city":"Elizabeth","state":"NJ","country":"United States","formattedAddress":["650-672 Kapowski Road","Elizabeth, NJ 07201","United States"]},"categories":[{"id":"4bf58dd8d48988d143941735","name":"Breakfast Spot","pluralName":"Breakfast Spots","shortName":"Breakfast","icon":{"prefix":"https:\/\/ss3.4sqi.net\/img\/categories_v2\/food\/breakfast_","suffix":".png"},"primary":true}],"verified":true,"stats":{"checkinsCount":3173,"usersCount":2090,"tipCount":22},"url":"http:\/\/restaurants.ihop.com\/nj\/elizabeth\/2082\/","hasMenu":true,"menu":{"type":"Menu","label":"Menu","anchor":"View Menu","url":"http:\/\/www.ihop.com\/menus\/main-menu","mobileUrl":"http:\/\/www.ihop.com\/menus\/main-menu","externalUrl":"http:\/\/www.ihop.com\/menus\/main-menu"},"allowMenuUrlEdit":true,"beenHere":{"lastCheckinExpiredAt":0},"specials":{"count":0,"items":[]},"storeId":"2082","referralId":"v-1483291009","venueChains":[{"id":"556e0f6fa7c82e6b724f8c84"}],"hasPerk":false},{"id":"563ba988cd10e8c24fa675a9","name":"Redd's Biergarten","contact":{"phone":"9738776600","formattedPhone":"(973) 877-6600","twitter":"reddsbiergarten"},"location":{"address":"218 Market St","crossStreet":"Edison Place","lat":40.73441823718303,"lng":-74.1706921437769,"labeledLatLngs":[{"label":"display","lat":40.73441823718303,"lng":-74.1706921437769}],"postalCode":"07102","cc":"US","city":"Newark","state":"NJ","country":"United States","formattedAddress":["218 Market St (Edison Place)","Newark, NJ 07102","United States"]},"categories":[{"id":"4bf58dd8d48988d117941735","name":"Beer Garden","pluralName":"Beer Gardens","shortName":"Beer Garden","icon":{"prefix":"https:\/\/ss3.4sqi.net\/img\/categories_v2\/nightlife\/beergarden_","suffix":".png"},"primary":true}],"verified":false,"stats":{"checkinsCount":311,"usersCount":208,"tipCount":2},"url":"http:\/\/www.reddsbiergarten.com","allowMenuUrlEdit":true,"beenHere":{"lastCheckinExpiredAt":0},"specials":{"count":0,"items":[]},"referralId":"v-1483291009","venueChains":[],"hasPerk":false},{"id":"4aff5032f964a5203f3722e3","name":"Fornos of Spain","contact":{"phone":"9735894767","formattedPhone":"(973) 589-4767","twitter":"fornosofspainnj"},"location":{"address":"47 Ferry St","lat":40.73235097031279,"lng":-74.16332452200587,"labeledLatLngs":[{"label":"display","lat":40.73235097031279,"lng":-74.16332452200587}],"postalCode":"07105","cc":"US","city":"Newark","state":"NJ","country":"United States","formattedAddress":["47 Ferry St","Newark, NJ 07105","United States"]},"categories":[{"id":"4bf58dd8d48988d150941735","name":"Spanish Restaurant","pluralName":"Spanish Restaurants","shortName":"Spanish","icon":{"prefix":"https:\/\/ss3.4sqi.net\/img\/categories_v2\/food\/spanish_","suffix":".png"},"primary":true}],"verified":true,"stats":{"checkinsCount":2972,"usersCount":2053,"tipCount":80},"url":"http:\/\/www.fornosrestaurant.com","hasMenu":true,"menu":{"type":"Menu","label":"Menu","anchor":"View Menu","url":"https:\/\/foursquare.com\/v\/fornos-of-spain\/4aff5032f964a5203f3722e3\/menu","mobileUrl":"https:\/\/foursquare.com\/v\/4aff5032f964a5203f3722e3\/device_menu"},"allowMenuUrlEdit":true,"beenHere":{"lastCheckinExpiredAt":0},"specials":{"count":0,"items":[]},"venuePage":{"id":"93095886"},"referralId":"v-1483291009","venueChains":[],"hasPerk":false},{"id":"4b6cd6dff964a5202f582ce3","name":"IHOP","contact":{"phone":"9733712222","formattedPhone":"(973) 371-2222","twitter":"IHOP","facebook":"10036618151","facebookUsername":"IHOP","facebookName":"IHOP"},"location":{"address":"1212 Springfield Avenue","crossStreet":"at Elmwood Ave","lat":40.72511242527366,"lng":-74.23907948020425,"labeledLatLngs":[{"label":"display","lat":40.72511242527366,"lng":-74.23907948020425}],"postalCode":"07111","cc":"US","city":"Irvington","state":"NJ","country":"United States","formattedAddress":["1212 Springfield Avenue (at Elmwood Ave)","Irvington, NJ 07111","United States"]},"categories":[{"id":"4bf58dd8d48988d143941735","name":"Breakfast Spot","pluralName":"Breakfast Spots","shortName":"Breakfast","icon":{"prefix":"https:\/\/ss3.4sqi.net\/img\/categories_v2\/food\/breakfast_","suffix":".png"},"primary":true}],"verified":true,"stats":{"checkinsCount":2048,"usersCount":678,"tipCount":18},"url":"http:\/\/restaurants.ihop.com\/nj\/irvington\/2055\/","hasMenu":true,"menu":{"type":"Menu","label":"Menu","anchor":"View Menu","url":"http:\/\/www.ihop.com\/menus\/main-menu","mobileUrl":"http:\/\/www.ihop.com\/menus\/main-menu","externalUrl":"http:\/\/www.ihop.com\/menus\/main-menu"},"allowMenuUrlEdit":true,"beenHere":{"lastCheckinExpiredAt":0},"specials":{"count":0,"items":[]},"storeId":"2055","referralId":"v-1483291009","venueChains":[{"id":"556e0f6fa7c82e6b724f8c84"}],"hasPerk":false},{"id":"4b881441f964a52029de31e3","name":"Ruby Tuesday","contact":{"phone":"9082898307","formattedPhone":"(908) 289-8307","twitter":"rubytuesday","facebook":"37365689813","facebookUsername":"rubytuesday","facebookName":"Ruby Tuesday"},"location":{"address":"120 Glimcher Realty Way","crossStreet":"Kapkowski Rd","lat":40.66218242710696,"lng":-74.17539596557617,"labeledLatLngs":[{"label":"display","lat":40.66218242710696,"lng":-74.17539596557617}],"postalCode":"07201","cc":"US","city":"Elizabeth","state":"NJ","country":"United States","formattedAddress":["120 Glimcher Realty Way (Kapkowski Rd)","Elizabeth, NJ 07201","United States"]},"categories":[{"id":"4bf58dd8d48988d14e941735","name":"American Restaurant","pluralName":"American Restaurants","shortName":"American","icon":{"prefix":"https:\/\/ss3.4sqi.net\/img\/categories_v2\/food\/default_","suffix":".png"},"primary":true}],"verified":true,"stats":{"checkinsCount":3315,"usersCount":2293,"tipCount":42},"url":"http:\/\/www.facebook.com\/rubytuesday","hasMenu":true,"menu":{"type":"Menu","label":"Menu","anchor":"View Menu","url":"https:\/\/foursquare.com\/v\/ruby-tuesday\/4b881441f964a52029de31e3\/menu","mobileUrl":"https:\/\/foursquare.com\/v\/4b881441f964a52029de31e3\/device_menu"},"allowMenuUrlEdit":true,"beenHere":{"lastCheckinExpiredAt":0},"specials":{"count":0,"items":[]},"storeId":"4142","referralId":"v-1483291009","venueChains":[{"id":"556d0ef4aceaff43eb087d93"}],"hasPerk":false},{"id":"4c07b3a98a81c9b629972790","name":"Dunkin Donuts","contact":{"phone":"9734240140","formattedPhone":"(973) 424-0140","twitter":"dunkindonuts","facebook":"6979393237","facebookUsername":"DunkinDonutsUS","facebookName":"Dunkin' Donuts"},"location":{"address":"226 Elizabeth Ave #232","lat":40.71508443177185,"lng":-74.19183587968519,"labeledLatLngs":[{"label":"display","lat":40.71508443177185,"lng":-74.19183587968519}],"postalCode":"07108","cc":"US","city":"Newark","state":"NJ","country":"United States","formattedAddress":["226 Elizabeth Ave #232","Newark, NJ 07108","United States"]},"categories":[{"id":"4bf58dd8d48988d148941735","name":"Donut Shop","pluralName":"Donut Shops","shortName":"Donuts","icon":{"prefix":"https:\/\/ss3.4sqi.net\/img\/categories_v2\/food\/donuts_","suffix":".png"},"primary":true}],"verified":true,"stats":{"checkinsCount":725,"usersCount":294,"tipCount":5},"url":"http:\/\/www.dunkindonuts.com","allowMenuUrlEdit":true,"beenHere":{"lastCheckinExpiredAt":0},"specials":{"count":0,"items":[]},"storeId":"342256","referralId":"v-1483291009","venueChains":[{"id":"556f676fbd6a75a99038d8f0"}],"hasPerk":false},{"id":"4ba3132df964a520b82a38e3","name":"McDonald's","contact":{"phone":"9086864171","formattedPhone":"(908) 686-4171"},"location":{"address":"Route 22 & Long Ave.","lat":40.698964562248065,"lng":-74.23629976939453,"labeledLatLngs":[{"label":"display","lat":40.698964562248065,"lng":-74.23629976939453}],"postalCode":"07205","cc":"US","city":"Hillside","state":"NJ","country":"United States","formattedAddress":["Route 22 & Long Ave.","Hillside, NJ 07205","United States"]},"categories":[{"id":"4bf58dd8d48988d16e941735","name":"Fast Food Restaurant","pluralName":"Fast Food Restaurants","shortName":"Fast Food","icon":{"prefix":"https:\/\/ss3.4sqi.net\/img\/categories_v2\/food\/fastfood_","suffix":".png"},"primary":true}],"verified":true,"stats":{"checkinsCount":1360,"usersCount":426,"tipCount":7},"url":"http:\/\/mcdonalds.com","hasMenu":true,"menu":{"type":"Menu","label":"Menu","anchor":"View Menu","url":"https:\/\/foursquare.com\/v\/mcdonalds\/4ba3132df964a520b82a38e3\/menu","mobileUrl":"https:\/\/foursquare.com\/v\/4ba3132df964a520b82a38e3\/device_menu"},"allowMenuUrlEdit":true,"beenHere":{"lastCheckinExpiredAt":0},"specials":{"count":0,"items":[]},"storeId":"4426","referralId":"v-1483291009","venueChains":[{"id":"556f7a12bd6a75a9903bddb2"}],"hasPerk":false},{"id":"4b3fc8c2f964a520acae25e3","name":"Taco Bell","contact":{"phone":"9088101270","formattedPhone":"(908) 810-1270","twitter":"tacobell"},"location":{"address":"425 US Highway 22","crossStreet":"at Bloy St.","lat":40.699466745344125,"lng":-74.23833668231964,"labeledLatLngs":[{"label":"display","lat":40.699466745344125,"lng":-74.23833668231964}],"postalCode":"07205","cc":"US","city":"Hillside","state":"NJ","country":"United States","formattedAddress":["425 US Highway 22 (at Bloy St.)","Hillside, NJ 07205","United States"]},"categories":[{"id":"4bf58dd8d48988d16e941735","name":"Fast Food Restaurant","pluralName":"Fast Food Restaurants","shortName":"Fast Food","icon":{"prefix":"https:\/\/ss3.4sqi.net\/img\/categories_v2\/food\/fastfood_","suffix":".png"},"primary":true}],"verified":true,"stats":{"checkinsCount":1356,"usersCount":617,"tipCount":10},"url":"http:\/\/www.tacobell.com","hasMenu":true,"menu":{"type":"Menu","label":"Menu","anchor":"View Menu","url":"https:\/\/foursquare.com\/v\/taco-bell\/4b3fc8c2f964a520acae25e3\/menu","mobileUrl":"https:\/\/foursquare.com\/v\/4b3fc8c2f964a520acae25e3\/device_menu"},"allowMenuUrlEdit":true,"beenHere":{"lastCheckinExpiredAt":0},"specials":{"count":0,"items":[]},"storeId":"283888","referralId":"v-1483291009","venueChains":[{"id":"556f46f6bd6a007c77390fac"}],"hasPerk":false},{"id":"4c79355c93ef236a03a5ae0f","name":"Teixeiras Bakery","contact":{"phone":"9733440103","formattedPhone":"(973) 344-0103"},"location":{"address":"184 Ferry St","crossStreet":"Ferry Street & Van Buren","lat":40.728575906675815,"lng":-74.156813621521,"labeledLatLngs":[{"label":"display","lat":40.728575906675815,"lng":-74.156813621521}],"postalCode":"07105","cc":"US","city":"Newark","state":"NJ","country":"United States","formattedAddress":["184 Ferry St (Ferry Street & Van Buren)","Newark, NJ 07105","United States"]},"categories":[{"id":"4bf58dd8d48988d16a941735","name":"Bakery","pluralName":"Bakeries","shortName":"Bakery","icon":{"prefix":"https:\/\/ss3.4sqi.net\/img\/categories_v2\/food\/bakery_","suffix":".png"},"primary":true}],"verified":false,"stats":{"checkinsCount":941,"usersCount":399,"tipCount":19},"allowMenuUrlEdit":true,"beenHere":{"lastCheckinExpiredAt":0},"specials":{"count":0,"items":[]},"referralId":"v-1483291009","venueChains":[],"hasPerk":false},{"id":"4bc9fce70687ef3b63f4dacc","name":"Dunkin' Donuts","contact":{"phone":"9739233856","formattedPhone":"(973) 923-3856","twitter":"dunkindonuts","facebook":"6979393237","facebookUsername":"DunkinDonutsUS","facebookName":"Dunkin' Donuts"},"location":{"address":"257 Lyons Ave #259","lat":40.71135316,"lng":-74.21565281666666,"labeledLatLngs":[{"label":"display","lat":40.71135316,"lng":-74.21565281666666}],"postalCode":"07112","cc":"US","city":"Newark","state":"NJ","country":"United States","formattedAddress":["257 Lyons Ave #259","Newark, NJ 07112","United States"]},"categories":[{"id":"4bf58dd8d48988d148941735","name":"Donut Shop","pluralName":"Donut Shops","shortName":"Donuts","icon":{"prefix":"https:\/\/ss3.4sqi.net\/img\/categories_v2\/food\/donuts_","suffix":".png"},"primary":true}],"verified":true,"stats":{"checkinsCount":628,"usersCount":195,"tipCount":5},"url":"http:\/\/www.dunkindonuts.com","allowMenuUrlEdit":true,"beenHere":{"lastCheckinExpiredAt":0},"specials":{"count":0,"items":[]},"storeId":"343583","referralId":"v-1483291009","venueChains":[{"id":"556f676fbd6a75a99038d8f0"}],"hasPerk":false},{"id":"4b58371cf964a520484e28e3","name":"Starbucks","contact":{"phone":"8002352883","formattedPhone":"(800) 235-2883","twitter":"starbucks","facebook":"22092443056","facebookUsername":"Starbucks","facebookName":"Starbucks"},"location":{"address":"Concourse C2, Terminal C","crossStreet":"at Newark Liberty International Airport \/ EWR","lat":40.69580229372344,"lng":-74.17732715606688,"labeledLatLngs":[{"label":"display","lat":40.69580229372344,"lng":-74.17732715606688}],"postalCode":"07114","cc":"US","city":"Newark","state":"NJ","country":"United States","formattedAddress":["Concourse C2, Terminal C (at Newark Liberty International Airport \/ EWR)","Newark, NJ 07114","United States"]},"categories":[{"id":"4bf58dd8d48988d1e0931735","name":"Coffee Shop","pluralName":"Coffee Shops","shortName":"Coffee Shop","icon":{"prefix":"https:\/\/ss3.4sqi.net\/img\/categories_v2\/food\/coffeeshop_","suffix":".png"},"primary":true}],"verified":true,"stats":{"checkinsCount":5961,"usersCount":3747,"tipCount":33},"url":"http:\/\/www.starbucks.com","hasMenu":true,"menu":{"type":"Menu","label":"Menu","anchor":"View Menu","url":"http:\/\/www.starbucks.com\/menu","mobileUrl":"http:\/\/www.starbucks.com\/menu","externalUrl":"http:\/\/www.starbucks.com\/menu"},"allowMenuUrlEdit":true,"beenHere":{"lastCheckinExpiredAt":0},"specials":{"count":0,"items":[]},"storeId":"75593","referralId":"v-1483291009","venueChains":[{"id":"556f676fbd6a75a99038d8ec"}],"hasPerk":false},{"id":"4c82c3ee51ada1cd6fff1f10","name":"McDonald's","contact":{"phone":"9733739194","formattedPhone":"(973) 373-9194"},"location":{"address":"783 Springfield Ave","lat":40.72870954862175,"lng":-74.21791823069509,"labeledLatLngs":[{"label":"display","lat":40.72870954862175,"lng":-74.21791823069509}],"postalCode":"07111","cc":"US","city":"Irvington","state":"NJ","country":"United States","formattedAddress":["783 Springfield Ave","Irvington, NJ 07111","United States"]},"categories":[{"id":"4bf58dd8d48988d16e941735","name":"Fast Food Restaurant","pluralName":"Fast Food Restaurants","shortName":"Fast Food","icon":{"prefix":"https:\/\/ss3.4sqi.net\/img\/categories_v2\/food\/fastfood_","suffix":".png"},"primary":true}],"verified":true,"stats":{"checkinsCount":715,"usersCount":238,"tipCount":7},"url":"http:\/\/mcdonalds.com","hasMenu":true,"menu":{"type":"Menu","label":"Menu","anchor":"View Menu","url":"https:\/\/foursquare.com\/v\/mcdonalds\/4c82c3ee51ada1cd6fff1f10\/menu","mobileUrl":"https:\/\/foursquare.com\/v\/4c82c3ee51ada1cd6fff1f10\/device_menu"},"allowMenuUrlEdit":true,"beenHere":{"lastCheckinExpiredAt":0},"specials":{"count":0,"items":[]},"storeId":"7991","referralId":"v-1483291009","venueChains":[{"id":"556f7a12bd6a75a9903bddb2"}],"hasPerk":false},{"id":"4c87c0880dcb8cfac68b3d68","name":"Dunkin Donuts","contact":{"phone":"9083550204","formattedPhone":"(908) 355-0204","twitter":"dunkindonuts","facebook":"6979393237","facebookUsername":"DunkinDonutsUS","facebookName":"Dunkin' Donuts"},"location":{"address":"211 S Broad St","crossStreet":"at Pearl St","lat":40.65921709589073,"lng":-74.21572286952768,"labeledLatLngs":[{"label":"display","lat":40.65921709589073,"lng":-74.21572286952768}],"postalCode":"07202","cc":"US","city":"Elizabeth","state":"NJ","country":"United States","formattedAddress":["211 S Broad St (at Pearl St)","Elizabeth, NJ 07202","United States"]},"categories":[{"id":"4bf58dd8d48988d148941735","name":"Donut Shop","pluralName":"Donut Shops","shortName":"Donuts","icon":{"prefix":"https:\/\/ss3.4sqi.net\/img\/categories_v2\/food\/donuts_","suffix":".png"},"primary":true}],"verified":true,"stats":{"checkinsCount":1500,"usersCount":215,"tipCount":3},"url":"http:\/\/www.dunkindonuts.com","allowMenuUrlEdit":true,"beenHere":{"lastCheckinExpiredAt":0},"specials":{"count":0,"items":[]},"storeId":"346337","referralId":"v-1483291009","venueChains":[{"id":"556f676fbd6a75a99038d8f0"}],"hasPerk":false},{"id":"4d07e2e9f379a093ff60e83c","name":"SONIC","contact":{"phone":"9089650060","formattedPhone":"(908) 965-0060","twitter":"sonicdrivein"},"location":{"address":"573 Spring St","lat":40.672357872835,"lng":-74.20017116804955,"labeledLatLngs":[{"label":"display","lat":40.672357872835,"lng":-74.20017116804955}],"postalCode":"07201","cc":"US","city":"Elizabeth","state":"NJ","country":"United States","formattedAddress":["573 Spring St","Elizabeth, NJ 07201","United States"]},"categories":[{"id":"4bf58dd8d48988d16e941735","name":"Fast Food Restaurant","pluralName":"Fast Food Restaurants","shortName":"Fast Food","icon":{"prefix":"https:\/\/ss3.4sqi.net\/img\/categories_v2\/food\/fastfood_","suffix":".png"},"primary":true}],"verified":true,"stats":{"checkinsCount":4079,"usersCount":1813,"tipCount":20},"url":"http:\/\/www.sonicdrivein.com","hasMenu":true,"menu":{"type":"Menu","label":"Menu","anchor":"View Menu","url":"https:\/\/foursquare.com\/v\/sonic\/4d07e2e9f379a093ff60e83c\/menu","mobileUrl":"https:\/\/foursquare.com\/v\/4d07e2e9f379a093ff60e83c\/device_menu"},"allowMenuUrlEdit":true,"beenHere":{"lastCheckinExpiredAt":0},"specials":{"count":0,"items":[]},"storeId":"6273","referralId":"v-1483291009","venueChains":[{"id":"556e2b60a7c82e6b7253b20b"}],"hasPerk":false},{"id":"4c34ecf3213c2d7f1a52395d","name":"Dunkin Donuts","contact":{"phone":"9083538600","formattedPhone":"(908) 353-8600","twitter":"dunkindonuts","facebook":"6979393237","facebookUsername":"DunkinDonutsUS","facebookName":"Dunkin' Donuts"},"location":{"address":"370 Morris Ave","lat":40.6707435954452,"lng":-74.22002792358398,"labeledLatLngs":[{"label":"display","lat":40.6707435954452,"lng":-74.22002792358398}],"postalCode":"07208","cc":"US","city":"Elizabeth","state":"NJ","country":"United States","formattedAddress":["370 Morris Ave","Elizabeth, NJ 07208","United States"]},"categories":[{"id":"4bf58dd8d48988d148941735","name":"Donut Shop","pluralName":"Donut Shops","shortName":"Donuts","icon":{"prefix":"https:\/\/ss3.4sqi.net\/img\/categories_v2\/food\/donuts_","suffix":".png"},"primary":true}],"verified":true,"stats":{"checkinsCount":433,"usersCount":184,"tipCount":3},"url":"http:\/\/www.dunkindonuts.com","allowMenuUrlEdit":true,"beenHere":{"lastCheckinExpiredAt":0},"specials":{"count":0,"items":[]},"storeId":"300995","referralId":"v-1483291009","venueChains":[{"id":"556f676fbd6a75a99038d8f0"}],"hasPerk":false},{"id":"4d86a0f1d5fab60c4811109c","name":"Skyline Diner","contact":{"phone":"9083511773","formattedPhone":"(908) 351-1773"},"location":{"address":"789 Dowd Ave","lat":40.67449326377183,"lng":-74.19072371512573,"labeledLatLngs":[{"label":"display","lat":40.67449326377183,"lng":-74.19072371512573}],"postalCode":"07201","cc":"US","city":"Elizabeth","state":"NJ","country":"United States","formattedAddress":["789 Dowd Ave","Elizabeth, NJ 07201","United States"]},"categories":[{"id":"4d4b7105d754a06374d81259","name":"Food","pluralName":"Food","shortName":"Food","icon":{"prefix":"https:\/\/ss3.4sqi.net\/img\/categories_v2\/food\/default_","suffix":".png"},"primary":true}],"verified":false,"stats":{"checkinsCount":468,"usersCount":145,"tipCount":4},"allowMenuUrlEdit":true,"beenHere":{"lastCheckinExpiredAt":0},"specials":{"count":0,"items":[]},"referralId":"v-1483291009","venueChains":[],"hasPerk":false},{"id":"4b99212af964a5205b6335e3","name":"McWhorter Barbeque","contact":{"phone":"9733442633","formattedPhone":"(973) 344-2633"},"location":{"address":"104 McWhorter St","crossStreet":"at Green St","lat":40.729496669085655,"lng":-74.16672170162201,"labeledLatLngs":[{"label":"display","lat":40.729496669085655,"lng":-74.16672170162201}],"postalCode":"07105","cc":"US","city":"Newark","state":"NJ","country":"United States","formattedAddress":["104 McWhorter St (at Green St)","Newark, NJ 07105","United States"]},"categories":[{"id":"4bf58dd8d48988d1df931735","name":"BBQ Joint","pluralName":"BBQ Joints","shortName":"BBQ","icon":{"prefix":"https:\/\/ss3.4sqi.net\/img\/categories_v2\/food\/bbqalt_","suffix":".png"},"primary":true}],"verified":false,"stats":{"checkinsCount":1860,"usersCount":526,"tipCount":22},"url":"http:\/\/www.mcwhorterbbq.com\/","hasMenu":true,"menu":{"type":"Menu","label":"Menu","anchor":"View Menu","url":"https:\/\/foursquare.com\/v\/mcwhorter-barbeque\/4b99212af964a5205b6335e3\/menu","mobileUrl":"https:\/\/foursquare.com\/v\/4b99212af964a5205b6335e3\/device_menu"},"allowMenuUrlEdit":true,"beenHere":{"lastCheckinExpiredAt":0},"specials":{"count":0,"items":[]},"storeId":"","referralId":"v-1483291009","venueChains":[],"hasPerk":false},{"id":"4b77375ef964a520b1882ee3","name":"Tropicana Diner","contact":{"phone":"9083517775","formattedPhone":"(908) 351-7775"},"location":{"address":"537 Morris Ave","crossStreet":"at Ursino Pl","lat":40.67354605076454,"lng":-74.22363865711746,"labeledLatLngs":[{"label":"display","lat":40.67354605076454,"lng":-74.22363865711746}],"postalCode":"07208","cc":"US","city":"Elizabeth","state":"NJ","country":"United States","formattedAddress":["537 Morris Ave (at Ursino Pl)","Elizabeth, NJ 07208","United States"]},"categories":[{"id":"4bf58dd8d48988d147941735","name":"Diner","pluralName":"Diners","shortName":"Diner","icon":{"prefix":"https:\/\/ss3.4sqi.net\/img\/categories_v2\/food\/diner_","suffix":".png"},"primary":true}],"verified":false,"stats":{"checkinsCount":4506,"usersCount":1550,"tipCount":55},"url":"http:\/\/www.tropicanadiner.com\/","hasMenu":true,"menu":{"type":"Menu","label":"Menu","anchor":"View Menu","url":"https:\/\/foursquare.com\/v\/tropicana-diner\/4b77375ef964a520b1882ee3\/menu","mobileUrl":"https:\/\/foursquare.com\/v\/4b77375ef964a520b1882ee3\/device_menu"},"allowMenuUrlEdit":true,"beenHere":{"lastCheckinExpiredAt":0},"specials":{"count":0,"items":[]},"referralId":"v-1483291009","venueChains":[],"hasPerk":false},{"id":"4c8a0f8f9ef0224be63c577b","name":"Dunkin Donuts","contact":{"phone":"9735659020","formattedPhone":"(973) 565-9020","twitter":"dunkindonuts","facebook":"6979393237","facebookUsername":"DunkinDonutsUS","facebookName":"Dunkin' Donuts"},"location":{"address":"311 Springfield Ave #313","crossStreet":"at Hunterdon St.","lat":40.733466223902916,"lng":-74.19227157119431,"labeledLatLngs":[{"label":"display","lat":40.733466223902916,"lng":-74.19227157119431}],"postalCode":"7103","cc":"US","city":"Newark","state":"NJ","country":"United States","formattedAddress":["311 Springfield Ave #313 (at Hunterdon St.)","Newark, NJ 7103","United States"]},"categories":[{"id":"4bf58dd8d48988d148941735","name":"Donut Shop","pluralName":"Donut Shops","shortName":"Donuts","icon":{"prefix":"https:\/\/ss3.4sqi.net\/img\/categories_v2\/food\/donuts_","suffix":".png"},"primary":true}],"verified":true,"stats":{"checkinsCount":1244,"usersCount":274,"tipCount":7},"url":"http:\/\/www.dunkindonuts.com","allowMenuUrlEdit":true,"beenHere":{"lastCheckinExpiredAt":0},"specials":{"count":0,"items":[]},"storeId":"338101","referralId":"v-1483291009","venueChains":[{"id":"556f676fbd6a75a99038d8f0"}],"hasPerk":false},{"id":"4a995916f964a520e42d20e3","name":"Adega Grill","contact":{"phone":"9735898830","formattedPhone":"(973) 589-8830","twitter":"adegagrill"},"location":{"address":"130 Ferry St","crossStreet":"at Madison St","lat":40.72996899628016,"lng":-74.15989002106109,"labeledLatLngs":[{"label":"display","lat":40.72996899628016,"lng":-74.15989002106109}],"postalCode":"07105","cc":"US","city":"Newark","state":"NJ","country":"United States","formattedAddress":["130 Ferry St (at Madison St)","Newark, NJ 07105","United States"]},"categories":[{"id":"4def73e84765ae376e57713a","name":"Portuguese Restaurant","pluralName":"Portuguese Restaurants","shortName":"Portuguese","icon":{"prefix":"https:\/\/ss3.4sqi.net\/img\/categories_v2\/food\/portuguese_","suffix":".png"},"primary":true}],"verified":true,"stats":{"checkinsCount":2612,"usersCount":1411,"tipCount":26},"url":"http:\/\/agedagrill-hub.com","hasMenu":true,"menu":{"type":"Menu","label":"Menu","anchor":"View Menu","url":"https:\/\/foursquare.com\/v\/adega-grill\/4a995916f964a520e42d20e3\/menu","mobileUrl":"https:\/\/foursquare.com\/v\/4a995916f964a520e42d20e3\/device_menu"},"allowMenuUrlEdit":true,"beenHere":{"lastCheckinExpiredAt":0},"specials":{"count":0,"items":[]},"venuePage":{"id":"82719095"},"storeId":"","referralId":"v-1483291009","venueChains":[],"hasPerk":false},{"id":"4bba72bf7421a593ead3c340","name":"McDonald's","contact":{"phone":"9736430810","formattedPhone":"(973) 643-0810"},"location":{"address":"561-575 McCarter Hwy","lat":40.726645,"lng":-74.173132,"labeledLatLngs":[{"label":"display","lat":40.726645,"lng":-74.173132}],"postalCode":"07102","cc":"US","city":"Newark","state":"NJ","country":"United States","formattedAddress":["561-575 McCarter Hwy","Newark, NJ 07102","United States"]},"categories":[{"id":"4bf58dd8d48988d16e941735","name":"Fast Food Restaurant","pluralName":"Fast Food Restaurants","shortName":"Fast Food","icon":{"prefix":"https:\/\/ss3.4sqi.net\/img\/categories_v2\/food\/fastfood_","suffix":".png"},"primary":true}],"verified":true,"stats":{"checkinsCount":1323,"usersCount":594,"tipCount":14},"url":"http:\/\/mcdonalds.com","hasMenu":true,"menu":{"type":"Menu","label":"Menu","anchor":"View Menu","url":"https:\/\/foursquare.com\/v\/mcdonalds\/4bba72bf7421a593ead3c340\/menu","mobileUrl":"https:\/\/foursquare.com\/v\/4bba72bf7421a593ead3c340\/device_menu"},"allowMenuUrlEdit":true,"beenHere":{"lastCheckinExpiredAt":0},"specials":{"count":0,"items":[]},"storeId":"6978","referralId":"v-1483291009","venueChains":[{"id":"556f7a12bd6a75a9903bddb2"}],"hasPerk":false},{"id":"4ba14cc2f964a5206faa37e3","name":"Valenca Restaurant","contact":{"phone":"9083542525","formattedPhone":"(908) 354-2525","facebook":"133829960012240","facebookName":"Valencia Restaurant"},"location":{"address":"665 Monroe Ave","crossStreet":"at Louisa St","lat":40.67720036554974,"lng":-74.20345723628998,"labeledLatLngs":[{"label":"display","lat":40.67720036554974,"lng":-74.20345723628998}],"postalCode":"07201","cc":"US","city":"Elizabeth","state":"NJ","country":"United States","formattedAddress":["665 Monroe Ave (at Louisa St)","Elizabeth, NJ 07201","United States"]},"categories":[{"id":"4def73e84765ae376e57713a","name":"Portuguese Restaurant","pluralName":"Portuguese Restaurants","shortName":"Portuguese","icon":{"prefix":"https:\/\/ss3.4sqi.net\/img\/categories_v2\/food\/portuguese_","suffix":".png"},"primary":true}],"verified":false,"stats":{"checkinsCount":3211,"usersCount":1866,"tipCount":66},"url":"http:\/\/valencarestaurantnj.com","hasMenu":true,"menu":{"type":"Menu","label":"Menu","anchor":"View Menu","url":"https:\/\/foursquare.com\/v\/valenca-restaurant\/4ba14cc2f964a5206faa37e3\/menu","mobileUrl":"https:\/\/foursquare.com\/v\/4ba14cc2f964a5206faa37e3\/device_menu","externalUrl":"http:\/\/valencarestaurantnj.com\/our-menus\/"},"allowMenuUrlEdit":true,"beenHere":{"lastCheckinExpiredAt":0},"specials":{"count":0,"items":[]},"referralId":"v-1483291009","venueChains":[],"hasPerk":false},{"id":"541cbf3f498eebd477a5c005","name":"SONIC Drive In","contact":{"phone":"9736930025","formattedPhone":"(973) 693-0025"},"location":{"address":"189-237 Springfield Ave","crossStreet":"Irvine Turner","lat":40.734586920490536,"lng":-74.1874502435189,"labeledLatLngs":[{"label":"display","lat":40.734586920490536,"lng":-74.1874502435189}],"postalCode":"07103","cc":"US","city":"Newark","state":"NJ","country":"United States","formattedAddress":["189-237 Springfield Ave (Irvine Turner)","Newark, NJ 07103","United States"]},"categories":[{"id":"4bf58dd8d48988d16e941735","name":"Fast Food Restaurant","pluralName":"Fast Food Restaurants","shortName":"Fast Food","icon":{"prefix":"https:\/\/ss3.4sqi.net\/img\/categories_v2\/food\/fastfood_","suffix":".png"},"primary":true}],"verified":false,"stats":{"checkinsCount":196,"usersCount":89,"tipCount":0},"allowMenuUrlEdit":true,"beenHere":{"lastCheckinExpiredAt":0},"specials":{"count":0,"items":[]},"referralId":"v-1483291009","venueChains":[{"id":"556e2b60a7c82e6b7253b20b"}],"hasPerk":false},{"id":"4e6bac8952b1c12060576b87","name":"Earl of Sandwich","contact":{"phone":"9738546133","formattedPhone":"(973) 854-6133","twitter":"earlofsandwich","facebook":"90956084725","facebookUsername":"earlofsandwich","facebookName":"Earl of Sandwich"},"location":{"address":"Terminal A2","crossStreet":"EWR Airport","lat":40.68608096277778,"lng":-74.18275594711304,"labeledLatLngs":[{"label":"display","lat":40.68608096277778,"lng":-74.18275594711304}],"postalCode":"07114","cc":"US","city":"Newark","state":"NJ","country":"United States","formattedAddress":["Terminal A2 (EWR Airport)","Newark, NJ 07114","United States"]},"categories":[{"id":"4bf58dd8d48988d1c5941735","name":"Sandwich Place","pluralName":"Sandwich Places","shortName":"Sandwiches","icon":{"prefix":"https:\/\/ss3.4sqi.net\/img\/categories_v2\/food\/deli_","suffix":".png"},"primary":true}],"verified":true,"stats":{"checkinsCount":3424,"usersCount":2919,"tipCount":97},"url":"http:\/\/www.earlofsandwichusa.com","allowMenuUrlEdit":true,"beenHere":{"lastCheckinExpiredAt":0},"specials":{"count":0,"items":[]},"storeId":"","referralId":"v-1483291009","venueChains":[{"id":"5568f58ba7c8a9cf8ec4b9dd"}],"hasPerk":false},{"id":"4c75c72dd8948cfa42da68da","name":"Dunkin Donuts","contact":{"phone":"2013753660","formattedPhone":"(201) 375-3660","twitter":"dunkindonuts","facebook":"6979393237","facebookUsername":"DunkinDonutsUS","facebookName":"Dunkin' Donuts"},"location":{"address":"857 Springfield Ave","lat":40.72787966961179,"lng":-74.22154653782681,"labeledLatLngs":[{"label":"display","lat":40.72787966961179,"lng":-74.22154653782681}],"postalCode":"07111","cc":"US","city":"Irvington","state":"NJ","country":"United States","formattedAddress":["857 Springfield Ave","Irvington, NJ 07111","United States"]},"categories":[{"id":"4bf58dd8d48988d148941735","name":"Donut Shop","pluralName":"Donut Shops","shortName":"Donuts","icon":{"prefix":"https:\/\/ss3.4sqi.net\/img\/categories_v2\/food\/donuts_","suffix":".png"},"primary":true}],"verified":true,"stats":{"checkinsCount":371,"usersCount":148,"tipCount":2},"url":"http:\/\/www.dunkindonuts.com","allowMenuUrlEdit":true,"beenHere":{"lastCheckinExpiredAt":0},"specials":{"count":0,"items":[]},"storeId":"304408","referralId":"v-1483291009","venueChains":[{"id":"556f676fbd6a75a99038d8f0"}],"hasPerk":false},{"id":"4c7d75c52079b71356c8e4f5","name":"McDonald's","contact":{"phone":"9738244463","formattedPhone":"(973) 824-4463","twitter":"mcdonalds","facebook":"104877332888793","facebookName":"McDonald's at 101-115 Clinton Ave"},"location":{"address":"101-115 Clinton Ave","lat":40.725595,"lng":-74.182358,"labeledLatLngs":[{"label":"display","lat":40.725595,"lng":-74.182358}],"postalCode":"07114","cc":"US","city":"Newark","state":"NJ","country":"United States","formattedAddress":["101-115 Clinton Ave","Newark, NJ 07114","United States"]},"categories":[{"id":"4bf58dd8d48988d16e941735","name":"Fast Food Restaurant","pluralName":"Fast Food Restaurants","shortName":"Fast Food","icon":{"prefix":"https:\/\/ss3.4sqi.net\/img\/categories_v2\/food\/fastfood_","suffix":".png"},"primary":true}],"verified":true,"stats":{"checkinsCount":453,"usersCount":162,"tipCount":3},"url":"http:\/\/mcdonalds.com","hasMenu":true,"menu":{"type":"Menu","label":"Menu","anchor":"View Menu","url":"https:\/\/foursquare.com\/v\/mcdonalds\/4c7d75c52079b71356c8e4f5\/menu","mobileUrl":"https:\/\/foursquare.com\/v\/4c7d75c52079b71356c8e4f5\/device_menu"},"allowMenuUrlEdit":true,"beenHere":{"lastCheckinExpiredAt":0},"specials":{"count":0,"items":[]},"storeId":"12640","referralId":"v-1483291009","venueChains":[{"id":"556f7a12bd6a75a9903bddb2"}],"hasPerk":false},{"id":"4bdb12852a3a0f477445adb6","name":"Wendy's","contact":{"phone":"9082060481","formattedPhone":"(908) 206-0481","twitter":"wendys","facebook":"113385204488","facebookUsername":"wendys","facebookName":"Wendy's"},"location":{"address":"410 US Highway 22","lat":40.69894724050199,"lng":-74.23752628616191,"labeledLatLngs":[{"label":"display","lat":40.69894724050199,"lng":-74.23752628616191}],"postalCode":"07205","cc":"US","city":"Hillside","state":"NJ","country":"United States","formattedAddress":["410 US Highway 22","Hillside, NJ 07205","United States"]},"categories":[{"id":"4bf58dd8d48988d16e941735","name":"Fast Food Restaurant","pluralName":"Fast Food Restaurants","shortName":"Fast Food","icon":{"prefix":"https:\/\/ss3.4sqi.net\/img\/categories_v2\/food\/fastfood_","suffix":".png"},"primary":true}],"verified":true,"stats":{"checkinsCount":748,"usersCount":340,"tipCount":10},"url":"http:\/\/www.wendys.com","hasMenu":true,"menu":{"type":"Menu","label":"Menu","anchor":"View Menu","url":"https:\/\/foursquare.com\/v\/wendys\/4bdb12852a3a0f477445adb6\/menu","mobileUrl":"https:\/\/foursquare.com\/v\/4bdb12852a3a0f477445adb6\/device_menu"},"allowMenuUrlEdit":true,"beenHere":{"lastCheckinExpiredAt":0},"specials":{"count":0,"items":[]},"storeId":"01331-CS-OP","referralId":"v-1483291009","venueChains":[{"id":"556f46f6bd6a007c77390fa9"}],"hasPerk":false}]}}