{"meta":{"code":200,"requestId":"586939824434b95b3ec38996"},"response":{"venues":[{"id":"4a64ca9af964a520b2c61fe3","name":"Whole Foods Market","contact":{"phone":"9086881455","formattedPhone":"(908) 688-1455","twitter":"wfmmillburn","facebook":"191159487644","facebookUsername":"WholeFoodsMillburnUnion","facebookName":"Whole Foods Market Millburn- Union"},"location":{"address":"2245 Springfield Ave.","crossStreet":"Marion St","lat":40.717110788897976,"lng":-74.28649999534112,"labeledLatLngs":[{"label":"display","lat":40.717110788897976,"lng":-74.28649999534112}],"postalCode":"07088","cc":"US","city":"Vauxhall","state":"NJ","country":"United States","formattedAddress":["2245 Springfield Ave. (Marion St)","Vauxhall, NJ 07088","United States"]},"categories":[{"id":"4bf58dd8d48988d118951735","name":"Grocery Store","pluralName":"Grocery Stores","shortName":"Grocery Store","icon":{"prefix":"https:\/\/ss3.4sqi.net\/img\/categories_v2\/shops\/food_grocery_","suffix":".png"},"primary":true}],"verified":true,"stats":{"checkinsCount":15849,"usersCount":3362,"tipCount":63},"url":"http:\/\/www.wholefoodsmarket.com\/stores\/millburn","allowMenuUrlEdit":true,"beenHere":{"lastCheckinExpiredAt":0},"specials":{"count":0,"items":[]},"storeId":"MBN","referralId":"v-1483291010","venueChains":[{"id":"556cdf5baceaff43eb042df6"}],"hasPerk":false},{"id":"51071014e4b02aebedb1c060","name":"Chick-fil-A Union Township","contact":{"phone":"9086884515","formattedPhone":"(908) 688-4515","facebookUsername":"EatMorChikin","facebookName":"Eat Mor Chikin Cowz"},"location":{"address":"2319 US Highway 22 W","lat":40.6909299,"lng":-74.29099213,"labeledLatLngs":[{"label":"display","lat":40.6909299,"lng":-74.29099213}],"postalCode":"07083","cc":"US","city":"Union","state":"NJ","country":"United States","formattedAddress":["2319 US Highway 22 W","Union, NJ 07083","United States"]},"categories":[{"id":"4bf58dd8d48988d16e941735","name":"Fast Food Restaurant","pluralName":"Fast Food Restaurants","shortName":"Fast Food","icon":{"prefix":"https:\/\/ss3.4sqi.net\/img\/categories_v2\/food\/fastfood_","suffix":".png"},"primary":true}],"verified":true,"stats":{"checkinsCount":2938,"usersCount":1224,"tipCount":26},"url":"https:\/\/www.chick-fil-a.com\/Locations\/NJ\/Union-Township","menu":{"type":"Menu","label":"Menu","anchor":"View Menu","url":"http:\/\/www.chick-fil-a.com\/Food\/Menu","mobileUrl":"http:\/\/www.chick-fil-a.com\/Food\/Menu","externalUrl":"http:\/\/www.chick-fil-a.com\/Food\/Menu"},"allowMenuUrlEdit":true,"beenHere":{"lastCheckinExpiredAt":0},"specials":{"count":0,"items":[]},"storeId":"2709","referralId":"v-1483291010","venueChains":[{"id":"556e1846a7c82e6b72513d6b"}],"hasPerk":false},{"id":"4b92464af964a5206fef33e3","name":"Starbucks","contact":{"phone":"9086877299","formattedPhone":"(908) 687-7299","twitter":"starbucks","facebook":"22092443056","facebookUsername":"Starbucks","facebookName":"Starbucks"},"location":{"address":"2698 Route 22 E","lat":40.688771,"lng":-74.307617,"labeledLatLngs":[{"label":"display","lat":40.688771,"lng":-74.307617}],"postalCode":"07083","cc":"US","city":"Union","state":"NJ","country":"United States","formattedAddress":["2698 Route 22 E","Union, NJ 07083","United States"]},"categories":[{"id":"4bf58dd8d48988d1e0931735","name":"Coffee Shop","pluralName":"Coffee Shops","shortName":"Coffee Shop","icon":{"prefix":"https:\/\/ss3.4sqi.net\/img\/categories_v2\/food\/coffeeshop_","suffix":".png"},"primary":true}],"verified":true,"stats":{"checkinsCount":8954,"usersCount":1566,"tipCount":32},"url":"http:\/\/www.starbucks.com\/store\/13523\/","hasMenu":true,"menu":{"type":"Menu","label":"Menu","anchor":"View Menu","url":"http:\/\/www.starbucks.com\/menu","mobileUrl":"http:\/\/www.starbucks.com\/menu","externalUrl":"http:\/\/www.starbucks.com\/menu"},"allowMenuUrlEdit":true,"beenHere":{"lastCheckinExpiredAt":0},"specials":{"count":0,"items":[]},"storeId":"7483","referralId":"v-1483291010","venueChains":[{"id":"556f676fbd6a75a99038d8ec"}],"hasPerk":false},{"id":"4b5f86dcf964a52093bf29e3","name":"Dunkin Donuts","contact":{"phone":"9089647871","formattedPhone":"(908) 964-7871","twitter":"dunkindonuts","facebook":"6979393237","facebookUsername":"DunkinDonutsUS","facebookName":"Dunkin' Donuts"},"location":{"address":"2639 Morris Ave","crossStreet":"Creger Ave","lat":40.70444431110318,"lng":-74.29374808659843,"labeledLatLngs":[{"label":"display","lat":40.70444431110318,"lng":-74.29374808659843}],"postalCode":"07083","cc":"US","city":"Union","state":"NJ","country":"United States","formattedAddress":["2639 Morris Ave (Creger Ave)","Union, NJ 07083","United States"]},"categories":[{"id":"4bf58dd8d48988d148941735","name":"Donut Shop","pluralName":"Donut Shops","shortName":"Donuts","icon":{"prefix":"https:\/\/ss3.4sqi.net\/img\/categories_v2\/food\/donuts_","suffix":".png"},"primary":true}],"verified":true,"stats":{"checkinsCount":5099,"usersCount":920,"tipCount":20},"url":"http:\/\/www.dunkindonuts.com","allowMenuUrlEdit":true,"beenHere":{"lastCheckinExpiredAt":0},"specials":{"count":0,"items":[]},"storeId":"300451","referralId":"v-1483291010","venueChains":[{"id":"556f676fbd6a75a99038d8f0"}],"hasPerk":false},{"id":"4b3cefd6f964a520048a25e3","name":"Millburn Deli","contact":{"phone":"9733795800","formattedPhone":"(973) 379-5800","twitter":"millburndeli"},"location":{"address":"328 Millburn Ave","lat":40.72402875521631,"lng":-74.30644444062757,"labeledLatLngs":[{"label":"display","lat":40.72402875521631,"lng":-74.30644444062757}],"postalCode":"07041","cc":"US","city":"Millburn","state":"NJ","country":"United States","formattedAddress":["328 Millburn Ave","Millburn, NJ 07041","United States"]},"categories":[{"id":"4bf58dd8d48988d1c5941735","name":"Sandwich Place","pluralName":"Sandwich Places","shortName":"Sandwiches","icon":{"prefix":"https:\/\/ss3.4sqi.net\/img\/categories_v2\/food\/deli_","suffix":".png"},"primary":true}],"verified":true,"stats":{"checkinsCount":5239,"usersCount":1690,"tipCount":78},"url":"http:\/\/www.millburndeli.com","hasMenu":true,"menu":{"type":"Menu","label":"Menu","anchor":"View Menu","url":"https:\/\/foursquare.com\/v\/millburn-deli\/4b3cefd6f964a520048a25e3\/menu","mobileUrl":"https:\/\/foursquare.com\/v\/4b3cefd6f964a520048a25e3\/device_menu"},"allowMenuUrlEdit":true,"beenHere":{"lastCheckinExpiredAt":0},"specials":{"count":0,"items":[]},"venuePage":{"id":"94863402"},"referralId":"v-1483291010","venueChains":[],"hasPerk":false},{"id":"4e87715529c2b1ce5b8e6fa3","name":"The Able Baker","contact":{"phone":"9733131133","formattedPhone":"(973) 313-1133","twitter":"theablebaker","facebook":"186929327186"},"location":{"address":"187 Maplewood Ave","crossStreet":"Baker St.","lat":40.73001497344702,"lng":-74.27915722131729,"labeledLatLngs":[{"label":"display","lat":40.73001497344702,"lng":-74.27915722131729}],"postalCode":"07040","cc":"US","city":"Maplewood","state":"NJ","country":"United States","formattedAddress":["187 Maplewood Ave (Baker St.)","Maplewood, NJ 07040","United States"]},"categories":[{"id":"4bf58dd8d48988d16a941735","name":"Bakery","pluralName":"Bakeries","shortName":"Bakery","icon":{"prefix":"https:\/\/ss3.4sqi.net\/img\/categories_v2\/food\/bakery_","suffix":".png"},"primary":true}],"verified":true,"stats":{"checkinsCount":1549,"usersCount":327,"tipCount":24},"url":"http:\/\/theablebaker.com\/bakery.html","hasMenu":true,"menu":{"type":"Menu","label":"Menu","anchor":"View Menu","url":"https:\/\/foursquare.com\/v\/the-able-baker\/4e87715529c2b1ce5b8e6fa3\/menu","mobileUrl":"https:\/\/foursquare.com\/v\/4e87715529c2b1ce5b8e6fa3\/device_menu"},"allowMenuUrlEdit":true,"beenHere":{"lastCheckinExpiredAt":0},"specials":{"count":0,"items":[]},"venuePage":{"id":"94357022"},"storeId":"","referralId":"v-1483291010","venueChains":[],"hasPerk":false},{"id":"55457072498e777ecbb328be","name":"Starbucks","contact":{"phone":"9082727397","formattedPhone":"(908) 272-7397","twitter":"starbucks","facebook":"22092443056","facebookUsername":"Starbucks","facebookName":"Starbucks"},"location":{"address":"345 N Ave E","lat":40.65816078401736,"lng":-74.29120085754664,"labeledLatLngs":[{"label":"display","lat":40.65816078401736,"lng":-74.29120085754664}],"postalCode":"07016","cc":"US","city":"Cranford","state":"NJ","country":"United States","formattedAddress":["345 N Ave E","Cranford, NJ 07016","United States"]},"categories":[{"id":"4bf58dd8d48988d1e0931735","name":"Coffee Shop","pluralName":"Coffee Shops","shortName":"Coffee Shop","icon":{"prefix":"https:\/\/ss3.4sqi.net\/img\/categories_v2\/food\/coffeeshop_","suffix":".png"},"primary":true}],"verified":true,"stats":{"checkinsCount":532,"usersCount":135,"tipCount":5},"url":"http:\/\/www.starbucks.com","allowMenuUrlEdit":true,"beenHere":{"lastCheckinExpiredAt":0},"specials":{"count":0,"items":[]},"storeId":"20466","referralId":"v-1483291010","venueChains":[{"id":"556f676fbd6a75a99038d8ec"}],"hasPerk":false},{"id":"4b4de78af964a520aada26e3","name":"Manhattan Bagel","contact":{"phone":"9086874900","formattedPhone":"(908) 687-4900","twitter":"mbagelunion"},"location":{"address":"1350 Galloping Hill Rd","lat":40.67746374389766,"lng":-74.26857047206258,"labeledLatLngs":[{"label":"display","lat":40.67746374389766,"lng":-74.26857047206258}],"postalCode":"07083","cc":"US","city":"Union","state":"NJ","country":"United States","formattedAddress":["1350 Galloping Hill Rd","Union, NJ 07083","United States"]},"categories":[{"id":"4bf58dd8d48988d179941735","name":"Bagel Shop","pluralName":"Bagel Shops","shortName":"Bagels","icon":{"prefix":"https:\/\/ss3.4sqi.net\/img\/categories_v2\/food\/bagels_","suffix":".png"},"primary":true}],"verified":true,"stats":{"checkinsCount":1809,"usersCount":389,"tipCount":12},"url":"http:\/\/www.manhattanbagel.com","hasMenu":true,"menu":{"type":"Menu","label":"Menu","anchor":"View Menu","url":"https:\/\/foursquare.com\/v\/manhattan-bagel\/4b4de78af964a520aada26e3\/menu","mobileUrl":"https:\/\/foursquare.com\/v\/4b4de78af964a520aada26e3\/device_menu"},"allowMenuUrlEdit":true,"beenHere":{"lastCheckinExpiredAt":0},"specials":{"count":0,"items":[]},"storeId":"456","referralId":"v-1483291010","venueChains":[{"id":"556f4350bd6a007c773894a4"}],"hasPerk":false},{"id":"4f2312166aa3ce557949257a","name":"QuickChek","contact":{"phone":"9086869677","formattedPhone":"(908) 686-9677","twitter":"quickchek"},"location":{"address":"1090 Stuyvesant Ave","lat":40.69816576089901,"lng":-74.2674702329317,"labeledLatLngs":[{"label":"display","lat":40.69816576089901,"lng":-74.2674702329317}],"postalCode":"07083","cc":"US","city":"Union","state":"NJ","country":"United States","formattedAddress":["1090 Stuyvesant Ave","Union, NJ 07083","United States"]},"categories":[{"id":"4d954b0ea243a5684a65b473","name":"Convenience Store","pluralName":"Convenience Stores","shortName":"Convenience Store","icon":{"prefix":"https:\/\/ss3.4sqi.net\/img\/categories_v2\/shops\/conveniencestore_","suffix":".png"},"primary":true}],"verified":true,"stats":{"checkinsCount":2641,"usersCount":487,"tipCount":10},"url":"https:\/\/www.facebook.com\/Quick.Chek.GetFresh.GoFast","hasMenu":true,"menu":{"type":"Products","label":"Products","anchor":"View Products","url":"https:\/\/foursquare.com\/v\/quickchek\/4f2312166aa3ce557949257a\/menu","mobileUrl":"https:\/\/foursquare.com\/v\/4f2312166aa3ce557949257a\/device_menu"},"allowMenuUrlEdit":true,"beenHere":{"lastCheckinExpiredAt":0},"specials":{"count":0,"items":[]},"storeId":"","referralId":"v-1483291010","venueChains":[{"id":"556f431fbd6a007c77388d9e"}],"hasPerk":false},{"id":"52ffd735498e1ae6fdc16de1","name":"Starbucks","contact":{"phone":"9082723967","formattedPhone":"(908) 272-3967","twitter":"starbucks","facebook":"22092443056","facebookUsername":"Starbucks","facebookName":"Starbucks"},"location":{"address":"200 South Ave.","crossStreet":"at High St","lat":40.654594,"lng":-74.302704,"labeledLatLngs":[{"label":"display","lat":40.654594,"lng":-74.302704}],"postalCode":"07016","cc":"US","city":"Cranford","state":"NJ","country":"United States","formattedAddress":["200 South Ave. (at High St)","Cranford, NJ 07016","United States"]},"categories":[{"id":"4bf58dd8d48988d1e0931735","name":"Coffee Shop","pluralName":"Coffee Shops","shortName":"Coffee Shop","icon":{"prefix":"https:\/\/ss3.4sqi.net\/img\/categories_v2\/food\/coffeeshop_","suffix":".png"},"primary":true}],"verified":true,"stats":{"checkinsCount":1061,"usersCount":241,"tipCount":5},"url":"http:\/\/www.starbucks.com","hasMenu":true,"menu":{"type":"Menu","label":"Menu","anchor":"View Menu","url":"https:\/\/foursquare.com\/v\/starbucks\/52ffd735498e1ae6fdc16de1\/menu","mobileUrl":"https:\/\/foursquare.com\/v\/52ffd735498e1ae6fdc16de1\/device_menu"},"allowMenuUrlEdit":true,"beenHere":{"lastCheckinExpiredAt":0},"specials":{"count":0,"items":[]},"storeId":"21510","referralId":"v-1483291010","venueChains":[{"id":"556f676fbd6a75a99038d8ec"}],"hasPerk":false},{"id":"4b33c8c1f964a5201f1f25e3","name":"Panera Bread","contact":{"phone":"9739210101","formattedPhone":"(973) 921-0101","twitter":"panerabread","facebook":"99044554628","facebookUsername":"panerabread","facebookName":"Panera Bread"},"location":{"address":"722 Morris Tpke","lat":40.71974569710354,"lng":-74.3300199508667,"labeledLatLngs":[{"label":"display","lat":40.71974569710354,"lng":-74.3300199508667}],"postalCode":"07078","cc":"US","city":"Short Hills","state":"NJ","country":"United States","formattedAddress":["722 Morris Tpke","Short Hills, NJ 07078","United States"]},"categories":[{"id":"4bf58dd8d48988d1c5941735","name":"Sandwich Place","pluralName":"Sandwich Places","shortName":"Sandwiches","icon":{"prefix":"https:\/\/ss3.4sqi.net\/img\/categories_v2\/food\/deli_","suffix":".png"},"primary":true}],"verified":true,"stats":{"checkinsCount":3008,"usersCount":1201,"tipCount":13},"url":"http:\/\/www.panerabread.com","hasMenu":true,"menu":{"type":"Menu","label":"Menu","anchor":"View Menu","url":"https:\/\/foursquare.com\/v\/panera-bread\/4b33c8c1f964a5201f1f25e3\/menu","mobileUrl":"https:\/\/foursquare.com\/v\/4b33c8c1f964a5201f1f25e3\/device_menu"},"allowMenuUrlEdit":true,"beenHere":{"lastCheckinExpiredAt":0},"specials":{"count":0,"items":[]},"storeId":"1472","referralId":"v-1483291010","venueChains":[{"id":"556e0f6fa7c82e6b724f8c8a"}],"hasPerk":false},{"id":"4b6ee0fdf964a520adce2ce3","name":"Panera Bread","contact":{"phone":"9733791803","formattedPhone":"(973) 379-1803","twitter":"panerabread","facebook":"99044554628","facebookUsername":"panerabread","facebookName":"Panera Bread"},"location":{"address":"295 US Highway 22","lat":40.684608403201835,"lng":-74.32510614395142,"labeledLatLngs":[{"label":"display","lat":40.684608403201835,"lng":-74.32510614395142}],"postalCode":"07081","cc":"US","city":"Springfield","state":"NJ","country":"United States","formattedAddress":["295 US Highway 22","Springfield, NJ 07081","United States"]},"categories":[{"id":"4bf58dd8d48988d1c5941735","name":"Sandwich Place","pluralName":"Sandwich Places","shortName":"Sandwiches","icon":{"prefix":"https:\/\/ss3.4sqi.net\/img\/categories_v2\/food\/deli_","suffix":".png"},"primary":true}],"verified":true,"stats":{"checkinsCount":3775,"usersCount":1466,"tipCount":29},"url":"http:\/\/www.panerabread.com","hasMenu":true,"menu":{"type":"Menu","label":"Menu","anchor":"View Menu","url":"https:\/\/foursquare.com\/v\/panera-bread\/4b6ee0fdf964a520adce2ce3\/menu","mobileUrl":"https:\/\/foursquare.com\/v\/4b6ee0fdf964a520adce2ce3\/device_menu"},"allowMenuUrlEdit":true,"beenHere":{"lastCheckinExpiredAt":0},"specials":{"count":0,"items":[]},"storeId":"1499","referralId":"v-1483291010","venueChains":[{"id":"556e0f6fa7c82e6b724f8c8a"}],"hasPerk":false},{"id":"4bcb1d3eb6c49c74b57d9191","name":"Union Plaza Diner","contact":{"phone":"9086864403","formattedPhone":"(908) 686-4403"},"location":{"address":"2466 Route 22","crossStreet":"Center Island","lat":40.68980825251457,"lng":-74.29879579586634,"labeledLatLngs":[{"label":"display","lat":40.68980825251457,"lng":-74.29879579586634}],"postalCode":"07083","cc":"US","city":"Union","state":"NJ","country":"United States","formattedAddress":["2466 Route 22 (Center Island)","Union, NJ 07083","United States"]},"categories":[{"id":"4bf58dd8d48988d147941735","name":"Diner","pluralName":"Diners","shortName":"Diner","icon":{"prefix":"https:\/\/ss3.4sqi.net\/img\/categories_v2\/food\/diner_","suffix":".png"},"primary":true}],"verified":false,"stats":{"checkinsCount":4969,"usersCount":2032,"tipCount":65},"url":"http:\/\/unionplazadiner.com","hasMenu":true,"menu":{"type":"Menu","label":"Menu","anchor":"View Menu","url":"https:\/\/foursquare.com\/v\/union-plaza-diner\/4bcb1d3eb6c49c74b57d9191\/menu","mobileUrl":"https:\/\/foursquare.com\/v\/4bcb1d3eb6c49c74b57d9191\/device_menu"},"allowMenuUrlEdit":true,"beenHere":{"lastCheckinExpiredAt":0},"specials":{"count":0,"items":[]},"referralId":"v-1483291010","venueChains":[],"hasPerk":false},{"id":"4c236b0513c00f4788f888de","name":"Dunkin Donuts","contact":{"phone":"9735649358","formattedPhone":"(973) 564-9358","twitter":"dunkindonuts","facebook":"6979393237","facebookUsername":"DunkinDonutsUS","facebookName":"Dunkin' Donuts"},"location":{"address":"130 Route 22 Westbound Center Island","crossStreet":"on the Center Island","lat":40.68694700800298,"lng":-74.31681972642143,"labeledLatLngs":[{"label":"display","lat":40.68694700800298,"lng":-74.31681972642143}],"postalCode":"7081","cc":"US","city":"Springfield","state":"NJ","country":"United States","formattedAddress":["130 Route 22 Westbound Center Island (on the Center Island)","Springfield, NJ 7081","United States"]},"categories":[{"id":"4bf58dd8d48988d148941735","name":"Donut Shop","pluralName":"Donut Shops","shortName":"Donuts","icon":{"prefix":"https:\/\/ss3.4sqi.net\/img\/categories_v2\/food\/donuts_","suffix":".png"},"primary":true}],"verified":true,"stats":{"checkinsCount":3435,"usersCount":638,"tipCount":5},"url":"http:\/\/www.dunkindonuts.com","allowMenuUrlEdit":true,"beenHere":{"lastCheckinExpiredAt":0},"specials":{"count":0,"items":[]},"storeId":"345896","referralId":"v-1483291010","venueChains":[{"id":"556f676fbd6a75a99038d8f0"}],"hasPerk":false},{"id":"4ada4b4df964a520072121e3","name":"Chipotle Mexican Grill","contact":{"phone":"9733760152","formattedPhone":"(973) 376-0152","twitter":"chipotletweets"},"location":{"address":"101 US Highway 22","crossStreet":"Center isle\/Median on W end of Route 22","lat":40.687142649910434,"lng":-74.31576669216156,"labeledLatLngs":[{"label":"display","lat":40.687142649910434,"lng":-74.31576669216156}],"postalCode":"07081","cc":"US","city":"Springfield","state":"NJ","country":"United States","formattedAddress":["101 US Highway 22 (Center isle\/Median on W end of Route 22)","Springfield, NJ 07081","United States"]},"categories":[{"id":"4bf58dd8d48988d1c1941735","name":"Mexican Restaurant","pluralName":"Mexican Restaurants","shortName":"Mexican","icon":{"prefix":"https:\/\/ss3.4sqi.net\/img\/categories_v2\/food\/mexican_","suffix":".png"},"primary":true}],"verified":true,"stats":{"checkinsCount":7989,"usersCount":2448,"tipCount":48},"url":"http:\/\/www.chipotle.com","menu":{"type":"Menu","label":"Menu","anchor":"View Menu","url":"http:\/\/chipotle.com\/en-US\/menu\/menu.aspx","mobileUrl":"http:\/\/chipotle.com\/en-US\/menu\/menu.aspx","externalUrl":"http:\/\/chipotle.com\/en-US\/menu\/menu.aspx"},"allowMenuUrlEdit":true,"beenHere":{"lastCheckinExpiredAt":0},"specials":{"count":0,"items":[]},"storeId":"1275","referralId":"v-1483291010","venueChains":[{"id":"556e0f6fa7c82e6b724f8c82"}],"hasPerk":false},{"id":"4bf49ceb98ac0f47114664a8","name":"St. James's Gate Publick House","contact":{"phone":"9733782222","formattedPhone":"(973) 378-2222","twitter":"sjgpub"},"location":{"address":"167 Maplewood Ave","lat":40.730959,"lng":-74.27770071666667,"labeledLatLngs":[{"label":"display","lat":40.730959,"lng":-74.27770071666667}],"postalCode":"07040","cc":"US","city":"Maplewood","state":"NJ","country":"United States","formattedAddress":["167 Maplewood Ave","Maplewood, NJ 07040","United States"]},"categories":[{"id":"4bf58dd8d48988d11b941735","name":"Pub","pluralName":"Pubs","shortName":"Pub","icon":{"prefix":"https:\/\/ss3.4sqi.net\/img\/categories_v2\/nightlife\/pub_","suffix":".png"},"primary":true}],"verified":true,"stats":{"checkinsCount":4330,"usersCount":1281,"tipCount":44},"url":"http:\/\/stjamesgatepublickhouse.com","allowMenuUrlEdit":true,"beenHere":{"lastCheckinExpiredAt":0},"specials":{"count":0,"items":[]},"venuePage":{"id":"84915475"},"referralId":"v-1483291010","venueChains":[],"hasPerk":false},{"id":"4b9d692bf964a520d8aa36e3","name":"Dunkin' Donuts","contact":{"phone":"9733795551","formattedPhone":"(973) 379-5551","twitter":"dunkindonuts","facebook":"6979393237","facebookUsername":"DunkinDonutsUS","facebookName":"Dunkin' Donuts"},"location":{"address":"633 Morris Tpke","lat":40.71752011666667,"lng":-74.32710781,"labeledLatLngs":[{"label":"display","lat":40.71752011666667,"lng":-74.32710781}],"postalCode":"07081","cc":"US","city":"Springfield","state":"NJ","country":"United States","formattedAddress":["633 Morris Tpke","Springfield, NJ 07081","United States"]},"categories":[{"id":"4bf58dd8d48988d148941735","name":"Donut Shop","pluralName":"Donut Shops","shortName":"Donuts","icon":{"prefix":"https:\/\/ss3.4sqi.net\/img\/categories_v2\/food\/donuts_","suffix":".png"},"primary":true}],"verified":true,"stats":{"checkinsCount":2715,"usersCount":689,"tipCount":8},"url":"http:\/\/www.dunkindonuts.com","allowMenuUrlEdit":true,"beenHere":{"lastCheckinExpiredAt":0},"specials":{"count":0,"items":[]},"storeId":"339029","referralId":"v-1483291010","venueChains":[{"id":"556f676fbd6a75a99038d8f0"}],"hasPerk":false},{"id":"4ba2769df964a5203bfb37e3","name":"Galloping Hill Inn","contact":{"phone":"9086862683","formattedPhone":"(908) 686-2683"},"location":{"address":"325 Chestnut St","crossStreet":"at Galloping Hill Rd","lat":40.67731834733972,"lng":-74.26749229431152,"labeledLatLngs":[{"label":"display","lat":40.67731834733972,"lng":-74.26749229431152}],"postalCode":"07083","cc":"US","city":"Union","state":"NJ","country":"United States","formattedAddress":["325 Chestnut St (at Galloping Hill Rd)","Union, NJ 07083","United States"]},"categories":[{"id":"4bf58dd8d48988d16f941735","name":"Hot Dog Joint","pluralName":"Hot Dog Joints","shortName":"Hot Dogs","icon":{"prefix":"https:\/\/ss3.4sqi.net\/img\/categories_v2\/food\/hotdog_","suffix":".png"},"primary":true}],"verified":false,"stats":{"checkinsCount":3586,"usersCount":1464,"tipCount":41},"url":"http:\/\/www.gallopinghillcaterers.com\/","hasMenu":true,"menu":{"type":"Menu","label":"Menu","anchor":"View Menu","url":"https:\/\/foursquare.com\/v\/galloping-hill-inn\/4ba2769df964a5203bfb37e3\/menu","mobileUrl":"https:\/\/foursquare.com\/v\/4ba2769df964a5203bfb37e3\/device_menu"},"allowMenuUrlEdit":true,"beenHere":{"lastCheckinExpiredAt":0},"specials":{"count":0,"items":[]},"referralId":"v-1483291010","venueChains":[],"hasPerk":false},{"id":"4aeb54f6f964a5200dc121e3","name":"Parkwood Diner","contact":{"phone":"9733133990","formattedPhone":"(973) 313-3990"},"location":{"address":"1958 Springfield Ave","lat":40.720231551703755,"lng":-74.27373915910721,"labeledLatLngs":[{"label":"display","lat":40.720231551703755,"lng":-74.27373915910721}],"postalCode":"07040","cc":"US","city":"Maplewood","state":"NJ","country":"United States","formattedAddress":["1958 Springfield Ave","Maplewood, NJ 07040","United States"]},"categories":[{"id":"4bf58dd8d48988d147941735","name":"Diner","pluralName":"Diners","shortName":"Diner","icon":{"prefix":"https:\/\/ss3.4sqi.net\/img\/categories_v2\/food\/diner_","suffix":".png"},"primary":true}],"verified":false,"stats":{"checkinsCount":2707,"usersCount":633,"tipCount":34},"url":"http:\/\/parkwooddiner.com","hasMenu":true,"menu":{"type":"Menu","label":"Menu","anchor":"View Menu","url":"https:\/\/foursquare.com\/v\/parkwood-diner\/4aeb54f6f964a5200dc121e3\/menu","mobileUrl":"https:\/\/foursquare.com\/v\/4aeb54f6f964a5200dc121e3\/device_menu"},"allowMenuUrlEdit":true,"beenHere":{"lastCheckinExpiredAt":0},"specials":{"count":0,"items":[]},"referralId":"v-1483291010","venueChains":[],"hasPerk":false},{"id":"4bbb8c53e5b0d13a0a306e7c","name":"Dunkin' Donuts","contact":{"phone":"9082418115","formattedPhone":"(908) 241-8115","twitter":"dunkindonuts","facebook":"6979393237","facebookUsername":"DunkinDonutsUS","facebookName":"Dunkin' Donuts"},"location":{"address":"705 Boulevard","crossStreet":"at Michigan Ave","lat":40.67707787,"lng":-74.286168,"labeledLatLngs":[{"label":"display","lat":40.67707787,"lng":-74.286168}],"postalCode":"07033","cc":"US","city":"Kenilworth","state":"NJ","country":"United States","formattedAddress":["705 Boulevard (at Michigan Ave)","Kenilworth, NJ 07033","United States"]},"categories":[{"id":"4bf58dd8d48988d148941735","name":"Donut Shop","pluralName":"Donut Shops","shortName":"Donuts","icon":{"prefix":"https:\/\/ss3.4sqi.net\/img\/categories_v2\/food\/donuts_","suffix":".png"},"primary":true}],"verified":true,"stats":{"checkinsCount":2245,"usersCount":541,"tipCount":10},"url":"http:\/\/www.dunkindonuts.com","hasMenu":true,"menu":{"type":"Menu","label":"Menu","anchor":"View Menu","url":"https:\/\/foursquare.com\/v\/dunkin-donuts\/4bbb8c53e5b0d13a0a306e7c\/menu","mobileUrl":"https:\/\/foursquare.com\/v\/4bbb8c53e5b0d13a0a306e7c\/device_menu"},"allowMenuUrlEdit":true,"beenHere":{"lastCheckinExpiredAt":0},"specials":{"count":0,"items":[]},"storeId":"300487","referralId":"v-1483291010","venueChains":[{"id":"556f676fbd6a75a99038d8f0"}],"hasPerk":false},{"id":"4b3cdd7bf964a520848825e3","name":"Bagels-4-U","contact":{"phone":"9733795691","formattedPhone":"(973) 379-5691"},"location":{"address":"752 Morris Tpke","lat":40.7201378141561,"lng":-74.33133610652906,"labeledLatLngs":[{"label":"display","lat":40.7201378141561,"lng":-74.33133610652906}],"postalCode":"07078","cc":"US","city":"Short Hills","state":"NJ","country":"United States","formattedAddress":["752 Morris Tpke","Short Hills, NJ 07078","United States"]},"categories":[{"id":"4bf58dd8d48988d179941735","name":"Bagel Shop","pluralName":"Bagel Shops","shortName":"Bagels","icon":{"prefix":"https:\/\/ss3.4sqi.net\/img\/categories_v2\/food\/bagels_","suffix":".png"},"primary":true}],"verified":false,"stats":{"checkinsCount":1828,"usersCount":467,"tipCount":19},"url":"http:\/\/bagels4u.com","hasMenu":true,"menu":{"type":"Menu","label":"Menu","anchor":"View Menu","url":"https:\/\/foursquare.com\/v\/bagels4u\/4b3cdd7bf964a520848825e3\/menu","mobileUrl":"https:\/\/foursquare.com\/v\/4b3cdd7bf964a520848825e3\/device_menu"},"allowMenuUrlEdit":true,"beenHere":{"lastCheckinExpiredAt":0},"specials":{"count":0,"items":[]},"referralId":"v-1483291010","venueChains":[],"hasPerk":false},{"id":"4b623781f964a520c73c2ae3","name":"Van Gogh's Ear Cafe","contact":{"phone":"9088101844","formattedPhone":"(908) 810-1844"},"location":{"address":"1017 Stuyvesant Ave","crossStreet":"Morris Ave.","lat":40.696672965980646,"lng":-74.26921800553194,"labeledLatLngs":[{"label":"display","lat":40.696672965980646,"lng":-74.26921800553194}],"postalCode":"07083","cc":"US","city":"Union","state":"NJ","country":"United States","formattedAddress":["1017 Stuyvesant Ave (Morris Ave.)","Union, NJ 07083","United States"]},"categories":[{"id":"4bf58dd8d48988d1e0931735","name":"Coffee Shop","pluralName":"Coffee Shops","shortName":"Coffee Shop","icon":{"prefix":"https:\/\/ss3.4sqi.net\/img\/categories_v2\/food\/coffeeshop_","suffix":".png"},"primary":true}],"verified":true,"stats":{"checkinsCount":5116,"usersCount":1798,"tipCount":71},"url":"http:\/\/www.vangoghsearcafe.com\/index.php","hasMenu":true,"menu":{"type":"Menu","label":"Menu","anchor":"View Menu","url":"https:\/\/foursquare.com\/v\/van-goghs-ear-cafe\/4b623781f964a520c73c2ae3\/menu","mobileUrl":"https:\/\/foursquare.com\/v\/4b623781f964a520c73c2ae3\/device_menu"},"allowMenuUrlEdit":true,"beenHere":{"lastCheckinExpiredAt":0},"specials":{"count":0,"items":[]},"venuePage":{"id":"49379231"},"referralId":"v-1483291010","venueChains":[],"hasPerk":false},{"id":"4b6c2fbdf964a5204d282ce3","name":"Pinho's Bakery","contact":{"phone":"9082454388","formattedPhone":"(908) 245-4388","twitter":"supermedia"},"location":{"address":"1027 Chestnut St","crossStreet":"East Eleventh Avenue","lat":40.64799823297646,"lng":-74.26067381708764,"labeledLatLngs":[{"label":"display","lat":40.64799823297646,"lng":-74.26067381708764}],"postalCode":"07203","cc":"US","city":"Roselle","state":"NJ","country":"United States","formattedAddress":["1027 Chestnut St (East Eleventh Avenue)","Roselle, NJ 07203","United States"]},"categories":[{"id":"4bf58dd8d48988d16a941735","name":"Bakery","pluralName":"Bakeries","shortName":"Bakery","icon":{"prefix":"https:\/\/ss3.4sqi.net\/img\/categories_v2\/food\/bakery_","suffix":".png"},"primary":true}],"verified":false,"stats":{"checkinsCount":1808,"usersCount":539,"tipCount":31},"url":"http:\/\/pinhosbakery.net","allowMenuUrlEdit":true,"beenHere":{"lastCheckinExpiredAt":0},"specials":{"count":0,"items":[]},"referralId":"v-1483291010","venueChains":[],"hasPerk":false},{"id":"4c5b05825c57c9b60dba1e4a","name":"McDonald's","contact":{"phone":"9086889066","formattedPhone":"(908) 688-9066"},"location":{"address":"Route 22 East","crossStreet":"N Michigan Ave","lat":40.68960243497118,"lng":-74.29503151293294,"labeledLatLngs":[{"label":"display","lat":40.68960243497118,"lng":-74.29503151293294}],"postalCode":"07083","cc":"US","city":"Union","state":"NJ","country":"United States","formattedAddress":["Route 22 East (N Michigan Ave)","Union, NJ 07083","United States"]},"categories":[{"id":"4bf58dd8d48988d16e941735","name":"Fast Food Restaurant","pluralName":"Fast Food Restaurants","shortName":"Fast Food","icon":{"prefix":"https:\/\/ss3.4sqi.net\/img\/categories_v2\/food\/fastfood_","suffix":".png"},"primary":true}],"verified":true,"stats":{"checkinsCount":1728,"usersCount":729,"tipCount":13},"url":"http:\/\/mcdonalds.com","hasMenu":true,"menu":{"type":"Menu","label":"Menu","anchor":"View Menu","url":"https:\/\/foursquare.com\/v\/mcdonalds\/4c5b05825c57c9b60dba1e4a\/menu","mobileUrl":"https:\/\/foursquare.com\/v\/4c5b05825c57c9b60dba1e4a\/device_menu"},"allowMenuUrlEdit":true,"beenHere":{"lastCheckinExpiredAt":0},"specials":{"count":0,"items":[]},"storeId":"708","referralId":"v-1483291010","venueChains":[{"id":"556f7a12bd6a75a9903bddb2"}],"hasPerk":false},{"id":"4b4ea48df964a5203bf326e3","name":"Wendy's","contact":{"phone":"9086201030","formattedPhone":"(908) 620-1030","twitter":"wendys","facebook":"113385204488","facebookUsername":"wendys","facebookName":"Wendy's"},"location":{"address":"210 W 1st Ave","crossStreet":"at Locust St","lat":40.65929195826572,"lng":-74.26701179800197,"labeledLatLngs":[{"label":"display","lat":40.65929195826572,"lng":-74.26701179800197}],"postalCode":"07203","cc":"US","city":"Roselle","state":"NJ","country":"United States","formattedAddress":["210 W 1st Ave (at Locust St)","Roselle, NJ 07203","United States"]},"categories":[{"id":"4bf58dd8d48988d16e941735","name":"Fast Food Restaurant","pluralName":"Fast Food Restaurants","shortName":"Fast Food","icon":{"prefix":"https:\/\/ss3.4sqi.net\/img\/categories_v2\/food\/fastfood_","suffix":".png"},"primary":true}],"verified":true,"stats":{"checkinsCount":1403,"usersCount":413,"tipCount":8},"url":"http:\/\/www.wendys.com","hasMenu":true,"menu":{"type":"Menu","label":"Menu","anchor":"View Menu","url":"https:\/\/foursquare.com\/v\/wendys\/4b4ea48df964a5203bf326e3\/menu","mobileUrl":"https:\/\/foursquare.com\/v\/4b4ea48df964a5203bf326e3\/device_menu"},"allowMenuUrlEdit":true,"beenHere":{"lastCheckinExpiredAt":0},"specials":{"count":0,"items":[]},"storeId":"05798-FS-OP","referralId":"v-1483291010","venueChains":[{"id":"556f46f6bd6a007c77390fa9"}],"hasPerk":false},{"id":"4ca2012646978cfab2c9c07f","name":"7-Eleven","contact":{"phone":"9086868559","formattedPhone":"(908) 686-8559","twitter":"7eleven","facebook":"278730085474358","facebookName":"7-Eleven"},"location":{"address":"2264 Morris Ave","crossStreet":"at Elmwood Ave","lat":40.69894163327749,"lng":-74.28177282360073,"labeledLatLngs":[{"label":"display","lat":40.69894163327749,"lng":-74.28177282360073}],"postalCode":"07083","cc":"US","city":"Union","state":"NJ","country":"United States","formattedAddress":["2264 Morris Ave (at Elmwood Ave)","Union, NJ 07083","United States"]},"categories":[{"id":"4d954b0ea243a5684a65b473","name":"Convenience Store","pluralName":"Convenience Stores","shortName":"Convenience Store","icon":{"prefix":"https:\/\/ss3.4sqi.net\/img\/categories_v2\/shops\/conveniencestore_","suffix":".png"},"primary":true}],"verified":true,"stats":{"checkinsCount":2249,"usersCount":444,"tipCount":2},"url":"http:\/\/www.7-eleven.com","allowMenuUrlEdit":true,"beenHere":{"lastCheckinExpiredAt":0},"specials":{"count":0,"items":[]},"storeId":"39228","referralId":"v-1483291010","venueChains":[{"id":"556f676fbd6a75a99038d8e9"}],"hasPerk":false},{"id":"5644a952498e9c3eca4bb113","name":"River and Rail Cantina","contact":{"facebook":"413241208866879","facebookName":"River and Rail Cantina"},"location":{"address":"230 South Ave E","lat":40.65484340534929,"lng":-74.30167768267648,"labeledLatLngs":[{"label":"display","lat":40.65484340534929,"lng":-74.30167768267648}],"postalCode":"07016","cc":"US","city":"Cranford","state":"NJ","country":"United States","formattedAddress":["230 South Ave E","Cranford, NJ 07016","United States"]},"categories":[{"id":"4bf58dd8d48988d1c1941735","name":"Mexican Restaurant","pluralName":"Mexican Restaurants","shortName":"Mexican","icon":{"prefix":"https:\/\/ss3.4sqi.net\/img\/categories_v2\/food\/mexican_","suffix":".png"},"primary":true}],"verified":false,"stats":{"checkinsCount":419,"usersCount":258,"tipCount":12},"url":"http:\/\/www.randrcantina.com","allowMenuUrlEdit":true,"beenHere":{"lastCheckinExpiredAt":0},"specials":{"count":0,"items":[]},"referralId":"v-1483291010","venueChains":[],"hasPerk":false},{"id":"4b8aab3ff964a520b07832e3","name":"Dunkin' Donuts","contact":{"phone":"9086873336","formattedPhone":"(908) 687-3336","twitter":"dunkindonuts","facebook":"6979393237","facebookUsername":"DunkinDonutsUS","facebookName":"Dunkin' Donuts"},"location":{"address":"1451 Stuyvesant Ave","lat":40.705798830903184,"lng":-74.26065662515845,"labeledLatLngs":[{"label":"display","lat":40.705798830903184,"lng":-74.26065662515845}],"postalCode":"07083","cc":"US","city":"Union","state":"NJ","country":"United States","formattedAddress":["1451 Stuyvesant Ave","Union, NJ 07083","United States"]},"categories":[{"id":"4bf58dd8d48988d148941735","name":"Donut Shop","pluralName":"Donut Shops","shortName":"Donuts","icon":{"prefix":"https:\/\/ss3.4sqi.net\/img\/categories_v2\/food\/donuts_","suffix":".png"},"primary":true}],"verified":true,"stats":{"checkinsCount":2155,"usersCount":463,"tipCount":6},"url":"http:\/\/www.dunkindonuts.com","allowMenuUrlEdit":true,"beenHere":{"lastCheckinExpiredAt":0},"specials":{"count":0,"items":[]},"storeId":"335484","referralId":"v-1483291010","venueChains":[{"id":"556f676fbd6a75a99038d8f0"}],"hasPerk":false},{"id":"4c9d5cf554c8a1cdbe58834b","name":"Dunkin Donuts","contact":{"phone":"--","formattedPhone":"--","twitter":"dunkindonuts","facebook":"6979393237","facebookUsername":"DunkinDonutsUS","facebookName":"Dunkin' Donuts"},"location":{"address":"501 Irvington Ave","lat":40.73687103489812,"lng":-74.25050737401786,"labeledLatLngs":[{"label":"display","lat":40.73687103489812,"lng":-74.25050737401786}],"postalCode":"07106","cc":"US","city":"Newark","state":"NJ","country":"United States","formattedAddress":["501 Irvington Ave","Newark, NJ 07106","United States"]},"categories":[{"id":"4bf58dd8d48988d148941735","name":"Donut Shop","pluralName":"Donut Shops","shortName":"Donuts","icon":{"prefix":"https:\/\/ss3.4sqi.net\/img\/categories_v2\/food\/donuts_","suffix":".png"},"primary":true}],"verified":true,"stats":{"checkinsCount":1149,"usersCount":190,"tipCount":6},"url":"http:\/\/www.dunkindonuts.com","allowMenuUrlEdit":true,"beenHere":{"lastCheckinExpiredAt":0},"specials":{"count":0,"items":[]},"storeId":"349102","referralId":"v-1483291010","venueChains":[{"id":"556f676fbd6a75a99038d8f0"}],"hasPerk":false},{"id":"4b27a903f964a5203c8824e3","name":"Starbucks","contact":{"phone":"9732581986","formattedPhone":"(973) 258-1986","twitter":"starbucks","facebook":"22092443056","facebookUsername":"Starbucks","facebookName":"Starbucks"},"location":{"address":"343 Millburn Avenue","crossStreet":"at Main St","lat":40.724086,"lng":-74.307275,"labeledLatLngs":[{"label":"display","lat":40.724086,"lng":-74.307275}],"postalCode":"07041","cc":"US","city":"Millburn","state":"NJ","country":"United States","formattedAddress":["343 Millburn Avenue (at Main St)","Millburn, NJ 07041","United States"]},"categories":[{"id":"4bf58dd8d48988d1e0931735","name":"Coffee Shop","pluralName":"Coffee Shops","shortName":"Coffee Shop","icon":{"prefix":"https:\/\/ss3.4sqi.net\/img\/categories_v2\/food\/coffeeshop_","suffix":".png"},"primary":true}],"verified":true,"stats":{"checkinsCount":4231,"usersCount":1135,"tipCount":25},"url":"http:\/\/www.starbucks.com\/store\/15037\/","hasMenu":true,"menu":{"type":"Menu","label":"Menu","anchor":"View Menu","url":"http:\/\/www.starbucks.com\/menu","mobileUrl":"http:\/\/www.starbucks.com\/menu","externalUrl":"http:\/\/www.starbucks.com\/menu"},"allowMenuUrlEdit":true,"beenHere":{"lastCheckinExpiredAt":0},"specials":{"count":0,"items":[]},"storeId":"7276","referralId":"v-1483291010","venueChains":[{"id":"556f676fbd6a75a99038d8ec"}],"hasPerk":false}]}}