{"meta":{"code":200,"requestId":"58693980dd57972f67071644"},"response":{"venues":[{"id":"4c5deacad25320a1f57dc77a","name":"QuickChek","contact":{"phone":"2013393965","formattedPhone":"(201) 339-3965","twitter":"QuickChek"},"location":{"address":"20-38 E 53rd St","crossStreet":"btwn Broadway & Ave. E","lat":40.68378078887897,"lng":-74.0999796351583,"labeledLatLngs":[{"label":"display","lat":40.68378078887897,"lng":-74.0999796351583}],"postalCode":"07002","cc":"US","city":"Bayonne","state":"NJ","country":"United States","formattedAddress":["20-38 E 53rd St (btwn Broadway & Ave. E)","Bayonne, NJ 07002","United States"]},"categories":[{"id":"4d954b0ea243a5684a65b473","name":"Convenience Store","pluralName":"Convenience Stores","shortName":"Convenience Store","icon":{"prefix":"https:\/\/ss3.4sqi.net\/img\/categories_v2\/shops\/conveniencestore_","suffix":".png"},"primary":true}],"verified":true,"stats":{"checkinsCount":5182,"usersCount":984,"tipCount":16},"url":"http:\/\/quickchek.com","allowMenuUrlEdit":true,"beenHere":{"lastCheckinExpiredAt":0},"specials":{"count":0,"items":[]},"storeId":"","referralId":"v-1483291008","venueChains":[{"id":"556f431fbd6a007c77388d9e"}],"hasPerk":false},{"id":"508ff199582f493079a7a423","name":"Retro Fitness","contact":{"phone":"2016393709","formattedPhone":"(201) 639-3709","twitter":"retrojerseycity","facebook":"548102865215216","facebookUsername":"RetroFitness.JerseyCity","facebookName":"Retro Fitness of Jersey City"},"location":{"address":"701 State Rt 440","lat":40.72198680513833,"lng":-74.09527063656365,"labeledLatLngs":[{"label":"display","lat":40.72198680513833,"lng":-74.09527063656365}],"postalCode":"07304","cc":"US","city":"Jersey City","state":"NJ","country":"United States","formattedAddress":["701 State Rt 440","Jersey City, NJ 07304","United States"]},"categories":[{"id":"4bf58dd8d48988d175941735","name":"Gym \/ Fitness Center","pluralName":"Gyms or Fitness Centers","shortName":"Gym \/ Fitness","icon":{"prefix":"https:\/\/ss3.4sqi.net\/img\/categories_v2\/building\/gym_","suffix":".png"},"primary":true}],"verified":true,"stats":{"checkinsCount":3814,"usersCount":167,"tipCount":8},"url":"http:\/\/retrofitness.com\/location\/jerseycitynj","allowMenuUrlEdit":true,"beenHere":{"lastCheckinExpiredAt":0},"specials":{"count":0,"items":[]},"venuePage":{"id":"79606557"},"storeId":"","referralId":"v-1483291008","venueChains":[{"id":"556a29ada7c8957d73d38580"}],"hasPerk":false},{"id":"4b481888f964a5201c4826e3","name":"White Castle","contact":{"phone":"2017923645","formattedPhone":"(201) 792-3645","twitter":"whitecastle"},"location":{"address":"2995 John F Kennedy Blvd","lat":40.735678089906486,"lng":-74.06314765419097,"labeledLatLngs":[{"label":"display","lat":40.735678089906486,"lng":-74.06314765419097}],"postalCode":"07306","cc":"US","city":"Jersey City","state":"NJ","country":"United States","formattedAddress":["2995 John F Kennedy Blvd","Jersey City, NJ 07306","United States"]},"categories":[{"id":"4bf58dd8d48988d16c941735","name":"Burger Joint","pluralName":"Burger Joints","shortName":"Burgers","icon":{"prefix":"https:\/\/ss3.4sqi.net\/img\/categories_v2\/food\/burger_","suffix":".png"},"primary":true}],"verified":true,"stats":{"checkinsCount":2875,"usersCount":1571,"tipCount":28},"url":"http:\/\/www.whitecastle.com","hasMenu":true,"menu":{"type":"Menu","label":"Menu","anchor":"View Menu","url":"https:\/\/foursquare.com\/v\/white-castle\/4b481888f964a5201c4826e3\/menu","mobileUrl":"https:\/\/foursquare.com\/v\/4b481888f964a5201c4826e3\/device_menu"},"allowMenuUrlEdit":true,"beenHere":{"lastCheckinExpiredAt":0},"specials":{"count":0,"items":[]},"storeId":"14","referralId":"v-1483291008","venueChains":[{"id":"556ce5abaceaff43eb0528b0"}],"hasPerk":false},{"id":"4c8ab7081eafb1f700e67c35","name":"Jollibee","contact":{"phone":"2019467461","formattedPhone":"(201) 946-7461"},"location":{"address":"393 Danforth Ave","crossStreet":"at Sullivan Dr","lat":40.70405007643559,"lng":-74.09867405891418,"labeledLatLngs":[{"label":"display","lat":40.70405007643559,"lng":-74.09867405891418}],"postalCode":"07305","cc":"US","city":"Jersey City","state":"NJ","country":"United States","formattedAddress":["393 Danforth Ave (at Sullivan Dr)","Jersey City, NJ 07305","United States"]},"categories":[{"id":"4d4ae6fc7a7b7dea34424761","name":"Fried Chicken Joint","pluralName":"Fried Chicken Joints","shortName":"Fried Chicken","icon":{"prefix":"https:\/\/ss3.4sqi.net\/img\/categories_v2\/food\/friedchicken_","suffix":".png"},"primary":true}],"verified":true,"stats":{"checkinsCount":5478,"usersCount":2127,"tipCount":28},"url":"http:\/\/jollibeeusa.com","hasMenu":true,"menu":{"type":"Menu","label":"Menu","anchor":"View Menu","url":"https:\/\/foursquare.com\/v\/jollibee\/4c8ab7081eafb1f700e67c35\/menu","mobileUrl":"https:\/\/foursquare.com\/v\/4c8ab7081eafb1f700e67c35\/device_menu"},"allowMenuUrlEdit":true,"beenHere":{"lastCheckinExpiredAt":0},"specials":{"count":0,"items":[]},"storeId":"Jollibee Jersey City","referralId":"v-1483291008","venueChains":[{"id":"556e57ecbd6a82902e28d04d"}],"hasPerk":false},{"id":"4a762eddf964a52081e21fe3","name":"Broadway Diner","contact":{"phone":"2014377338","formattedPhone":"(201) 437-7338"},"location":{"address":"1075 Broadway","crossStreet":"at W 53rd St.","lat":40.684971319641114,"lng":-74.10066217206521,"labeledLatLngs":[{"label":"display","lat":40.684971319641114,"lng":-74.10066217206521}],"postalCode":"07002","cc":"US","city":"Bayonne","state":"NJ","country":"United States","formattedAddress":["1075 Broadway (at W 53rd St.)","Bayonne, NJ 07002","United States"]},"categories":[{"id":"4bf58dd8d48988d147941735","name":"Diner","pluralName":"Diners","shortName":"Diner","icon":{"prefix":"https:\/\/ss3.4sqi.net\/img\/categories_v2\/food\/diner_","suffix":".png"},"primary":true}],"verified":false,"stats":{"checkinsCount":4438,"usersCount":1334,"tipCount":28},"url":"http:\/\/broadwaybistrobayonne.com\/bayonne.html","hasMenu":true,"menu":{"type":"Menu","label":"Menu","anchor":"View Menu","url":"https:\/\/foursquare.com\/v\/broadway-diner\/4a762eddf964a52081e21fe3\/menu","mobileUrl":"https:\/\/foursquare.com\/v\/4a762eddf964a52081e21fe3\/device_menu"},"allowMenuUrlEdit":true,"beenHere":{"lastCheckinExpiredAt":0},"specials":{"count":0,"items":[]},"referralId":"v-1483291008","venueChains":[],"hasPerk":false},{"id":"5479ce86498e3c86ae98f680","name":"Wonder Bagels","contact":{},"location":{"address":"729 Bergen Ave","crossStreet":"Fairmount Avenue","lat":40.72475627283786,"lng":-74.06922275855236,"labeledLatLngs":[{"label":"display","lat":40.72475627283786,"lng":-74.06922275855236}],"postalCode":"07306","cc":"US","city":"Jersey City","state":"NJ","country":"United States","formattedAddress":["729 Bergen Ave (Fairmount Avenue)","Jersey City, NJ 07306","United States"]},"categories":[{"id":"4bf58dd8d48988d179941735","name":"Bagel Shop","pluralName":"Bagel Shops","shortName":"Bagels","icon":{"prefix":"https:\/\/ss3.4sqi.net\/img\/categories_v2\/food\/bagels_","suffix":".png"},"primary":true}],"verified":false,"stats":{"checkinsCount":718,"usersCount":118,"tipCount":4},"url":"http:\/\/wonderbagels.com","menu":{"type":"Menu","label":"Menu","anchor":"View Menu","url":"http:\/\/wonderbagels.com\/food-menu\/#mix","mobileUrl":"http:\/\/wonderbagels.com\/food-menu\/#mix","externalUrl":"http:\/\/wonderbagels.com\/food-menu\/#mix"},"allowMenuUrlEdit":true,"beenHere":{"lastCheckinExpiredAt":0},"specials":{"count":0,"items":[]},"referralId":"v-1483291008","venueChains":[],"hasPerk":false},{"id":"4bf0bac1f45ec9289430943c","name":"McDonald's","contact":{"phone":"2013336889","formattedPhone":"(201) 333-6889"},"location":{"address":"891 Communipaw Ave","lat":40.72219914420007,"lng":-74.08522705600969,"labeledLatLngs":[{"label":"display","lat":40.72219914420007,"lng":-74.08522705600969}],"postalCode":"07304","cc":"US","city":"Jersey City","state":"NJ","country":"United States","formattedAddress":["891 Communipaw Ave","Jersey City, NJ 07304","United States"]},"categories":[{"id":"4bf58dd8d48988d16e941735","name":"Fast Food Restaurant","pluralName":"Fast Food Restaurants","shortName":"Fast Food","icon":{"prefix":"https:\/\/ss3.4sqi.net\/img\/categories_v2\/food\/fastfood_","suffix":".png"},"primary":true}],"verified":true,"stats":{"checkinsCount":1625,"usersCount":635,"tipCount":24},"url":"http:\/\/mcdonalds.com","hasMenu":true,"menu":{"type":"Menu","label":"Menu","anchor":"View Menu","url":"https:\/\/foursquare.com\/v\/mcdonalds\/4bf0bac1f45ec9289430943c\/menu","mobileUrl":"https:\/\/foursquare.com\/v\/4bf0bac1f45ec9289430943c\/device_menu"},"allowMenuUrlEdit":true,"beenHere":{"lastCheckinExpiredAt":0},"specials":{"count":0,"items":[]},"storeId":"2286","referralId":"v-1483291008","venueChains":[{"id":"556f7a12bd6a75a9903bddb2"}],"hasPerk":false},{"id":"4b7f4a48f964a5203c2530e3","name":"Fernandes Steakhouse","contact":{"phone":"9735894344","formattedPhone":"(973) 589-4344"},"location":{"address":"158 Fleming Ave","crossStreet":"at Chapel St","lat":40.73246518167688,"lng":-74.13992706347398,"labeledLatLngs":[{"label":"display","lat":40.73246518167688,"lng":-74.13992706347398}],"postalCode":"07105","cc":"US","city":"Newark","state":"NJ","country":"United States","formattedAddress":["158 Fleming Ave (at Chapel St)","Newark, NJ 07105","United States"]},"categories":[{"id":"4bf58dd8d48988d1cc941735","name":"Steakhouse","pluralName":"Steakhouses","shortName":"Steakhouse","icon":{"prefix":"https:\/\/ss3.4sqi.net\/img\/categories_v2\/food\/steakhouse_","suffix":".png"},"primary":true}],"verified":false,"stats":{"checkinsCount":3359,"usersCount":2066,"tipCount":56},"url":"http:\/\/www.fernandessteakhouse.com","hasMenu":true,"menu":{"type":"Menu","label":"Menu","anchor":"View Menu","url":"https:\/\/foursquare.com\/v\/fernandes-steakhouse\/4b7f4a48f964a5203c2530e3\/menu","mobileUrl":"https:\/\/foursquare.com\/v\/4b7f4a48f964a5203c2530e3\/device_menu"},"allowMenuUrlEdit":true,"beenHere":{"lastCheckinExpiredAt":0},"specials":{"count":0,"items":[]},"referralId":"v-1483291008","venueChains":[],"hasPerk":false},{"id":"566e07e4498e0e75baa42a5e","name":"The Grind Shop","contact":{},"location":{"address":"360 Communipaw Ave","lat":40.71168971405726,"lng":-74.06291818467014,"labeledLatLngs":[{"label":"display","lat":40.71168971405726,"lng":-74.06291818467014}],"postalCode":"07304","cc":"US","city":"Jersey City","state":"NJ","country":"United States","formattedAddress":["360 Communipaw Ave","Jersey City, NJ 07304","United States"]},"categories":[{"id":"4bf58dd8d48988d1e0931735","name":"Coffee Shop","pluralName":"Coffee Shops","shortName":"Coffee Shop","icon":{"prefix":"https:\/\/ss3.4sqi.net\/img\/categories_v2\/food\/coffeeshop_","suffix":".png"},"primary":true}],"verified":false,"stats":{"checkinsCount":168,"usersCount":58,"tipCount":4},"url":"http:\/\/www.grindcoffeejc.com","allowMenuUrlEdit":true,"beenHere":{"lastCheckinExpiredAt":0},"specials":{"count":0,"items":[]},"referralId":"v-1483291008","venueChains":[],"hasPerk":false},{"id":"4bb7de5c53649c748c6946fb","name":"Big Apple Lounge & Restaurant","contact":{"phone":"2015153789","formattedPhone":"(201) 515-3789"},"location":{"address":"414 Broadway","lat":40.66121789804922,"lng":-74.12055215806458,"labeledLatLngs":[{"label":"display","lat":40.66121789804922,"lng":-74.12055215806458}],"postalCode":"07002","cc":"US","city":"Bayonne","state":"NJ","country":"United States","formattedAddress":["414 Broadway","Bayonne, NJ 07002","United States"]},"categories":[{"id":"4bf58dd8d48988d11d941735","name":"Sports Bar","pluralName":"Sports Bars","shortName":"Sports Bar","icon":{"prefix":"https:\/\/ss3.4sqi.net\/img\/categories_v2\/nightlife\/sportsbar_","suffix":".png"},"primary":true}],"verified":false,"stats":{"checkinsCount":2288,"usersCount":594,"tipCount":13},"url":"http:\/\/www.bigapplesportspalace.net","hasMenu":true,"menu":{"type":"Menu","label":"Menu","anchor":"View Menu","url":"https:\/\/foursquare.com\/v\/big-apple-lounge--restaurant\/4bb7de5c53649c748c6946fb\/menu","mobileUrl":"https:\/\/foursquare.com\/v\/4bb7de5c53649c748c6946fb\/device_menu"},"allowMenuUrlEdit":true,"beenHere":{"lastCheckinExpiredAt":0},"specials":{"count":0,"items":[]},"referralId":"v-1483291008","venueChains":[],"hasPerk":false},{"id":"4c0632fd5753c928fc7e3af1","name":"VIP Diner","contact":{"phone":"2017921400","formattedPhone":"(201) 792-1400","facebook":"111189905581933","facebookName":"VIP Restaurant Diner"},"location":{"address":"175 Sip Ave","crossStreet":"at John F. Kennedy Blvd.","lat":40.7312347309452,"lng":-74.06740999995758,"labeledLatLngs":[{"label":"display","lat":40.7312347309452,"lng":-74.06740999995758}],"postalCode":"07306","cc":"US","city":"Jersey City","state":"NJ","country":"United States","formattedAddress":["175 Sip Ave (at John F. Kennedy Blvd.)","Jersey City, NJ 07306","United States"]},"categories":[{"id":"4bf58dd8d48988d147941735","name":"Diner","pluralName":"Diners","shortName":"Diner","icon":{"prefix":"https:\/\/ss3.4sqi.net\/img\/categories_v2\/food\/diner_","suffix":".png"},"primary":true}],"verified":false,"stats":{"checkinsCount":3366,"usersCount":1153,"tipCount":37},"hasMenu":true,"menu":{"type":"Menu","label":"Menu","anchor":"View Menu","url":"https:\/\/foursquare.com\/v\/vip-diner\/4c0632fd5753c928fc7e3af1\/menu","mobileUrl":"https:\/\/foursquare.com\/v\/4c0632fd5753c928fc7e3af1\/device_menu"},"allowMenuUrlEdit":true,"beenHere":{"lastCheckinExpiredAt":0},"specials":{"count":0,"items":[]},"referralId":"v-1483291008","venueChains":[],"hasPerk":false},{"id":"4c26cfbfc11dc9b674bb2924","name":"Dunkin' Donuts","contact":{"phone":"2012090320","formattedPhone":"(201) 209-0320","twitter":"dunkindonuts","facebook":"6979393237","facebookUsername":"DunkinDonutsUS","facebookName":"Dunkin' Donuts"},"location":{"address":"2 Garfield Avenue Twin City Shop\/Cent","lat":40.68584503000695,"lng":-74.0987491607666,"labeledLatLngs":[{"label":"display","lat":40.68584503000695,"lng":-74.0987491607666}],"postalCode":"7305","cc":"US","city":"Jersey City","state":"NJ","country":"United States","formattedAddress":["2 Garfield Avenue Twin City Shop\/Cent","Jersey City, NJ 7305","United States"]},"categories":[{"id":"4bf58dd8d48988d148941735","name":"Donut Shop","pluralName":"Donut Shops","shortName":"Donuts","icon":{"prefix":"https:\/\/ss3.4sqi.net\/img\/categories_v2\/food\/donuts_","suffix":".png"},"primary":true}],"verified":true,"stats":{"checkinsCount":2610,"usersCount":470,"tipCount":11},"url":"http:\/\/www.dunkindonuts.com","allowMenuUrlEdit":true,"beenHere":{"lastCheckinExpiredAt":0},"specials":{"count":0,"items":[]},"storeId":"334685","referralId":"v-1483291008","venueChains":[{"id":"556f676fbd6a75a99038d8f0"}],"hasPerk":false},{"id":"4a6aef1bf964a520e6cd1fe3","name":"Wonder Bagels","contact":{"phone":"2013326064","formattedPhone":"(201) 332-6064"},"location":{"address":"433 Sip Ave","crossStreet":"Route 440","lat":40.73428684063135,"lng":-74.0805922592608,"labeledLatLngs":[{"label":"display","lat":40.73428684063135,"lng":-74.0805922592608}],"postalCode":"07306","cc":"US","city":"Jersey City","state":"NJ","country":"United States","formattedAddress":["433 Sip Ave (Route 440)","Jersey City, NJ 07306","United States"]},"categories":[{"id":"4bf58dd8d48988d179941735","name":"Bagel Shop","pluralName":"Bagel Shops","shortName":"Bagels","icon":{"prefix":"https:\/\/ss3.4sqi.net\/img\/categories_v2\/food\/bagels_","suffix":".png"},"primary":true}],"verified":false,"stats":{"checkinsCount":2579,"usersCount":745,"tipCount":26},"url":"http:\/\/wonderbagels.com","hasMenu":true,"menu":{"type":"Menu","label":"Menu","anchor":"View Menu","url":"https:\/\/foursquare.com\/v\/wonder-bagels\/4a6aef1bf964a520e6cd1fe3\/menu","mobileUrl":"https:\/\/foursquare.com\/v\/4a6aef1bf964a520e6cd1fe3\/device_menu"},"allowMenuUrlEdit":true,"beenHere":{"lastCheckinExpiredAt":0},"specials":{"count":0,"items":[]},"referralId":"v-1483291008","venueChains":[],"hasPerk":false},{"id":"4a57820bf964a52046b61fe3","name":"Neptune Bakery & Deli","contact":{},"location":{"address":"1612 John F Kennedy Blvd","lat":40.69633354162442,"lng":-74.09825320721735,"labeledLatLngs":[{"label":"display","lat":40.69633354162442,"lng":-74.09825320721735}],"postalCode":"07305","cc":"US","city":"Jersey City","state":"NJ","country":"United States","formattedAddress":["1612 John F Kennedy Blvd","Jersey City, NJ 07305","United States"]},"categories":[{"id":"4bf58dd8d48988d16a941735","name":"Bakery","pluralName":"Bakeries","shortName":"Bakery","icon":{"prefix":"https:\/\/ss3.4sqi.net\/img\/categories_v2\/food\/bakery_","suffix":".png"},"primary":true}],"verified":false,"stats":{"checkinsCount":1082,"usersCount":340,"tipCount":14},"allowMenuUrlEdit":true,"beenHere":{"lastCheckinExpiredAt":0},"specials":{"count":0,"items":[]},"referralId":"v-1483291008","venueChains":[],"hasPerk":false},{"id":"4ba8bbb4f964a520a1ea39e3","name":"Wonder Bagels","contact":{"phone":"2013241540","formattedPhone":"(201) 324-1540"},"location":{"address":"440 Danforth Ave","lat":40.70563267551681,"lng":-74.0993544521199,"labeledLatLngs":[{"label":"display","lat":40.70563267551681,"lng":-74.0993544521199}],"postalCode":"07305","cc":"US","city":"Jersey City","state":"NJ","country":"United States","formattedAddress":["440 Danforth Ave","Jersey City, NJ 07305","United States"]},"categories":[{"id":"4bf58dd8d48988d179941735","name":"Bagel Shop","pluralName":"Bagel Shops","shortName":"Bagels","icon":{"prefix":"https:\/\/ss3.4sqi.net\/img\/categories_v2\/food\/bagels_","suffix":".png"},"primary":true}],"verified":false,"stats":{"checkinsCount":2024,"usersCount":380,"tipCount":14},"url":"http:\/\/wonderbagels.com","hasMenu":true,"menu":{"type":"Menu","label":"Menu","anchor":"View Menu","url":"https:\/\/foursquare.com\/v\/wonder-bagels\/4ba8bbb4f964a520a1ea39e3\/menu","mobileUrl":"https:\/\/foursquare.com\/v\/4ba8bbb4f964a520a1ea39e3\/device_menu"},"allowMenuUrlEdit":true,"beenHere":{"lastCheckinExpiredAt":0},"specials":{"count":0,"items":[]},"referralId":"v-1483291008","venueChains":[],"hasPerk":false},{"id":"4cb75aa356fca1cdeef85c18","name":"El Sol Del Caribe","contact":{},"location":{"address":"150 Sterling Ave","crossStreet":"Woodlawn Ave","lat":40.70721402165037,"lng":-74.0921790374731,"labeledLatLngs":[{"label":"display","lat":40.70721402165037,"lng":-74.0921790374731}],"postalCode":"07305","cc":"US","city":"Jersey City","state":"NJ","country":"United States","formattedAddress":["150 Sterling Ave (Woodlawn Ave)","Jersey City, NJ 07305","United States"]},"categories":[{"id":"4bf58dd8d48988d150941735","name":"Spanish Restaurant","pluralName":"Spanish Restaurants","shortName":"Spanish","icon":{"prefix":"https:\/\/ss3.4sqi.net\/img\/categories_v2\/food\/spanish_","suffix":".png"},"primary":true}],"verified":false,"stats":{"checkinsCount":431,"usersCount":100,"tipCount":5},"allowMenuUrlEdit":true,"beenHere":{"lastCheckinExpiredAt":0},"specials":{"count":0,"items":[]},"referralId":"v-1483291008","venueChains":[],"hasPerk":false},{"id":"4c1249f2a9c220a157a8539d","name":"IHOP","contact":{"phone":"2014320400","formattedPhone":"(201) 432-0400","twitter":"IHOP","facebook":"10036618151","facebookUsername":"IHOP","facebookName":"IHOP"},"location":{"address":"700 Route 440 c\/o IHOP #4686","lat":40.72284,"lng":-74.0908,"labeledLatLngs":[{"label":"display","lat":40.72284,"lng":-74.0908}],"postalCode":"07304","cc":"US","city":"Jersey City","state":"NJ","country":"United States","formattedAddress":["700 Route 440 c\/o IHOP #4686","Jersey City, NJ 07304","United States"]},"categories":[{"id":"4bf58dd8d48988d143941735","name":"Breakfast Spot","pluralName":"Breakfast Spots","shortName":"Breakfast","icon":{"prefix":"https:\/\/ss3.4sqi.net\/img\/categories_v2\/food\/breakfast_","suffix":".png"},"primary":true}],"verified":true,"stats":{"checkinsCount":3443,"usersCount":1721,"tipCount":15},"url":"http:\/\/restaurants.ihop.com\/nj\/jersey-city\/4686\/","hasMenu":true,"menu":{"type":"Menu","label":"Menu","anchor":"View Menu","url":"http:\/\/www.ihop.com\/menus\/main-menu","mobileUrl":"http:\/\/www.ihop.com\/menus\/main-menu","externalUrl":"http:\/\/www.ihop.com\/menus\/main-menu"},"allowMenuUrlEdit":true,"beenHere":{"lastCheckinExpiredAt":0},"specials":{"count":0,"items":[]},"storeId":"4686","referralId":"v-1483291008","venueChains":[{"id":"556e0f6fa7c82e6b724f8c84"}],"hasPerk":false},{"id":"511e6f76e4b027f36b5e89f3","name":"Wonder Bagels","contact":{},"location":{"address":"Bayonne Crossing Way","lat":40.662471190639025,"lng":-74.10591016716432,"labeledLatLngs":[{"label":"display","lat":40.662471190639025,"lng":-74.10591016716432}],"postalCode":"07002","cc":"US","city":"Bayonne","state":"NJ","country":"United States","formattedAddress":["Bayonne Crossing Way","Bayonne, NJ 07002","United States"]},"categories":[{"id":"4bf58dd8d48988d179941735","name":"Bagel Shop","pluralName":"Bagel Shops","shortName":"Bagels","icon":{"prefix":"https:\/\/ss3.4sqi.net\/img\/categories_v2\/food\/bagels_","suffix":".png"},"primary":true}],"verified":false,"stats":{"checkinsCount":786,"usersCount":193,"tipCount":6},"url":"http:\/\/wonderbagels.com","allowMenuUrlEdit":true,"beenHere":{"lastCheckinExpiredAt":0},"specials":{"count":0,"items":[]},"referralId":"v-1483291008","venueChains":[],"hasPerk":false},{"id":"4b38e9a1f964a520175225e3","name":"Houlihan's","contact":{"phone":"2018580400","formattedPhone":"(201) 858-0400","twitter":"houlihans"},"location":{"address":"151 Lefante Way","crossStreet":"at Rte. 440","lat":40.66804190055108,"lng":-74.10415649414062,"labeledLatLngs":[{"label":"display","lat":40.66804190055108,"lng":-74.10415649414062}],"postalCode":"07002","cc":"US","city":"Bayonne","state":"NJ","country":"United States","formattedAddress":["151 Lefante Way (at Rte. 440)","Bayonne, NJ 07002","United States"]},"categories":[{"id":"4bf58dd8d48988d14e941735","name":"American Restaurant","pluralName":"American Restaurants","shortName":"American","icon":{"prefix":"https:\/\/ss3.4sqi.net\/img\/categories_v2\/food\/default_","suffix":".png"},"primary":true}],"verified":true,"stats":{"checkinsCount":6580,"usersCount":2018,"tipCount":42},"url":"http:\/\/www.houlihans.com","hasMenu":true,"menu":{"type":"Menu","label":"Menu","anchor":"View Menu","url":"https:\/\/foursquare.com\/v\/houlihans\/4b38e9a1f964a520175225e3\/menu","mobileUrl":"https:\/\/foursquare.com\/v\/4b38e9a1f964a520175225e3\/device_menu"},"allowMenuUrlEdit":true,"beenHere":{"lastCheckinExpiredAt":0},"specials":{"count":0,"items":[]},"storeId":"","referralId":"v-1483291008","venueChains":[{"id":"556a2b49a7c8957d73d3b630"}],"hasPerk":false},{"id":"4d97dc75a2c65481e5bae453","name":"Betel Bakery","contact":{"phone":"9733446060","formattedPhone":"(973) 344-6060"},"location":{"address":"336 Ferry St","lat":40.729349482986954,"lng":-74.14885217225118,"labeledLatLngs":[{"label":"display","lat":40.729349482986954,"lng":-74.14885217225118}],"postalCode":"07105","cc":"US","city":"Newark","state":"NJ","country":"United States","formattedAddress":["336 Ferry St","Newark, NJ 07105","United States"]},"categories":[{"id":"4bf58dd8d48988d16b941735","name":"Brazilian Restaurant","pluralName":"Brazilian Restaurants","shortName":"Brazilian","icon":{"prefix":"https:\/\/ss3.4sqi.net\/img\/categories_v2\/food\/argentinian_","suffix":".png"},"primary":true}],"verified":false,"stats":{"checkinsCount":366,"usersCount":112,"tipCount":13},"allowMenuUrlEdit":true,"beenHere":{"lastCheckinExpiredAt":0},"specials":{"count":0,"items":[]},"referralId":"v-1483291008","venueChains":[],"hasPerk":false},{"id":"4c3b245c1a1cd13a34d5b50d","name":"7-Eleven","contact":{"phone":"2014363430","formattedPhone":"(201) 436-3430","twitter":"7eleven","facebook":"153556171397341","facebookUsername":"7ElevenBayonne32260","facebookName":"7-Eleven"},"location":{"address":"463-467 Avenue C","crossStreet":"at 20th St.","lat":40.66357131808438,"lng":-74.1223461623534,"labeledLatLngs":[{"label":"display","lat":40.66357131808438,"lng":-74.1223461623534}],"postalCode":"07002","cc":"US","city":"Bayonne","state":"NJ","country":"United States","formattedAddress":["463-467 Avenue C (at 20th St.)","Bayonne, NJ 07002","United States"]},"categories":[{"id":"4d954b0ea243a5684a65b473","name":"Convenience Store","pluralName":"Convenience Stores","shortName":"Convenience Store","icon":{"prefix":"https:\/\/ss3.4sqi.net\/img\/categories_v2\/shops\/conveniencestore_","suffix":".png"},"primary":true}],"verified":true,"stats":{"checkinsCount":649,"usersCount":183,"tipCount":3},"url":"http:\/\/www.7-eleven.com","allowMenuUrlEdit":true,"beenHere":{"lastCheckinExpiredAt":0},"specials":{"count":0,"items":[]},"storeId":"32260","referralId":"v-1483291008","venueChains":[{"id":"556f676fbd6a75a99038d8e9"}],"hasPerk":false},{"id":"4bf7f00c5317a59373ccfe7e","name":"Dunkin' Donuts","contact":{"phone":"2014378080","formattedPhone":"(201) 437-8080","twitter":"dunkindonuts","facebook":"6979393237","facebookUsername":"DunkinDonutsUS","facebookName":"Dunkin' Donuts"},"location":{"address":"171 Lefante Way","crossStreet":"at Rt. 440 N","lat":40.668692045983455,"lng":-74.10709739818067,"labeledLatLngs":[{"label":"display","lat":40.668692045983455,"lng":-74.10709739818067}],"postalCode":"07002","cc":"US","city":"Bayonne","state":"NJ","country":"United States","formattedAddress":["171 Lefante Way (at Rt. 440 N)","Bayonne, NJ 07002","United States"]},"categories":[{"id":"4bf58dd8d48988d148941735","name":"Donut Shop","pluralName":"Donut Shops","shortName":"Donuts","icon":{"prefix":"https:\/\/ss3.4sqi.net\/img\/categories_v2\/food\/donuts_","suffix":".png"},"primary":true}],"verified":true,"stats":{"checkinsCount":2140,"usersCount":704,"tipCount":19},"url":"http:\/\/www.dunkindonuts.com","allowMenuUrlEdit":true,"beenHere":{"lastCheckinExpiredAt":0},"specials":{"count":0,"items":[]},"storeId":"339005","referralId":"v-1483291008","venueChains":[{"id":"556f676fbd6a75a99038d8f0"}],"hasPerk":false},{"id":"4bfd74798992a5938d26acb0","name":"Dunkin Donuts","contact":{"phone":"2013324300","formattedPhone":"(201) 332-4300","twitter":"dunkindonuts","facebook":"6979393237","facebookUsername":"DunkinDonutsUS","facebookName":"Dunkin' Donuts"},"location":{"address":"31 Broadway","crossStreet":"at Van Wagenen Ave.","lat":40.73525932514209,"lng":-74.06907360818477,"labeledLatLngs":[{"label":"display","lat":40.73525932514209,"lng":-74.06907360818477}],"postalCode":"07306","cc":"US","city":"Jersey City","state":"NJ","country":"United States","formattedAddress":["31 Broadway (at Van Wagenen Ave.)","Jersey City, NJ 07306","United States"]},"categories":[{"id":"4bf58dd8d48988d148941735","name":"Donut Shop","pluralName":"Donut Shops","shortName":"Donuts","icon":{"prefix":"https:\/\/ss3.4sqi.net\/img\/categories_v2\/food\/donuts_","suffix":".png"},"primary":true}],"verified":true,"stats":{"checkinsCount":893,"usersCount":292,"tipCount":7},"url":"http:\/\/www.dunkindonuts.com","allowMenuUrlEdit":true,"beenHere":{"lastCheckinExpiredAt":0},"specials":{"count":0,"items":[]},"storeId":"338581","referralId":"v-1483291008","venueChains":[{"id":"556f676fbd6a75a99038d8f0"}],"hasPerk":false},{"id":"4f2312186aa3ce55794925d2","name":"QuickChek","contact":{"phone":"2018589545","formattedPhone":"(201) 858-9545","twitter":"quickchek"},"location":{"address":"260-280 Broadway & 12th","lat":40.656244560845295,"lng":-74.12455513548669,"labeledLatLngs":[{"label":"display","lat":40.656244560845295,"lng":-74.12455513548669}],"postalCode":"7002","cc":"US","city":"Bayonne","state":"NJ","country":"United States","formattedAddress":["260-280 Broadway & 12th","Bayonne, NJ 7002","United States"]},"categories":[{"id":"4d954b0ea243a5684a65b473","name":"Convenience Store","pluralName":"Convenience Stores","shortName":"Convenience Store","icon":{"prefix":"https:\/\/ss3.4sqi.net\/img\/categories_v2\/shops\/conveniencestore_","suffix":".png"},"primary":true}],"verified":true,"stats":{"checkinsCount":3693,"usersCount":405,"tipCount":8},"url":"https:\/\/www.facebook.com\/Quick.Chek.GetFresh.GoFast","hasMenu":true,"menu":{"type":"Products","label":"Products","anchor":"View Products","url":"https:\/\/foursquare.com\/v\/quickchek\/4f2312186aa3ce55794925d2\/menu","mobileUrl":"https:\/\/foursquare.com\/v\/4f2312186aa3ce55794925d2\/device_menu"},"allowMenuUrlEdit":true,"beenHere":{"lastCheckinExpiredAt":0},"specials":{"count":0,"items":[]},"storeId":"","referralId":"v-1483291008","venueChains":[{"id":"556f431fbd6a007c77388d9e"}],"hasPerk":false},{"id":"508868cce4b05996658366d9","name":"Egg O' Mania","contact":{"phone":"2016304620","formattedPhone":"(201) 630-4620"},"location":{"address":"14 Liberty Ave","crossStreet":"Newark Ave","lat":40.736163042546536,"lng":-74.06483424663256,"labeledLatLngs":[{"label":"display","lat":40.736163042546536,"lng":-74.06483424663256}],"postalCode":"07306","cc":"US","city":"Jersey City","state":"NJ","country":"United States","formattedAddress":["14 Liberty Ave (Newark Ave)","Jersey City, NJ 07306","United States"]},"categories":[{"id":"4bf58dd8d48988d10f941735","name":"Indian Restaurant","pluralName":"Indian Restaurants","shortName":"Indian","icon":{"prefix":"https:\/\/ss3.4sqi.net\/img\/categories_v2\/food\/indian_","suffix":".png"},"primary":true}],"verified":false,"stats":{"checkinsCount":608,"usersCount":275,"tipCount":13},"url":"http:\/\/eggomanianj.com","allowMenuUrlEdit":true,"beenHere":{"lastCheckinExpiredAt":0},"specials":{"count":0,"items":[]},"referralId":"v-1483291008","venueChains":[],"hasPerk":false},{"id":"55cfbdb1498e4eca30288d08","name":"Bawarchi Biryani Corner","contact":{"phone":"2016109900","formattedPhone":"(201) 610-9900"},"location":{"address":"839 Newark Ave","lat":40.73571014404297,"lng":-74.06666564941406,"labeledLatLngs":[{"label":"display","lat":40.73571014404297,"lng":-74.06666564941406}],"postalCode":"07306","cc":"US","city":"Jersey City","state":"NJ","country":"United States","formattedAddress":["839 Newark Ave","Jersey City, NJ 07306","United States"]},"categories":[{"id":"54135bf5e4b08f3d2429dfde","name":"South Indian Restaurant","pluralName":"South Indian Restaurants","shortName":"South Indian","icon":{"prefix":"https:\/\/ss3.4sqi.net\/img\/categories_v2\/food\/default_","suffix":".png"},"primary":true}],"verified":false,"stats":{"checkinsCount":370,"usersCount":141,"tipCount":3},"allowMenuUrlEdit":true,"beenHere":{"lastCheckinExpiredAt":0},"specials":{"count":0,"items":[]},"referralId":"v-1483291008","venueChains":[],"hasPerk":false},{"id":"4c169c3a5e88c928cc662466","name":"Dunkin Donuts","contact":{"phone":"2012169797","formattedPhone":"(201) 216-9797","twitter":"dunkindonuts","facebook":"6979393237","facebookUsername":"DunkinDonutsUS","facebookName":"Dunkin' Donuts"},"location":{"address":"40 Journal Sq","lat":40.73101528319157,"lng":-74.06447857192605,"labeledLatLngs":[{"label":"display","lat":40.73101528319157,"lng":-74.06447857192605}],"postalCode":"07306","cc":"US","city":"Jersey City","state":"NJ","country":"United States","formattedAddress":["40 Journal Sq","Jersey City, NJ 07306","United States"]},"categories":[{"id":"4bf58dd8d48988d148941735","name":"Donut Shop","pluralName":"Donut Shops","shortName":"Donuts","icon":{"prefix":"https:\/\/ss3.4sqi.net\/img\/categories_v2\/food\/donuts_","suffix":".png"},"primary":true}],"verified":true,"stats":{"checkinsCount":2504,"usersCount":743,"tipCount":18},"url":"http:\/\/www.dunkindonuts.com","hasMenu":true,"menu":{"type":"Menu","label":"Menu","anchor":"View Menu","url":"https:\/\/foursquare.com\/v\/dunkin-donuts\/4c169c3a5e88c928cc662466\/menu","mobileUrl":"https:\/\/foursquare.com\/v\/4c169c3a5e88c928cc662466\/device_menu"},"allowMenuUrlEdit":true,"beenHere":{"lastCheckinExpiredAt":0},"specials":{"count":0,"items":[]},"storeId":"330060","referralId":"v-1483291008","venueChains":[{"id":"556f676fbd6a75a99038d8f0"}],"hasPerk":false},{"id":"4c1a30cd834e2d7f18782b80","name":"McDonald's","contact":{"phone":"2016100029","formattedPhone":"(201) 610-0029"},"location":{"address":"2873 John F Kennedy Blvd","lat":40.73160778710891,"lng":-74.06484571999904,"labeledLatLngs":[{"label":"display","lat":40.73160778710891,"lng":-74.06484571999904}],"postalCode":"07306","cc":"US","city":"Jersey City","state":"NJ","country":"United States","formattedAddress":["2873 John F Kennedy Blvd","Jersey City, NJ 07306","United States"]},"categories":[{"id":"4bf58dd8d48988d16e941735","name":"Fast Food Restaurant","pluralName":"Fast Food Restaurants","shortName":"Fast Food","icon":{"prefix":"https:\/\/ss3.4sqi.net\/img\/categories_v2\/food\/fastfood_","suffix":".png"},"primary":true}],"verified":true,"stats":{"checkinsCount":1602,"usersCount":623,"tipCount":15},"url":"http:\/\/mcdonalds.com","hasMenu":true,"menu":{"type":"Menu","label":"Menu","anchor":"View Menu","url":"https:\/\/foursquare.com\/v\/mcdonalds\/4c1a30cd834e2d7f18782b80\/menu","mobileUrl":"https:\/\/foursquare.com\/v\/4c1a30cd834e2d7f18782b80\/device_menu"},"allowMenuUrlEdit":true,"beenHere":{"lastCheckinExpiredAt":0},"specials":{"count":0,"items":[]},"storeId":"32721","referralId":"v-1483291008","venueChains":[{"id":"556f7a12bd6a75a9903bddb2"}],"hasPerk":false},{"id":"4b599e9cf964a520418f28e3","name":"Dunkin Donuts","contact":{"phone":"2014337197","formattedPhone":"(201) 433-7197","twitter":"dunkindonuts","facebook":"6979393237","facebookUsername":"DunkinDonutsUS","facebookName":"Dunkin' Donuts"},"location":{"address":"725 State Rt 440","crossStreet":"Near Hudson Mall","lat":40.7227380172141,"lng":-74.09164667129517,"labeledLatLngs":[{"label":"display","lat":40.7227380172141,"lng":-74.09164667129517}],"postalCode":"07304","cc":"US","city":"Jersey City","state":"NJ","country":"United States","formattedAddress":["725 State Rt 440 (Near Hudson Mall)","Jersey City, NJ 07304","United States"]},"categories":[{"id":"4bf58dd8d48988d148941735","name":"Donut Shop","pluralName":"Donut Shops","shortName":"Donuts","icon":{"prefix":"https:\/\/ss3.4sqi.net\/img\/categories_v2\/food\/donuts_","suffix":".png"},"primary":true}],"verified":true,"stats":{"checkinsCount":2504,"usersCount":799,"tipCount":14},"url":"http:\/\/www.dunkindonuts.com","allowMenuUrlEdit":true,"beenHere":{"lastCheckinExpiredAt":0},"specials":{"count":0,"items":[]},"storeId":"304243","referralId":"v-1483291008","venueChains":[{"id":"556f676fbd6a75a99038d8f0"}],"hasPerk":false},{"id":"55353b4f498efaf6bf0b0ffc","name":"Dunkin' Donuts","contact":{},"location":{"address":"MLK Drive","lat":40.710911,"lng":-74.079443,"labeledLatLngs":[{"label":"display","lat":40.710911,"lng":-74.079443}],"cc":"US","city":"Jersey City","state":"NJ","country":"United States","formattedAddress":["MLK Drive","Jersey City, NJ","United States"]},"categories":[{"id":"4bf58dd8d48988d1e0931735","name":"Coffee Shop","pluralName":"Coffee Shops","shortName":"Coffee Shop","icon":{"prefix":"https:\/\/ss3.4sqi.net\/img\/categories_v2\/food\/coffeeshop_","suffix":".png"},"primary":true}],"verified":false,"stats":{"checkinsCount":49,"usersCount":16,"tipCount":0},"allowMenuUrlEdit":true,"beenHere":{"lastCheckinExpiredAt":0},"specials":{"count":0,"items":[]},"referralId":"v-1483291008","venueChains":[{"id":"556f676fbd6a75a99038d8f0"}],"hasPerk":false}]}}