{"meta":{"code":200,"requestId":"586939736a607107d06d4498"},"response":{"venues":[{"id":"4a69b07ef964a520f9cb1fe3","name":"Starbucks","contact":{"phone":"7182640658","formattedPhone":"(718) 264-0658","twitter":"starbucks","facebook":"22092443056","facebookUsername":"Starbucks","facebookName":"Starbucks"},"location":{"address":"61-51 188th St","crossStreet":"at 64th Ave","lat":40.739403,"lng":-73.785483,"labeledLatLngs":[{"label":"display","lat":40.739403,"lng":-73.785483}],"postalCode":"11365","cc":"US","city":"Fresh Meadows","state":"NY","country":"United States","formattedAddress":["61-51 188th St (at 64th Ave)","Fresh Meadows, NY 11365","United States"]},"categories":[{"id":"4bf58dd8d48988d1e0931735","name":"Coffee Shop","pluralName":"Coffee Shops","shortName":"Coffee Shop","icon":{"prefix":"https:\/\/ss3.4sqi.net\/img\/categories_v2\/food\/coffeeshop_","suffix":".png"},"primary":true}],"verified":true,"stats":{"checkinsCount":9035,"usersCount":2329,"tipCount":39},"url":"http:\/\/www.starbucks.com\/store\/13484\/","hasMenu":true,"menu":{"type":"Menu","label":"Menu","anchor":"View Menu","url":"http:\/\/www.starbucks.com\/menu","mobileUrl":"http:\/\/www.starbucks.com\/menu","externalUrl":"http:\/\/www.starbucks.com\/menu"},"allowMenuUrlEdit":true,"beenHere":{"lastCheckinExpiredAt":0},"specials":{"count":0,"items":[]},"storeId":"7296","referralId":"v-1483290995","venueChains":[{"id":"556f676fbd6a75a99038d8ec"}],"hasPerk":false},{"id":"4a972133f964a520982820e3","name":"Martha's Country Bakery","contact":{"phone":"7182255200","formattedPhone":"(718) 225-5200","twitter":"marthasny","facebook":"111573828880979","facebookUsername":"marthasny","facebookName":"Martha's Country Bakery"},"location":{"address":"4106 Bell Blvd","lat":40.763421839841264,"lng":-73.77087593078613,"labeledLatLngs":[{"label":"display","lat":40.763421839841264,"lng":-73.77087593078613}],"postalCode":"11361","cc":"US","city":"Bayside","state":"NY","country":"United States","formattedAddress":["4106 Bell Blvd","Bayside, NY 11361","United States"]},"categories":[{"id":"4bf58dd8d48988d16a941735","name":"Bakery","pluralName":"Bakeries","shortName":"Bakery","icon":{"prefix":"https:\/\/ss3.4sqi.net\/img\/categories_v2\/food\/bakery_","suffix":".png"},"primary":true}],"verified":false,"stats":{"checkinsCount":9731,"usersCount":3623,"tipCount":97},"url":"http:\/\/www.marthascountrybakery.com","menu":{"type":"Menu","label":"Menu","anchor":"View Menu","url":"http:\/\/marthascountrybakery.com\/menu\/","mobileUrl":"http:\/\/marthascountrybakery.com\/menu\/","externalUrl":"http:\/\/marthascountrybakery.com\/menu\/"},"allowMenuUrlEdit":true,"beenHere":{"lastCheckinExpiredAt":0},"specials":{"count":0,"items":[]},"referralId":"v-1483290995","venueChains":[],"hasPerk":false},{"id":"4b8e87edf964a5202b2733e3","name":"Starbucks","contact":{"phone":"7184282489","formattedPhone":"(718) 428-2489","twitter":"starbucks","facebook":"22092443056","facebookUsername":"Starbucks","facebookName":"Starbucks"},"location":{"address":"254-41 Horace Harding Expy","crossStreet":"at Little Neck Plaza","lat":40.76444166380767,"lng":-73.72627079486847,"labeledLatLngs":[{"label":"display","lat":40.76444166380767,"lng":-73.72627079486847}],"postalCode":"11362","cc":"US","city":"Little Neck","state":"NY","country":"United States","formattedAddress":["254-41 Horace Harding Expy (at Little Neck Plaza)","Little Neck, NY 11362","United States"]},"categories":[{"id":"4bf58dd8d48988d1e0931735","name":"Coffee Shop","pluralName":"Coffee Shops","shortName":"Coffee Shop","icon":{"prefix":"https:\/\/ss3.4sqi.net\/img\/categories_v2\/food\/coffeeshop_","suffix":".png"},"primary":true}],"verified":true,"stats":{"checkinsCount":5961,"usersCount":1148,"tipCount":23},"url":"http:\/\/www.starbucks.com\/store\/18276\/","hasMenu":true,"menu":{"type":"Menu","label":"Menu","anchor":"View Menu","url":"http:\/\/www.starbucks.com\/menu","mobileUrl":"http:\/\/www.starbucks.com\/menu","externalUrl":"http:\/\/www.starbucks.com\/menu"},"allowMenuUrlEdit":true,"beenHere":{"lastCheckinExpiredAt":0},"specials":{"count":0,"items":[]},"storeId":"14240","referralId":"v-1483290995","venueChains":[{"id":"556f676fbd6a75a99038d8ec"}],"hasPerk":false},{"id":"4b360986f964a520d12f25e3","name":"Starbucks","contact":{"phone":"5164989585","formattedPhone":"(516) 498-9585","twitter":"starbucks","facebook":"22092443056","facebookUsername":"Starbucks","facebookName":"Starbucks"},"location":{"address":"55 Northern Blvd","crossStreet":"at Great Neck Executive Office Center","lat":40.774265,"lng":-73.732946,"labeledLatLngs":[{"label":"display","lat":40.774265,"lng":-73.732946}],"postalCode":"11021","cc":"US","city":"Great Neck","state":"NY","country":"United States","formattedAddress":["55 Northern Blvd (at Great Neck Executive Office Center)","Great Neck, NY 11021","United States"]},"categories":[{"id":"4bf58dd8d48988d1e0931735","name":"Coffee Shop","pluralName":"Coffee Shops","shortName":"Coffee Shop","icon":{"prefix":"https:\/\/ss3.4sqi.net\/img\/categories_v2\/food\/coffeeshop_","suffix":".png"},"primary":true}],"verified":true,"stats":{"checkinsCount":5309,"usersCount":1077,"tipCount":21},"url":"http:\/\/www.starbucks.com\/store\/14974\/","hasMenu":true,"menu":{"type":"Menu","label":"Menu","anchor":"View Menu","url":"http:\/\/www.starbucks.com\/menu","mobileUrl":"http:\/\/www.starbucks.com\/menu","externalUrl":"http:\/\/www.starbucks.com\/menu"},"allowMenuUrlEdit":true,"beenHere":{"lastCheckinExpiredAt":0},"specials":{"count":0,"items":[]},"storeId":"7464","referralId":"v-1483290995","venueChains":[{"id":"556f676fbd6a75a99038d8ec"}],"hasPerk":false},{"id":"51af7133498e9b288964a1eb","name":"Bean Squared","contact":{"phone":"7184238083","formattedPhone":"(718) 423-8083"},"location":{"address":"210-21 Northern Blvd","crossStreet":"btwn 210th & 211th St.","lat":40.759681701660156,"lng":-73.77261352539062,"labeledLatLngs":[{"label":"display","lat":40.759681701660156,"lng":-73.77261352539062}],"postalCode":"11361","cc":"US","city":"Bayside","state":"NY","country":"United States","formattedAddress":["210-21 Northern Blvd (btwn 210th & 211th St.)","Bayside, NY 11361","United States"]},"categories":[{"id":"4bf58dd8d48988d1e0931735","name":"Coffee Shop","pluralName":"Coffee Shops","shortName":"Coffee Shop","icon":{"prefix":"https:\/\/ss3.4sqi.net\/img\/categories_v2\/food\/coffeeshop_","suffix":".png"},"primary":true}],"verified":false,"stats":{"checkinsCount":4122,"usersCount":913,"tipCount":48},"url":"http:\/\/beannbean.com","allowMenuUrlEdit":true,"beenHere":{"lastCheckinExpiredAt":0},"specials":{"count":0,"items":[]},"referralId":"v-1483290995","venueChains":[],"hasPerk":false},{"id":"4fc013c3e4b0730debaad31f","name":"BCD Tofu House","contact":{"phone":"7182248889","formattedPhone":"(718) 224-8889"},"location":{"address":"220-05 Northern Blvd., Bayside, NY 11361","lat":40.76160494976328,"lng":-73.76153832573726,"labeledLatLngs":[{"label":"display","lat":40.76160494976328,"lng":-73.76153832573726}],"postalCode":"11361","cc":"US","city":"Bayside","state":"NY","country":"United States","formattedAddress":["220-05 Northern Blvd., Bayside, NY 11361","Bayside, NY 11361","United States"]},"categories":[{"id":"4bf58dd8d48988d113941735","name":"Korean Restaurant","pluralName":"Korean Restaurants","shortName":"Korean","icon":{"prefix":"https:\/\/ss3.4sqi.net\/img\/categories_v2\/food\/korean_","suffix":".png"},"primary":true}],"verified":false,"stats":{"checkinsCount":4472,"usersCount":2036,"tipCount":38},"url":"http:\/\/bcdtofu.com","allowMenuUrlEdit":true,"beenHere":{"lastCheckinExpiredAt":0},"specials":{"count":0,"items":[]},"referralId":"v-1483290995","venueChains":[],"hasPerk":false},{"id":"4b788df6f964a52068d62ee3","name":"Dunkin' Donuts","contact":{"phone":"7182171599","formattedPhone":"(718) 217-1599","twitter":"dunkindonuts","facebook":"6979393237","facebookUsername":"DunkinDonutsUS","facebookName":"Dunkin' Donuts"},"location":{"address":"21522 73rd Ave (Bell Blvd Oakland Gardens)","lat":40.7397851053541,"lng":-73.75840693367734,"labeledLatLngs":[{"label":"display","lat":40.7397851053541,"lng":-73.75840693367734}],"postalCode":"11364","cc":"US","city":"Bayside","state":"NY","country":"United States","formattedAddress":["21522 73rd Ave (Bell Blvd Oakland Gardens)","Bayside, NY 11364","United States"]},"categories":[{"id":"4bf58dd8d48988d148941735","name":"Donut Shop","pluralName":"Donut Shops","shortName":"Donuts","icon":{"prefix":"https:\/\/ss3.4sqi.net\/img\/categories_v2\/food\/donuts_","suffix":".png"},"primary":true}],"verified":true,"stats":{"checkinsCount":2394,"usersCount":419,"tipCount":6},"url":"http:\/\/www.dunkindonuts.com","hasMenu":true,"menu":{"type":"Menu","label":"Menu","anchor":"View Menu","url":"https:\/\/foursquare.com\/v\/dunkin-donuts\/4b788df6f964a52068d62ee3\/menu","mobileUrl":"https:\/\/foursquare.com\/v\/4b788df6f964a52068d62ee3\/device_menu"},"allowMenuUrlEdit":true,"beenHere":{"lastCheckinExpiredAt":0},"specials":{"count":0,"items":[]},"storeId":"343692","referralId":"v-1483290995","venueChains":[{"id":"556f676fbd6a75a99038d8f0"}],"hasPerk":false},{"id":"566e263c498e6356a9f22248","name":"The French Workshop","contact":{"phone":"7182240700","formattedPhone":"(718) 224-0700"},"location":{"address":"3839 Bell Blvd","crossStreet":"at 39th Ave","lat":40.765327497256955,"lng":-73.77181124620918,"labeledLatLngs":[{"label":"display","lat":40.765327497256955,"lng":-73.77181124620918}],"postalCode":"11361","cc":"US","city":"Queens","state":"NY","country":"United States","formattedAddress":["3839 Bell Blvd (at 39th Ave)","Queens, NY 11361","United States"]},"categories":[{"id":"4bf58dd8d48988d16a941735","name":"Bakery","pluralName":"Bakeries","shortName":"Bakery","icon":{"prefix":"https:\/\/ss3.4sqi.net\/img\/categories_v2\/food\/bakery_","suffix":".png"},"primary":true}],"verified":false,"stats":{"checkinsCount":806,"usersCount":395,"tipCount":16},"allowMenuUrlEdit":true,"beenHere":{"lastCheckinExpiredAt":0},"specials":{"count":0,"items":[]},"referralId":"v-1483290995","venueChains":[],"hasPerk":false},{"id":"4a19ab55f964a520317a1fe3","name":"Starbucks","contact":{"phone":"7182814165","formattedPhone":"(718) 281-4165","twitter":"starbucks","facebook":"22092443056","facebookUsername":"Starbucks","facebookName":"Starbucks"},"location":{"address":"215-29 Northern Blvd","crossStreet":"at 215th Pl","lat":40.76087989130385,"lng":-73.7664909963843,"labeledLatLngs":[{"label":"display","lat":40.76087989130385,"lng":-73.7664909963843}],"postalCode":"11361","cc":"US","city":"Bayside","state":"NY","country":"United States","formattedAddress":["215-29 Northern Blvd (at 215th Pl)","Bayside, NY 11361","United States"]},"categories":[{"id":"4bf58dd8d48988d1e0931735","name":"Coffee Shop","pluralName":"Coffee Shops","shortName":"Coffee Shop","icon":{"prefix":"https:\/\/ss3.4sqi.net\/img\/categories_v2\/food\/coffeeshop_","suffix":".png"},"primary":true}],"verified":true,"stats":{"checkinsCount":6295,"usersCount":1640,"tipCount":24},"url":"http:\/\/www.starbucks.com\/store\/13509\/","hasMenu":true,"menu":{"type":"Menu","label":"Menu","anchor":"View Menu","url":"http:\/\/www.starbucks.com\/menu","mobileUrl":"http:\/\/www.starbucks.com\/menu","externalUrl":"http:\/\/www.starbucks.com\/menu"},"allowMenuUrlEdit":true,"beenHere":{"lastCheckinExpiredAt":0},"specials":{"count":0,"items":[]},"storeId":"7391","referralId":"v-1483290995","venueChains":[{"id":"556f676fbd6a75a99038d8ec"}],"hasPerk":false},{"id":"4a1a8bcff964a520977a1fe3","name":"Blue Bay Diner","contact":{"phone":"7182256333","formattedPhone":"(718) 225-6333"},"location":{"address":"5850 Francis Lewis Blvd","lat":40.743981953676624,"lng":-73.77603402194538,"labeledLatLngs":[{"label":"display","lat":40.743981953676624,"lng":-73.77603402194538}],"postalCode":"11364","cc":"US","city":"Oakland Gardens","state":"NY","country":"United States","formattedAddress":["5850 Francis Lewis Blvd","Oakland Gardens, NY 11364","United States"]},"categories":[{"id":"4bf58dd8d48988d147941735","name":"Diner","pluralName":"Diners","shortName":"Diner","icon":{"prefix":"https:\/\/ss3.4sqi.net\/img\/categories_v2\/food\/diner_","suffix":".png"},"primary":true}],"verified":false,"stats":{"checkinsCount":4576,"usersCount":2338,"tipCount":76},"allowMenuUrlEdit":true,"beenHere":{"lastCheckinExpiredAt":0},"specials":{"count":0,"items":[]},"referralId":"v-1483290995","venueChains":[],"hasPerk":false},{"id":"4a19b5c1f964a520367a1fe3","name":"Dunkin' Donuts","contact":{"phone":"7182247112","formattedPhone":"(718) 224-7112","twitter":"dunkindonuts","facebook":"6979393237","facebookUsername":"DunkinDonutsUS","facebookName":"Dunkin' Donuts"},"location":{"address":"21920 Northern Blvd","lat":40.76127819117074,"lng":-73.76218183510947,"labeledLatLngs":[{"label":"display","lat":40.76127819117074,"lng":-73.76218183510947}],"postalCode":"11361","cc":"US","city":"Bayside","state":"NY","country":"United States","formattedAddress":["21920 Northern Blvd","Bayside, NY 11361","United States"]},"categories":[{"id":"4bf58dd8d48988d148941735","name":"Donut Shop","pluralName":"Donut Shops","shortName":"Donuts","icon":{"prefix":"https:\/\/ss3.4sqi.net\/img\/categories_v2\/food\/donuts_","suffix":".png"},"primary":true}],"verified":true,"stats":{"checkinsCount":3831,"usersCount":1065,"tipCount":15},"url":"http:\/\/www.dunkindonuts.com","hasMenu":true,"menu":{"type":"Menu","label":"Menu","anchor":"View Menu","url":"https:\/\/foursquare.com\/v\/dunkin-donuts\/4a19b5c1f964a520367a1fe3\/menu","mobileUrl":"https:\/\/foursquare.com\/v\/4a19b5c1f964a520367a1fe3\/device_menu"},"allowMenuUrlEdit":true,"beenHere":{"lastCheckinExpiredAt":0},"specials":{"count":0,"items":[]},"storeId":"302447","referralId":"v-1483290995","venueChains":[{"id":"556f676fbd6a75a99038d8f0"}],"hasPerk":false},{"id":"4ac3a1a9f964a5201f9c20e3","name":"Panera Bread","contact":{"phone":"7184237600","formattedPhone":"(718) 423-7600","twitter":"panerabread","facebook":"99044554628","facebookUsername":"panerabread","facebookName":"Panera Bread"},"location":{"address":"23-58 Bell Blvd","lat":40.77988541107938,"lng":-73.77575755119324,"labeledLatLngs":[{"label":"display","lat":40.77988541107938,"lng":-73.77575755119324}],"postalCode":"11360","cc":"US","city":"Bayside","state":"NY","country":"United States","formattedAddress":["23-58 Bell Blvd","Bayside, NY 11360","United States"]},"categories":[{"id":"4bf58dd8d48988d1c5941735","name":"Sandwich Place","pluralName":"Sandwich Places","shortName":"Sandwiches","icon":{"prefix":"https:\/\/ss3.4sqi.net\/img\/categories_v2\/food\/deli_","suffix":".png"},"primary":true}],"verified":true,"stats":{"checkinsCount":6856,"usersCount":2274,"tipCount":47},"url":"http:\/\/www.panerabread.com","hasMenu":true,"menu":{"type":"Menu","label":"Menu","anchor":"View Menu","url":"https:\/\/foursquare.com\/v\/panera-bread\/4ac3a1a9f964a5201f9c20e3\/menu","mobileUrl":"https:\/\/foursquare.com\/v\/4ac3a1a9f964a5201f9c20e3\/device_menu","externalUrl":"http:\/\/www.listingextensions.com\/f43115baa3\/2069638622\/menu"},"allowMenuUrlEdit":true,"beenHere":{"lastCheckinExpiredAt":0},"specials":{"count":0,"items":[]},"storeId":"4404","referralId":"v-1483290995","venueChains":[{"id":"556e0f6fa7c82e6b724f8c8a"}],"hasPerk":false},{"id":"5304af5f498eba976c2a5c85","name":"Starbucks","contact":{"phone":"5164874944","formattedPhone":"(516) 487-4944","twitter":"starbucks","facebook":"22092443056","facebookUsername":"Starbucks","facebookName":"Starbucks"},"location":{"address":"6 Great Neck Road","crossStreet":"at The Gardens at Great Neck","lat":40.78611362,"lng":-73.72601023,"labeledLatLngs":[{"label":"display","lat":40.78611362,"lng":-73.72601023}],"postalCode":"11021","cc":"US","city":"Great Neck","state":"NY","country":"United States","formattedAddress":["6 Great Neck Road (at The Gardens at Great Neck)","Great Neck, NY 11021","United States"]},"categories":[{"id":"4bf58dd8d48988d1e0931735","name":"Coffee Shop","pluralName":"Coffee Shops","shortName":"Coffee Shop","icon":{"prefix":"https:\/\/ss3.4sqi.net\/img\/categories_v2\/food\/coffeeshop_","suffix":".png"},"primary":true}],"verified":true,"stats":{"checkinsCount":1382,"usersCount":258,"tipCount":3},"url":"http:\/\/www.starbucks.com","menu":{"type":"Menu","label":"Menu","anchor":"View Menu","url":"http:\/\/www.starbucks.com\/menu","mobileUrl":"http:\/\/www.starbucks.com\/menu","externalUrl":"http:\/\/www.starbucks.com\/menu"},"allowMenuUrlEdit":true,"beenHere":{"lastCheckinExpiredAt":0},"specials":{"count":0,"items":[]},"storeId":"884","referralId":"v-1483290995","venueChains":[{"id":"556f676fbd6a75a99038d8ec"}],"hasPerk":false},{"id":"4d02a1a0e350b60c3a1a7842","name":"Mizumi","contact":{"phone":"7182298686","formattedPhone":"(718) 229-8686","twitter":"mizumi_ny"},"location":{"address":"23110 Northern Blvd","lat":40.76379699,"lng":-73.748958,"labeledLatLngs":[{"label":"display","lat":40.76379699,"lng":-73.748958}],"postalCode":"11362","cc":"US","city":"Douglaston","state":"NY","country":"United States","formattedAddress":["23110 Northern Blvd","Douglaston, NY 11362","United States"]},"categories":[{"id":"4bf58dd8d48988d1d2941735","name":"Sushi Restaurant","pluralName":"Sushi Restaurants","shortName":"Sushi","icon":{"prefix":"https:\/\/ss3.4sqi.net\/img\/categories_v2\/food\/sushi_","suffix":".png"},"primary":true}],"verified":false,"stats":{"checkinsCount":6417,"usersCount":3422,"tipCount":72},"url":"http:\/\/www.mizumi-ny.com","hasMenu":true,"menu":{"type":"Menu","label":"Menu","anchor":"View Menu","url":"https:\/\/foursquare.com\/v\/mizumi\/4d02a1a0e350b60c3a1a7842\/menu","mobileUrl":"https:\/\/foursquare.com\/v\/4d02a1a0e350b60c3a1a7842\/device_menu"},"allowMenuUrlEdit":true,"beenHere":{"lastCheckinExpiredAt":0},"specials":{"count":0,"items":[]},"referralId":"v-1483290995","venueChains":[],"hasPerk":false},{"id":"509f276ee4b0bbf776c72867","name":"Hooters","contact":{"phone":"7184542800","formattedPhone":"(718) 454-2800","twitter":"hooters_freshme"},"location":{"address":"61-09 190th St","crossStreet":"Horace Harding Expy","lat":40.740729738897045,"lng":-73.78432419140933,"labeledLatLngs":[{"label":"display","lat":40.740729738897045,"lng":-73.78432419140933}],"postalCode":"11365","cc":"US","city":"Fresh Meadows","state":"NY","country":"United States","formattedAddress":["61-09 190th St (Horace Harding Expy)","Fresh Meadows, NY 11365","United States"]},"categories":[{"id":"4bf58dd8d48988d14c941735","name":"Wings Joint","pluralName":"Wings Joints","shortName":"Wings","icon":{"prefix":"https:\/\/ss3.4sqi.net\/img\/categories_v2\/food\/wings_","suffix":".png"},"primary":true}],"verified":false,"stats":{"checkinsCount":4039,"usersCount":1866,"tipCount":32},"allowMenuUrlEdit":true,"beenHere":{"lastCheckinExpiredAt":0},"specials":{"count":0,"items":[]},"referralId":"v-1483290995","venueChains":[{"id":"556a48c3a7c8957d73d66806"}],"hasPerk":false},{"id":"571ab7b2498ed52e0d5f4bca","name":"LN1380 舍得食府","contact":{},"location":{"address":"251-03 Northern Blvd","lat":40.768991413434755,"lng":-73.73702597723613,"labeledLatLngs":[{"label":"display","lat":40.768991413434755,"lng":-73.73702597723613}],"postalCode":"11362","cc":"US","city":"Little Neck","state":"NY","country":"United States","formattedAddress":["251-03 Northern Blvd","Little Neck, NY 11362","United States"]},"categories":[{"id":"4bf58dd8d48988d145941735","name":"Chinese Restaurant","pluralName":"Chinese Restaurants","shortName":"Chinese","icon":{"prefix":"https:\/\/ss3.4sqi.net\/img\/categories_v2\/food\/asian_","suffix":".png"},"primary":true}],"verified":false,"stats":{"checkinsCount":231,"usersCount":158,"tipCount":3},"allowMenuUrlEdit":true,"beenHere":{"lastCheckinExpiredAt":0},"specials":{"count":0,"items":[]},"referralId":"v-1483290995","venueChains":[],"hasPerk":false},{"id":"53794fd211d282a3cce576a2","name":"Little Dumpling 李小籠","contact":{"phone":"7182251178","formattedPhone":"(718) 225-1178","facebook":"470360493097830","facebookUsername":"LittleDumpling.LittleNeck","facebookName":"Little Dumpling 李小籠"},"location":{"address":"252-20 Northern Blvd","lat":40.77007972362569,"lng":-73.73586521526468,"labeledLatLngs":[{"label":"display","lat":40.77007972362569,"lng":-73.73586521526468}],"postalCode":"11362","cc":"US","city":"Little Neck","state":"NY","country":"United States","formattedAddress":["252-20 Northern Blvd","Little Neck, NY 11362","United States"]},"categories":[{"id":"4bf58dd8d48988d145941735","name":"Chinese Restaurant","pluralName":"Chinese Restaurants","shortName":"Chinese","icon":{"prefix":"https:\/\/ss3.4sqi.net\/img\/categories_v2\/food\/asian_","suffix":".png"},"primary":true}],"verified":false,"stats":{"checkinsCount":1086,"usersCount":519,"tipCount":22},"url":"http:\/\/www.littledumplingny.com","allowMenuUrlEdit":true,"beenHere":{"lastCheckinExpiredAt":0},"specials":{"count":0,"items":[]},"referralId":"v-1483290995","venueChains":[],"hasPerk":false},{"id":"4b6f679ff964a52029ef2ce3","name":"Burger King","contact":{"phone":"7182251695","formattedPhone":"(718) 225-1695","twitter":"burgerking"},"location":{"address":"222-10 Northern Boulevard","lat":40.76172829875899,"lng":-73.75921133263684,"labeledLatLngs":[{"label":"display","lat":40.76172829875899,"lng":-73.75921133263684}],"postalCode":"11361","cc":"US","city":"Bayside","state":"NY","country":"United States","formattedAddress":["222-10 Northern Boulevard","Bayside, NY 11361","United States"]},"categories":[{"id":"4bf58dd8d48988d16e941735","name":"Fast Food Restaurant","pluralName":"Fast Food Restaurants","shortName":"Fast Food","icon":{"prefix":"https:\/\/ss3.4sqi.net\/img\/categories_v2\/food\/fastfood_","suffix":".png"},"primary":true}],"verified":true,"stats":{"checkinsCount":1905,"usersCount":741,"tipCount":9},"url":"http:\/\/www.bk.com","hasMenu":true,"menu":{"type":"Menu","label":"Menu","anchor":"View Menu","url":"https:\/\/foursquare.com\/v\/burger-king\/4b6f679ff964a52029ef2ce3\/menu","mobileUrl":"https:\/\/foursquare.com\/v\/4b6f679ff964a52029ef2ce3\/device_menu"},"allowMenuUrlEdit":true,"beenHere":{"lastCheckinExpiredAt":0},"specials":{"count":0,"items":[]},"storeId":"1808","referralId":"v-1483290995","venueChains":[{"id":"556d12d9aceaff43eb090cdb"}],"hasPerk":false},{"id":"4b3ea6eaf964a52058a025e3","name":"Peter Luger Steak House","contact":{"phone":"5164878800","formattedPhone":"(516) 487-8800"},"location":{"address":"225 Northern Blvd","crossStreet":"btwn Tain Dr & Merrivale Rd","lat":40.77732422768091,"lng":-73.72738122940063,"labeledLatLngs":[{"label":"display","lat":40.77732422768091,"lng":-73.72738122940063}],"postalCode":"11021","cc":"US","city":"Great Neck","state":"NY","country":"United States","formattedAddress":["225 Northern Blvd (btwn Tain Dr & Merrivale Rd)","Great Neck, NY 11021","United States"]},"categories":[{"id":"4bf58dd8d48988d1cc941735","name":"Steakhouse","pluralName":"Steakhouses","shortName":"Steakhouse","icon":{"prefix":"https:\/\/ss3.4sqi.net\/img\/categories_v2\/food\/steakhouse_","suffix":".png"},"primary":true}],"verified":false,"stats":{"checkinsCount":4767,"usersCount":3349,"tipCount":81},"url":"http:\/\/peterluger.com\/","hasMenu":true,"menu":{"type":"Menu","label":"Menu","anchor":"View Menu","url":"https:\/\/foursquare.com\/v\/peter-luger-steak-house\/4b3ea6eaf964a52058a025e3\/menu","mobileUrl":"https:\/\/foursquare.com\/v\/4b3ea6eaf964a52058a025e3\/device_menu"},"allowMenuUrlEdit":true,"beenHere":{"lastCheckinExpiredAt":0},"specials":{"count":0,"items":[]},"referralId":"v-1483290995","venueChains":[],"hasPerk":false},{"id":"4b931bd3f964a5208c3534e3","name":"McDonald's","contact":{"phone":"7184231577","formattedPhone":"(718) 423-1577"},"location":{"address":"203-11 Northern Blvd","lat":40.75782268685437,"lng":-73.7798023223877,"labeledLatLngs":[{"label":"display","lat":40.75782268685437,"lng":-73.7798023223877}],"postalCode":"11361","cc":"US","city":"Bayside","state":"NY","country":"United States","formattedAddress":["203-11 Northern Blvd","Bayside, NY 11361","United States"]},"categories":[{"id":"4bf58dd8d48988d16e941735","name":"Fast Food Restaurant","pluralName":"Fast Food Restaurants","shortName":"Fast Food","icon":{"prefix":"https:\/\/ss3.4sqi.net\/img\/categories_v2\/food\/fastfood_","suffix":".png"},"primary":true}],"verified":true,"stats":{"checkinsCount":2033,"usersCount":631,"tipCount":4},"url":"http:\/\/mcdonalds.com","hasMenu":true,"menu":{"type":"Menu","label":"Menu","anchor":"View Menu","url":"https:\/\/foursquare.com\/v\/mcdonalds\/4b931bd3f964a5208c3534e3\/menu","mobileUrl":"https:\/\/foursquare.com\/v\/4b931bd3f964a5208c3534e3\/device_menu"},"allowMenuUrlEdit":true,"beenHere":{"lastCheckinExpiredAt":0},"specials":{"count":0,"items":[]},"storeId":"11468","referralId":"v-1483290995","venueChains":[{"id":"556f7a12bd6a75a9903bddb2"}],"hasPerk":false},{"id":"558f42bd498e0e239f716227","name":"Chipotle Mexican Grill","contact":{"phone":"7182244220","formattedPhone":"(718) 224-4220","twitter":"chipotletweets"},"location":{"address":"254-65 Horace Harding Expy","lat":40.76513059942341,"lng":-73.725176696727,"labeledLatLngs":[{"label":"display","lat":40.76513059942341,"lng":-73.725176696727}],"postalCode":"11362","cc":"US","city":"Little Neck","state":"NY","country":"United States","formattedAddress":["254-65 Horace Harding Expy","Little Neck, NY 11362","United States"]},"categories":[{"id":"4bf58dd8d48988d1c1941735","name":"Mexican Restaurant","pluralName":"Mexican Restaurants","shortName":"Mexican","icon":{"prefix":"https:\/\/ss3.4sqi.net\/img\/categories_v2\/food\/mexican_","suffix":".png"},"primary":true}],"verified":true,"stats":{"checkinsCount":366,"usersCount":138,"tipCount":1},"url":"http:\/\/www.chipotle.com","allowMenuUrlEdit":true,"beenHere":{"lastCheckinExpiredAt":0},"specials":{"count":0,"items":[]},"storeId":"2312","referralId":"v-1483290995","venueChains":[{"id":"556e0f6fa7c82e6b724f8c82"}],"hasPerk":false},{"id":"4b376138f964a520c24025e3","name":"White Castle","contact":{"phone":"7182247333","formattedPhone":"(718) 224-7333","twitter":"whitecastle"},"location":{"address":"213-17 Northern Blvd","lat":40.76036714778964,"lng":-73.76965098904094,"labeledLatLngs":[{"label":"display","lat":40.76036714778964,"lng":-73.76965098904094}],"postalCode":"11361","cc":"US","city":"Bayside","state":"NY","country":"United States","formattedAddress":["213-17 Northern Blvd","Bayside, NY 11361","United States"]},"categories":[{"id":"4bf58dd8d48988d16c941735","name":"Burger Joint","pluralName":"Burger Joints","shortName":"Burgers","icon":{"prefix":"https:\/\/ss3.4sqi.net\/img\/categories_v2\/food\/burger_","suffix":".png"},"primary":true}],"verified":true,"stats":{"checkinsCount":3377,"usersCount":1582,"tipCount":14},"url":"http:\/\/www.whitecastle.com","hasMenu":true,"menu":{"type":"Menu","label":"Menu","anchor":"View Menu","url":"https:\/\/foursquare.com\/v\/white-castle\/4b376138f964a520c24025e3\/menu","mobileUrl":"https:\/\/foursquare.com\/v\/4b376138f964a520c24025e3\/device_menu"},"allowMenuUrlEdit":true,"beenHere":{"lastCheckinExpiredAt":0},"specials":{"count":0,"items":[]},"storeId":"7","referralId":"v-1483290995","venueChains":[{"id":"556ce5abaceaff43eb0528b0"}],"hasPerk":false},{"id":"565f529d498e87e0438500d7","name":"Browny","contact":{},"location":{"address":"195-19 Northern Blvd","crossStreet":"Btwn 195th & 196th Sts","lat":40.75825500488281,"lng":-73.78604888916016,"labeledLatLngs":[{"label":"display","lat":40.75825500488281,"lng":-73.78604888916016}],"postalCode":"11358","cc":"US","city":"Flushing","state":"NY","country":"United States","formattedAddress":["195-19 Northern Blvd (Btwn 195th & 196th Sts)","Flushing, NY 11358","United States"]},"categories":[{"id":"4bf58dd8d48988d16d941735","name":"Café","pluralName":"Cafés","shortName":"Café","icon":{"prefix":"https:\/\/ss3.4sqi.net\/img\/categories_v2\/food\/cafe_","suffix":".png"},"primary":true}],"verified":false,"stats":{"checkinsCount":390,"usersCount":129,"tipCount":2},"allowMenuUrlEdit":true,"beenHere":{"lastCheckinExpiredAt":0},"specials":{"count":0,"items":[]},"referralId":"v-1483290995","venueChains":[],"hasPerk":false},{"id":"4f8f29d7e4b0634d37b0418f","name":"7-Eleven","contact":{"phone":"7188315439","formattedPhone":"(718) 831-5439","twitter":"7eleven","facebook":"134421686751549","facebookUsername":"7ElevenGlenOaks35026","facebookName":"7-Eleven"},"location":{"address":"253-02 Union Tpke","lat":40.74416503192218,"lng":-73.71725763343944,"labeledLatLngs":[{"label":"display","lat":40.74416503192218,"lng":-73.71725763343944}],"postalCode":"11004","cc":"US","city":"Glen Oaks","state":"NY","country":"United States","formattedAddress":["253-02 Union Tpke","Glen Oaks, NY 11004","United States"]},"categories":[{"id":"4d954b0ea243a5684a65b473","name":"Convenience Store","pluralName":"Convenience Stores","shortName":"Convenience Store","icon":{"prefix":"https:\/\/ss3.4sqi.net\/img\/categories_v2\/shops\/conveniencestore_","suffix":".png"},"primary":true}],"verified":true,"stats":{"checkinsCount":470,"usersCount":173,"tipCount":4},"url":"http:\/\/www.7-eleven.com","allowMenuUrlEdit":true,"beenHere":{"lastCheckinExpiredAt":0},"specials":{"count":0,"items":[]},"storeId":"35026","referralId":"v-1483290995","venueChains":[{"id":"556f676fbd6a75a99038d8e9"}],"hasPerk":false},{"id":"4b341573f964a520df2425e3","name":"H-Mart","contact":{"phone":"5164823113","formattedPhone":"(516) 482-3113"},"location":{"address":"495 Great Neck Rd","crossStreet":"at Northern Blvd","lat":40.77505691896246,"lng":-73.73259550820576,"labeledLatLngs":[{"label":"display","lat":40.77505691896246,"lng":-73.73259550820576}],"postalCode":"11021","cc":"US","city":"Great Neck","state":"NY","country":"United States","formattedAddress":["495 Great Neck Rd (at Northern Blvd)","Great Neck, NY 11021","United States"]},"categories":[{"id":"4bf58dd8d48988d118951735","name":"Grocery Store","pluralName":"Grocery Stores","shortName":"Grocery Store","icon":{"prefix":"https:\/\/ss3.4sqi.net\/img\/categories_v2\/shops\/food_grocery_","suffix":".png"},"primary":true}],"verified":false,"stats":{"checkinsCount":1765,"usersCount":563,"tipCount":13},"allowMenuUrlEdit":true,"beenHere":{"lastCheckinExpiredAt":0},"specials":{"count":0,"items":[]},"referralId":"v-1483290995","venueChains":[],"hasPerk":false},{"id":"4a69b11ef964a520facb1fe3","name":"QDOBA Mexican Eats","contact":{"phone":"7184549400","formattedPhone":"(718) 454-9400","twitter":"qdoba","facebook":"32338694442","facebookUsername":"qdoba","facebookName":"Qdoba"},"location":{"address":"61-40 188th St","lat":40.73943064121844,"lng":-73.78647496384184,"labeledLatLngs":[{"label":"display","lat":40.73943064121844,"lng":-73.78647496384184}],"postalCode":"11365","cc":"US","city":"Fresh Meadows","state":"NY","country":"United States","formattedAddress":["61-40 188th St","Fresh Meadows, NY 11365","United States"]},"categories":[{"id":"4bf58dd8d48988d153941735","name":"Burrito Place","pluralName":"Burrito Places","shortName":"Burritos","icon":{"prefix":"https:\/\/ss3.4sqi.net\/img\/categories_v2\/food\/burrito_","suffix":".png"},"primary":true}],"verified":true,"stats":{"checkinsCount":5697,"usersCount":1957,"tipCount":35},"url":"http:\/\/www.qdoba.com","hasMenu":true,"menu":{"type":"Menu","label":"Menu","anchor":"View Menu","url":"https:\/\/foursquare.com\/v\/qdoba-mexican-eats\/4a69b11ef964a520facb1fe3\/menu","mobileUrl":"https:\/\/foursquare.com\/v\/4a69b11ef964a520facb1fe3\/device_menu","externalUrl":"https:\/\/www.qdoba.com\/menu-nutrition\/"},"allowMenuUrlEdit":true,"beenHere":{"lastCheckinExpiredAt":0},"specials":{"count":0,"items":[]},"storeId":"Berwin - Fresh Meadows - #002331","referralId":"v-1483290995","venueChains":[{"id":"556d0a3aaceaff43eb082e5c"}],"hasPerk":false},{"id":"4c352b5809a99c7457590c2a","name":"North Shore Farms","contact":{"phone":"5164826287","formattedPhone":"(516) 482-6287","facebook":"177375891236","facebookUsername":"northshorefarms","facebookName":"North Shore Farms"},"location":{"address":"90 Horace Harding Blvd","crossStreet":"at Bates Rd","lat":40.768821,"lng":-73.721537,"labeledLatLngs":[{"label":"display","lat":40.768821,"lng":-73.721537}],"postalCode":"11020","cc":"US","city":"Great Neck","state":"NY","country":"United States","formattedAddress":["90 Horace Harding Blvd (at Bates Rd)","Great Neck, NY 11020","United States"]},"categories":[{"id":"4bf58dd8d48988d118951735","name":"Grocery Store","pluralName":"Grocery Stores","shortName":"Grocery Store","icon":{"prefix":"https:\/\/ss3.4sqi.net\/img\/categories_v2\/shops\/food_grocery_","suffix":".png"},"primary":true}],"verified":true,"stats":{"checkinsCount":1144,"usersCount":275,"tipCount":7},"url":"http:\/\/www.northshorefarms.com","allowMenuUrlEdit":true,"beenHere":{"lastCheckinExpiredAt":0},"specials":{"count":0,"items":[]},"referralId":"v-1483290995","venueChains":[{"id":"556e5b3abd6a82902e29532b"}],"hasPerk":false},{"id":"4af0a80ff964a52004de21e3","name":"Applebee's","contact":{"phone":"7184234328","formattedPhone":"(718) 423-4328","twitter":"applebees"},"location":{"address":"213-29 26th Ave","crossStreet":"Bell Blvd","lat":40.77919893,"lng":-73.77643705,"labeledLatLngs":[{"label":"display","lat":40.77919893,"lng":-73.77643705}],"postalCode":"11360","cc":"US","city":"Bayside","state":"NY","country":"United States","formattedAddress":["213-29 26th Ave (Bell Blvd)","Bayside, NY 11360","United States"]},"categories":[{"id":"4bf58dd8d48988d14e941735","name":"American Restaurant","pluralName":"American Restaurants","shortName":"American","icon":{"prefix":"https:\/\/ss3.4sqi.net\/img\/categories_v2\/food\/default_","suffix":".png"},"primary":true}],"verified":true,"stats":{"checkinsCount":4254,"usersCount":1858,"tipCount":17},"url":"http:\/\/restaurants.applebees.com\/ny\/bayside\/213-29-26th-ave.html","allowMenuUrlEdit":true,"beenHere":{"lastCheckinExpiredAt":0},"specials":{"count":0,"items":[]},"storeId":"","referralId":"v-1483290995","venueChains":[{"id":"556e146fa7c82e6b725097e1"}],"hasPerk":false},{"id":"4d5d2337e7f75481c0752197","name":"The Bagel Club","contact":{"phone":"7184236106","formattedPhone":"(718) 423-6106"},"location":{"address":"20521 35th Ave","lat":40.767016763471474,"lng":-73.78209512909132,"labeledLatLngs":[{"label":"display","lat":40.767016763471474,"lng":-73.78209512909132}],"postalCode":"11361","cc":"US","city":"Bayside","state":"NY","country":"United States","formattedAddress":["20521 35th Ave","Bayside, NY 11361","United States"]},"categories":[{"id":"4bf58dd8d48988d179941735","name":"Bagel Shop","pluralName":"Bagel Shops","shortName":"Bagels","icon":{"prefix":"https:\/\/ss3.4sqi.net\/img\/categories_v2\/food\/bagels_","suffix":".png"},"primary":true}],"verified":false,"stats":{"checkinsCount":1566,"usersCount":423,"tipCount":13},"allowMenuUrlEdit":true,"beenHere":{"lastCheckinExpiredAt":0},"specials":{"count":0,"items":[]},"referralId":"v-1483290995","venueChains":[],"hasPerk":false},{"id":"49fdbd6cf964a520256f1fe3","name":"BKNY Thai Restaurant","contact":{"phone":"7182811900","formattedPhone":"(718) 281-1900"},"location":{"address":"4711 Francis Lewis Blvd","crossStreet":"at Rocky Hill Rd","lat":40.753064,"lng":-73.780143,"labeledLatLngs":[{"label":"display","lat":40.753064,"lng":-73.780143}],"postalCode":"11361","cc":"US","city":"Bayside","state":"NY","country":"United States","formattedAddress":["4711 Francis Lewis Blvd (at Rocky Hill Rd)","Bayside, NY 11361","United States"]},"categories":[{"id":"4bf58dd8d48988d149941735","name":"Thai Restaurant","pluralName":"Thai Restaurants","shortName":"Thai","icon":{"prefix":"https:\/\/ss3.4sqi.net\/img\/categories_v2\/food\/thai_","suffix":".png"},"primary":true}],"verified":false,"stats":{"checkinsCount":4818,"usersCount":2121,"tipCount":68},"url":"http:\/\/www.bknythai.com\/","hasMenu":true,"menu":{"type":"Menu","label":"Menu","anchor":"View Menu","url":"https:\/\/foursquare.com\/v\/bkny-thai-restaurant\/49fdbd6cf964a520256f1fe3\/menu","mobileUrl":"https:\/\/foursquare.com\/v\/49fdbd6cf964a520256f1fe3\/device_menu"},"allowMenuUrlEdit":true,"beenHere":{"lastCheckinExpiredAt":0},"specials":{"count":0,"items":[]},"referralId":"v-1483290995","venueChains":[],"hasPerk":false}]}}