{"meta":{"code":200,"requestId":"5869397af594df1855851628"},"response":{"venues":[{"id":"4aaadf68f964a520ce5720e3","name":"Whole Foods Market","contact":{"phone":"9736693196","formattedPhone":"(973) 669-3196","twitter":"wfmwestorange","facebook":"81144654214","facebookUsername":"WholeFoodsWestOrange","facebookName":"Whole Foods Market"},"location":{"address":"235 Prospect Ave","crossStreet":"Eagle Rock Ave.","lat":40.80420960394418,"lng":-74.24850152650534,"labeledLatLngs":[{"label":"display","lat":40.80420960394418,"lng":-74.24850152650534}],"postalCode":"07052","cc":"US","city":"West Orange","state":"NJ","country":"United States","formattedAddress":["235 Prospect Ave (Eagle Rock Ave.)","West Orange, NJ 07052","United States"]},"categories":[{"id":"4bf58dd8d48988d118951735","name":"Grocery Store","pluralName":"Grocery Stores","shortName":"Grocery Store","icon":{"prefix":"https:\/\/ss3.4sqi.net\/img\/categories_v2\/shops\/food_grocery_","suffix":".png"},"primary":true}],"verified":true,"stats":{"checkinsCount":9347,"usersCount":2465,"tipCount":35},"url":"http:\/\/www.wholefoodsmarket.com\/stores\/westorange","allowMenuUrlEdit":true,"beenHere":{"lastCheckinExpiredAt":0},"specials":{"count":0,"items":[]},"storeId":"WOP","referralId":"v-1483291002","venueChains":[{"id":"556cdf5baceaff43eb042df6"}],"hasPerk":false},{"id":"4b74c245f964a5207df02de3","name":"Panera Bread","contact":{"phone":"9733240310","formattedPhone":"(973) 324-0310","twitter":"panerabread","facebook":"171738282929623","facebookUsername":"PaneraWestOrangeNJ","facebookName":"Panera Bread"},"location":{"address":"495 Prospect Ave","lat":40.79297494842898,"lng":-74.25602290040842,"labeledLatLngs":[{"label":"display","lat":40.79297494842898,"lng":-74.25602290040842}],"postalCode":"07052","cc":"US","city":"West Orange","state":"NJ","country":"United States","formattedAddress":["495 Prospect Ave","West Orange, NJ 07052","United States"]},"categories":[{"id":"4bf58dd8d48988d16a941735","name":"Bakery","pluralName":"Bakeries","shortName":"Bakery","icon":{"prefix":"https:\/\/ss3.4sqi.net\/img\/categories_v2\/food\/bakery_","suffix":".png"},"primary":true}],"verified":true,"stats":{"checkinsCount":5403,"usersCount":1900,"tipCount":26},"url":"https:\/\/www.panerabread.com\/en-us\/home.html","hasMenu":true,"menu":{"type":"Menu","label":"Menu","anchor":"View Menu","url":"https:\/\/foursquare.com\/v\/panera-bread\/4b74c245f964a5207df02de3\/menu","mobileUrl":"https:\/\/foursquare.com\/v\/4b74c245f964a5207df02de3\/device_menu","externalUrl":"http:\/\/www.listingextensions.com\/f43115baa3\/2105290206\/menu"},"allowMenuUrlEdit":true,"beenHere":{"lastCheckinExpiredAt":0},"specials":{"count":0,"items":[]},"storeId":"1465","referralId":"v-1483291002","venueChains":[{"id":"556e0f6fa7c82e6b724f8c8a"}],"hasPerk":false},{"id":"4b0c9950f964a520eb3f23e3","name":"Starbucks","contact":{"phone":"9733649555","formattedPhone":"(973) 364-9555","twitter":"starbucks","facebook":"22092443056","facebookUsername":"Starbucks","facebookName":"Starbucks"},"location":{"address":"43 Eisenhower Pkwy","crossStreet":"at Eagle Rock Commons","lat":40.821449073332424,"lng":-74.32772144222733,"labeledLatLngs":[{"label":"display","lat":40.821449073332424,"lng":-74.32772144222733}],"postalCode":"07068","cc":"US","city":"Roseland","state":"NJ","country":"United States","formattedAddress":["43 Eisenhower Pkwy (at Eagle Rock Commons)","Roseland, NJ 07068","United States"]},"categories":[{"id":"4bf58dd8d48988d1e0931735","name":"Coffee Shop","pluralName":"Coffee Shops","shortName":"Coffee Shop","icon":{"prefix":"https:\/\/ss3.4sqi.net\/img\/categories_v2\/food\/coffeeshop_","suffix":".png"},"primary":true}],"verified":true,"stats":{"checkinsCount":5061,"usersCount":1284,"tipCount":10},"url":"http:\/\/www.starbucks.com\/store\/17757\/","hasMenu":true,"menu":{"type":"Menu","label":"Menu","anchor":"View Menu","url":"http:\/\/www.starbucks.com\/menu","mobileUrl":"http:\/\/www.starbucks.com\/menu","externalUrl":"http:\/\/www.starbucks.com\/menu"},"allowMenuUrlEdit":true,"beenHere":{"lastCheckinExpiredAt":0},"specials":{"count":0,"items":[]},"storeId":"9273","referralId":"v-1483291002","venueChains":[{"id":"556f676fbd6a75a99038d8ec"}],"hasPerk":false},{"id":"4b292a97f964a520269a24e3","name":"Starbucks","contact":{"phone":"9735331669","formattedPhone":"(973) 533-1669","twitter":"starbucks","facebook":"22092443056","facebookUsername":"Starbucks","facebookName":"Starbucks"},"location":{"address":"1 W Mount Pleasant Ave","crossStreet":"at S Livingston Ave","lat":40.795596,"lng":-74.315703,"labeledLatLngs":[{"label":"display","lat":40.795596,"lng":-74.315703}],"postalCode":"07039","cc":"US","city":"Livingston","state":"NJ","country":"United States","formattedAddress":["1 W Mount Pleasant Ave (at S Livingston Ave)","Livingston, NJ 07039","United States"]},"categories":[{"id":"4bf58dd8d48988d1e0931735","name":"Coffee Shop","pluralName":"Coffee Shops","shortName":"Coffee Shop","icon":{"prefix":"https:\/\/ss3.4sqi.net\/img\/categories_v2\/food\/coffeeshop_","suffix":".png"},"primary":true}],"verified":true,"stats":{"checkinsCount":6085,"usersCount":1235,"tipCount":13},"url":"http:\/\/www.starbucks.com\/store\/16680\/","hasMenu":true,"menu":{"type":"Menu","label":"Menu","anchor":"View Menu","url":"http:\/\/www.starbucks.com\/menu","mobileUrl":"http:\/\/www.starbucks.com\/menu","externalUrl":"http:\/\/www.starbucks.com\/menu"},"allowMenuUrlEdit":true,"beenHere":{"lastCheckinExpiredAt":0},"specials":{"count":0,"items":[]},"storeId":"7243","referralId":"v-1483291002","venueChains":[{"id":"556f676fbd6a75a99038d8ec"}],"hasPerk":false},{"id":"4ac3dd8ef964a5202a9d20e3","name":"Starbucks","contact":{"phone":"9737621249","formattedPhone":"(973) 762-1249","twitter":"starbucks","facebook":"22092443056","facebookUsername":"Starbucks","facebookName":"Starbucks"},"location":{"address":"11 Sloan St","crossStreet":"at W South Orange Ave","lat":40.745987,"lng":-74.260372,"labeledLatLngs":[{"label":"display","lat":40.745987,"lng":-74.260372}],"postalCode":"07079","cc":"US","city":"South Orange","state":"NJ","country":"United States","formattedAddress":["11 Sloan St (at W South Orange Ave)","South Orange, NJ 07079","United States"]},"categories":[{"id":"4bf58dd8d48988d1e0931735","name":"Coffee Shop","pluralName":"Coffee Shops","shortName":"Coffee Shop","icon":{"prefix":"https:\/\/ss3.4sqi.net\/img\/categories_v2\/food\/coffeeshop_","suffix":".png"},"primary":true}],"verified":true,"stats":{"checkinsCount":7417,"usersCount":1522,"tipCount":40},"url":"http:\/\/www.starbucks.com\/store\/16343\/","hasMenu":true,"menu":{"type":"Menu","label":"Menu","anchor":"View Menu","url":"http:\/\/www.starbucks.com\/menu","mobileUrl":"http:\/\/www.starbucks.com\/menu","externalUrl":"http:\/\/www.starbucks.com\/menu"},"allowMenuUrlEdit":true,"beenHere":{"lastCheckinExpiredAt":0},"specials":{"count":0,"items":[]},"storeId":"7291","referralId":"v-1483291002","venueChains":[{"id":"556f676fbd6a75a99038d8ec"}],"hasPerk":false},{"id":"4bcb202868f976b065646083","name":"Dunkin Donuts","contact":{"phone":"9732434990","formattedPhone":"(973) 243-4990","twitter":"dunkindonuts","facebook":"6979393237","facebookUsername":"DunkinDonutsUS","facebookName":"Dunkin' Donuts"},"location":{"address":"581 Northfield Ave #G","lat":40.77015960918384,"lng":-74.28136026460263,"labeledLatLngs":[{"label":"display","lat":40.77015960918384,"lng":-74.28136026460263}],"postalCode":"07052","cc":"US","city":"West Orange","state":"NJ","country":"United States","formattedAddress":["581 Northfield Ave #G","West Orange, NJ 07052","United States"]},"categories":[{"id":"4bf58dd8d48988d148941735","name":"Donut Shop","pluralName":"Donut Shops","shortName":"Donuts","icon":{"prefix":"https:\/\/ss3.4sqi.net\/img\/categories_v2\/food\/donuts_","suffix":".png"},"primary":true}],"verified":true,"stats":{"checkinsCount":1225,"usersCount":377,"tipCount":8},"url":"http:\/\/www.dunkindonuts.com","allowMenuUrlEdit":true,"beenHere":{"lastCheckinExpiredAt":0},"specials":{"count":0,"items":[]},"storeId":"308866","referralId":"v-1483291002","venueChains":[{"id":"556f676fbd6a75a99038d8f0"}],"hasPerk":false},{"id":"4b34e322f964a520fb2825e3","name":"The Ritz Diner","contact":{"phone":"9735331213","formattedPhone":"(973) 533-1213"},"location":{"address":"72 E Mount Pleasant Ave","lat":40.796377,"lng":-74.312035,"labeledLatLngs":[{"label":"display","lat":40.796377,"lng":-74.312035}],"postalCode":"07039","cc":"US","city":"Livingston","state":"NJ","country":"United States","formattedAddress":["72 E Mount Pleasant Ave","Livingston, NJ 07039","United States"]},"categories":[{"id":"4bf58dd8d48988d147941735","name":"Diner","pluralName":"Diners","shortName":"Diner","icon":{"prefix":"https:\/\/ss3.4sqi.net\/img\/categories_v2\/food\/diner_","suffix":".png"},"primary":true}],"verified":false,"stats":{"checkinsCount":3413,"usersCount":1381,"tipCount":43},"hasMenu":true,"menu":{"type":"Menu","label":"Menu","anchor":"View Menu","url":"https:\/\/foursquare.com\/v\/the-ritz-diner\/4b34e322f964a520fb2825e3\/menu","mobileUrl":"https:\/\/foursquare.com\/v\/4b34e322f964a520fb2825e3\/device_menu"},"allowMenuUrlEdit":true,"beenHere":{"lastCheckinExpiredAt":0},"specials":{"count":0,"items":[]},"referralId":"v-1483291002","venueChains":[],"hasPerk":false},{"id":"4e95fcd55503e24777791113","name":"McLoone's Boathouse","contact":{"phone":"8622527108","formattedPhone":"(862) 252-7108"},"location":{"address":"9 Cherry Ln","lat":40.76794247221793,"lng":-74.28503315277268,"labeledLatLngs":[{"label":"display","lat":40.76794247221793,"lng":-74.28503315277268}],"postalCode":"07052","cc":"US","city":"West Orange","state":"NJ","country":"United States","formattedAddress":["9 Cherry Ln","West Orange, NJ 07052","United States"]},"categories":[{"id":"4bf58dd8d48988d1ce941735","name":"Seafood Restaurant","pluralName":"Seafood Restaurants","shortName":"Seafood","icon":{"prefix":"https:\/\/ss3.4sqi.net\/img\/categories_v2\/food\/seafood_","suffix":".png"},"primary":true}],"verified":false,"stats":{"checkinsCount":4903,"usersCount":2726,"tipCount":64},"url":"http:\/\/www.mcloonesboathouse.com","hasMenu":true,"menu":{"type":"Menu","label":"Menu","anchor":"View Menu","url":"https:\/\/foursquare.com\/v\/mcloones-boathouse\/4e95fcd55503e24777791113\/menu","mobileUrl":"https:\/\/foursquare.com\/v\/4e95fcd55503e24777791113\/device_menu"},"allowMenuUrlEdit":true,"beenHere":{"lastCheckinExpiredAt":0},"specials":{"count":0,"items":[]},"referralId":"v-1483291002","venueChains":[],"hasPerk":false},{"id":"4b5285dcf964a520ee8027e3","name":"The Manor","contact":{"phone":"9737312360","formattedPhone":"(973) 731-2360","twitter":"manorrestaurant"},"location":{"address":"111 Prospect Ave","lat":40.81270013469801,"lng":-74.24550990737939,"labeledLatLngs":[{"label":"display","lat":40.81270013469801,"lng":-74.24550990737939}],"postalCode":"07052","cc":"US","city":"West Orange","state":"NJ","country":"United States","formattedAddress":["111 Prospect Ave","West Orange, NJ 07052","United States"]},"categories":[{"id":"4bf58dd8d48988d14e941735","name":"American Restaurant","pluralName":"American Restaurants","shortName":"American","icon":{"prefix":"https:\/\/ss3.4sqi.net\/img\/categories_v2\/food\/default_","suffix":".png"},"primary":true}],"verified":true,"stats":{"checkinsCount":3271,"usersCount":2526,"tipCount":30},"url":"http:\/\/www.themanorrestaurant.com","hasMenu":true,"menu":{"type":"Menu","label":"Menu","anchor":"View Menu","url":"https:\/\/foursquare.com\/v\/the-manor\/4b5285dcf964a520ee8027e3\/menu","mobileUrl":"https:\/\/foursquare.com\/v\/4b5285dcf964a520ee8027e3\/device_menu"},"allowMenuUrlEdit":true,"beenHere":{"lastCheckinExpiredAt":0},"specials":{"count":0,"items":[]},"venuePage":{"id":"59950634"},"referralId":"v-1483291002","venueChains":[],"hasPerk":false},{"id":"4bc9a0d2937ca593540ba692","name":"Dunkin Donuts","contact":{"phone":"9733255664","formattedPhone":"(973) 325-5664","twitter":"dunkindonuts","facebook":"6979393237","facebookUsername":"DunkinDonutsUS","facebookName":"Dunkin' Donuts"},"location":{"address":"442 Pleasant Valley Way","lat":40.810761502327026,"lng":-74.2600720986038,"labeledLatLngs":[{"label":"display","lat":40.810761502327026,"lng":-74.2600720986038}],"postalCode":"07052","cc":"US","city":"West Orange","state":"NJ","country":"United States","formattedAddress":["442 Pleasant Valley Way","West Orange, NJ 07052","United States"]},"categories":[{"id":"4bf58dd8d48988d148941735","name":"Donut Shop","pluralName":"Donut Shops","shortName":"Donuts","icon":{"prefix":"https:\/\/ss3.4sqi.net\/img\/categories_v2\/food\/donuts_","suffix":".png"},"primary":true}],"verified":true,"stats":{"checkinsCount":1684,"usersCount":447,"tipCount":11},"url":"http:\/\/www.dunkindonuts.com","allowMenuUrlEdit":true,"beenHere":{"lastCheckinExpiredAt":0},"specials":{"count":0,"items":[]},"storeId":"341924","referralId":"v-1483291002","venueChains":[{"id":"556f676fbd6a75a99038d8f0"}],"hasPerk":false},{"id":"530bb9d0498e6a5a1cde7146","name":"Chipotle Mexican Grill","contact":{"phone":"9737361873","formattedPhone":"(973) 736-1873","twitter":"chipotletweets"},"location":{"address":"235 Prospect Ave","crossStreet":"Prospect Ave & Eagle Rock Ave","lat":40.80385573461491,"lng":-74.24869638122775,"labeledLatLngs":[{"label":"display","lat":40.80385573461491,"lng":-74.24869638122775}],"postalCode":"07052","cc":"US","city":"West Orange","state":"NJ","country":"United States","formattedAddress":["235 Prospect Ave (Prospect Ave & Eagle Rock Ave)","West Orange, NJ 07052","United States"]},"categories":[{"id":"4bf58dd8d48988d1c1941735","name":"Mexican Restaurant","pluralName":"Mexican Restaurants","shortName":"Mexican","icon":{"prefix":"https:\/\/ss3.4sqi.net\/img\/categories_v2\/food\/mexican_","suffix":".png"},"primary":true}],"verified":true,"stats":{"checkinsCount":1113,"usersCount":432,"tipCount":9},"url":"http:\/\/www.chipotle.com","allowMenuUrlEdit":true,"beenHere":{"lastCheckinExpiredAt":0},"specials":{"count":0,"items":[]},"storeId":"2011","referralId":"v-1483291002","venueChains":[{"id":"556e0f6fa7c82e6b724f8c82"}],"hasPerk":false},{"id":"4db320e881543d71da29ccda","name":"Quick Shop Food - News","contact":{"phone":"9733255615","formattedPhone":"(973) 325-5615"},"location":{"address":"463 Mount Pleasant Ave","lat":40.79297688419251,"lng":-74.26932688261516,"labeledLatLngs":[{"label":"display","lat":40.79297688419251,"lng":-74.26932688261516}],"postalCode":"07052","cc":"US","city":"West Orange","state":"NJ","country":"United States","formattedAddress":["463 Mount Pleasant Ave","West Orange, NJ 07052","United States"]},"categories":[{"id":"4bf58dd8d48988d146941735","name":"Deli \/ Bodega","pluralName":"Delis \/ Bodegas","shortName":"Deli \/ Bodega","icon":{"prefix":"https:\/\/ss3.4sqi.net\/img\/categories_v2\/food\/deli_","suffix":".png"},"primary":true}],"verified":false,"stats":{"checkinsCount":1423,"usersCount":45,"tipCount":1},"allowMenuUrlEdit":true,"beenHere":{"lastCheckinExpiredAt":0},"specials":{"count":0,"items":[]},"referralId":"v-1483291002","venueChains":[],"hasPerk":false},{"id":"4b412a00f964a52077c225e3","name":"Ashley Marketplace","contact":{"phone":"9737625200","formattedPhone":"(973) 762-5200","twitter":"ashleymarket","facebook":"529670690389845","facebookUsername":"1SouthOrangeAve","facebookName":"Ashley Marketplace"},"location":{"address":"1 South Orange Ave","crossStreet":"Vose Ave","lat":40.74670877604954,"lng":-74.25961364509523,"labeledLatLngs":[{"label":"display","lat":40.74670877604954,"lng":-74.25961364509523}],"postalCode":"07079","cc":"US","city":"South Orange","state":"NJ","country":"United States","formattedAddress":["1 South Orange Ave (Vose Ave)","South Orange, NJ 07079","United States"]},"categories":[{"id":"4bf58dd8d48988d118951735","name":"Grocery Store","pluralName":"Grocery Stores","shortName":"Grocery Store","icon":{"prefix":"https:\/\/ss3.4sqi.net\/img\/categories_v2\/shops\/food_grocery_","suffix":".png"},"primary":true}],"verified":true,"stats":{"checkinsCount":3010,"usersCount":711,"tipCount":24},"url":"http:\/\/www.ashleymarketplace.com","allowMenuUrlEdit":true,"beenHere":{"lastCheckinExpiredAt":0},"specials":{"count":0,"items":[]},"venuePage":{"id":"36350048"},"storeId":"","referralId":"v-1483291002","venueChains":[],"hasPerk":false},{"id":"4c0cf0227189c9285d2bd6b6","name":"Dunkin Donuts","contact":{"phone":"9739923766","formattedPhone":"(973) 992-3766","twitter":"dunkindonuts","facebook":"6979393237","facebookUsername":"DunkinDonutsUS","facebookName":"Dunkin' Donuts"},"location":{"address":"43 S Livingston Ave","lat":40.79476544453905,"lng":-74.31494064643472,"labeledLatLngs":[{"label":"display","lat":40.79476544453905,"lng":-74.31494064643472}],"postalCode":"07039","cc":"US","city":"Livingston","state":"NJ","country":"United States","formattedAddress":["43 S Livingston Ave","Livingston, NJ 07039","United States"]},"categories":[{"id":"4bf58dd8d48988d148941735","name":"Donut Shop","pluralName":"Donut Shops","shortName":"Donuts","icon":{"prefix":"https:\/\/ss3.4sqi.net\/img\/categories_v2\/food\/donuts_","suffix":".png"},"primary":true}],"verified":true,"stats":{"checkinsCount":2887,"usersCount":499,"tipCount":4},"url":"http:\/\/www.dunkindonuts.com","allowMenuUrlEdit":true,"beenHere":{"lastCheckinExpiredAt":0},"specials":{"count":0,"items":[]},"storeId":"308659","referralId":"v-1483291002","venueChains":[{"id":"556f676fbd6a75a99038d8f0"}],"hasPerk":false},{"id":"4a7f2a28f964a5201af31fe3","name":"McDonald's","contact":{"phone":"9737318829","formattedPhone":"(973) 731-8829"},"location":{"address":"573 Northfield Ave","lat":40.77014324314985,"lng":-74.28160665411679,"labeledLatLngs":[{"label":"display","lat":40.77014324314985,"lng":-74.28160665411679}],"postalCode":"07052","cc":"US","city":"West Orange","state":"NJ","country":"United States","formattedAddress":["573 Northfield Ave","West Orange, NJ 07052","United States"]},"categories":[{"id":"4bf58dd8d48988d16e941735","name":"Fast Food Restaurant","pluralName":"Fast Food Restaurants","shortName":"Fast Food","icon":{"prefix":"https:\/\/ss3.4sqi.net\/img\/categories_v2\/food\/fastfood_","suffix":".png"},"primary":true}],"verified":true,"stats":{"checkinsCount":1574,"usersCount":567,"tipCount":31},"url":"http:\/\/mcdonalds.com","hasMenu":true,"menu":{"type":"Menu","label":"Menu","anchor":"View Menu","url":"https:\/\/foursquare.com\/v\/mcdonalds\/4a7f2a28f964a5201af31fe3\/menu","mobileUrl":"https:\/\/foursquare.com\/v\/4a7f2a28f964a5201af31fe3\/device_menu"},"allowMenuUrlEdit":true,"beenHere":{"lastCheckinExpiredAt":0},"specials":{"count":0,"items":[]},"storeId":"1443","referralId":"v-1483291002","venueChains":[{"id":"556f7a12bd6a75a9903bddb2"}],"hasPerk":false},{"id":"4b6cb81bf964a520dd4e2ce3","name":"Village Trattoria","contact":{"phone":"9737622015","formattedPhone":"(973) 762-2015"},"location":{"address":"21 S Orange Ave","crossStreet":"at Vose Ave","lat":40.74618404154383,"lng":-74.25925254821777,"labeledLatLngs":[{"label":"display","lat":40.74618404154383,"lng":-74.25925254821777}],"postalCode":"07079","cc":"US","city":"South Orange","state":"NJ","country":"United States","formattedAddress":["21 S Orange Ave (at Vose Ave)","South Orange, NJ 07079","United States"]},"categories":[{"id":"4bf58dd8d48988d110941735","name":"Italian Restaurant","pluralName":"Italian Restaurants","shortName":"Italian","icon":{"prefix":"https:\/\/ss3.4sqi.net\/img\/categories_v2\/food\/italian_","suffix":".png"},"primary":true}],"verified":false,"stats":{"checkinsCount":2614,"usersCount":806,"tipCount":47},"url":"http:\/\/villagetrattoria.com","hasMenu":true,"menu":{"type":"Menu","label":"Menu","anchor":"View Menu","url":"https:\/\/foursquare.com\/v\/village-trattoria\/4b6cb81bf964a520dd4e2ce3\/menu","mobileUrl":"https:\/\/foursquare.com\/v\/4b6cb81bf964a520dd4e2ce3\/device_menu"},"allowMenuUrlEdit":true,"beenHere":{"lastCheckinExpiredAt":0},"specials":{"count":0,"items":[]},"referralId":"v-1483291002","venueChains":[],"hasPerk":false},{"id":"4b4a0dfcf964a5201d7926e3","name":"Eppes Essen","contact":{"phone":"9739941120","formattedPhone":"(973) 994-1120"},"location":{"address":"105 E Mount Pleasant Ave","lat":40.79703961626444,"lng":-74.31075847762855,"labeledLatLngs":[{"label":"display","lat":40.79703961626444,"lng":-74.31075847762855}],"postalCode":"07039","cc":"US","city":"Livingston","state":"NJ","country":"United States","formattedAddress":["105 E Mount Pleasant Ave","Livingston, NJ 07039","United States"]},"categories":[{"id":"4bf58dd8d48988d146941735","name":"Deli \/ Bodega","pluralName":"Delis \/ Bodegas","shortName":"Deli \/ Bodega","icon":{"prefix":"https:\/\/ss3.4sqi.net\/img\/categories_v2\/food\/deli_","suffix":".png"},"primary":true}],"verified":true,"stats":{"checkinsCount":1461,"usersCount":587,"tipCount":16},"url":"http:\/\/eppesessen.com","hasMenu":true,"menu":{"type":"Menu","label":"Menu","anchor":"View Menu","url":"https:\/\/foursquare.com\/v\/eppes-essen\/4b4a0dfcf964a5201d7926e3\/menu","mobileUrl":"https:\/\/foursquare.com\/v\/4b4a0dfcf964a5201d7926e3\/device_menu"},"allowMenuUrlEdit":true,"beenHere":{"lastCheckinExpiredAt":0},"specials":{"count":0,"items":[]},"venuePage":{"id":"87036249"},"referralId":"v-1483291002","venueChains":[],"hasPerk":false},{"id":"4b12bbdef964a5200c8d23e3","name":"Sweet Basil's Cafe","contact":{"phone":"9739943600","formattedPhone":"(973) 994-3600"},"location":{"address":"498 S Livingston Ave","lat":40.775488076670534,"lng":-74.32328224182129,"labeledLatLngs":[{"label":"display","lat":40.775488076670534,"lng":-74.32328224182129}],"postalCode":"07039","cc":"US","city":"Livingston","state":"NJ","country":"United States","formattedAddress":["498 S Livingston Ave","Livingston, NJ 07039","United States"]},"categories":[{"id":"4bf58dd8d48988d16d941735","name":"Café","pluralName":"Cafés","shortName":"Café","icon":{"prefix":"https:\/\/ss3.4sqi.net\/img\/categories_v2\/food\/cafe_","suffix":".png"},"primary":true}],"verified":false,"stats":{"checkinsCount":2590,"usersCount":1095,"tipCount":58},"url":"http:\/\/www.sweetbasilscafe.com","hasMenu":true,"menu":{"type":"Menu","label":"Menu","anchor":"View Menu","url":"https:\/\/foursquare.com\/v\/sweet-basils-cafe\/4b12bbdef964a5200c8d23e3\/menu","mobileUrl":"https:\/\/foursquare.com\/v\/4b12bbdef964a5200c8d23e3\/device_menu"},"allowMenuUrlEdit":true,"beenHere":{"lastCheckinExpiredAt":0},"specials":{"count":0,"items":[]},"referralId":"v-1483291002","venueChains":[],"hasPerk":false},{"id":"4c4a4ec942b4d13ab06b027d","name":"Ariyoshi","contact":{"phone":"9733788818","formattedPhone":"(973) 378-8818"},"location":{"address":"56 South Orange Avenue","lat":40.74667348790924,"lng":-74.26117811295673,"labeledLatLngs":[{"label":"display","lat":40.74667348790924,"lng":-74.26117811295673}],"cc":"US","city":"South Orange","state":"NJ","country":"United States","formattedAddress":["56 South Orange Avenue","South Orange, NJ","United States"]},"categories":[{"id":"4bf58dd8d48988d111941735","name":"Japanese Restaurant","pluralName":"Japanese Restaurants","shortName":"Japanese","icon":{"prefix":"https:\/\/ss3.4sqi.net\/img\/categories_v2\/food\/japanese_","suffix":".png"},"primary":true}],"verified":false,"stats":{"checkinsCount":1046,"usersCount":401,"tipCount":19},"url":"http:\/\/ariyoshijapanese.com","allowMenuUrlEdit":true,"beenHere":{"lastCheckinExpiredAt":0},"specials":{"count":0,"items":[]},"referralId":"v-1483291002","venueChains":[],"hasPerk":false},{"id":"4b8016d9f964a520195130e3","name":"Livingston Bagel","contact":{"phone":"9739941915","formattedPhone":"(973) 994-1915"},"location":{"address":"37 E Northfield Rd","lat":40.77396139476651,"lng":-74.32255996566664,"labeledLatLngs":[{"label":"display","lat":40.77396139476651,"lng":-74.32255996566664}],"postalCode":"07039","cc":"US","city":"Livingston","state":"NJ","country":"United States","formattedAddress":["37 E Northfield Rd","Livingston, NJ 07039","United States"]},"categories":[{"id":"4bf58dd8d48988d179941735","name":"Bagel Shop","pluralName":"Bagel Shops","shortName":"Bagels","icon":{"prefix":"https:\/\/ss3.4sqi.net\/img\/categories_v2\/food\/bagels_","suffix":".png"},"primary":true}],"verified":true,"stats":{"checkinsCount":1884,"usersCount":576,"tipCount":19},"url":"http:\/\/livingstonbagelnj.com","hasMenu":true,"menu":{"type":"Menu","label":"Menu","anchor":"View Menu","url":"https:\/\/foursquare.com\/v\/livingston-bagel\/4b8016d9f964a520195130e3\/menu","mobileUrl":"https:\/\/foursquare.com\/v\/4b8016d9f964a520195130e3\/device_menu"},"allowMenuUrlEdit":true,"beenHere":{"lastCheckinExpiredAt":0},"specials":{"count":0,"items":[]},"referralId":"v-1483291002","venueChains":[],"hasPerk":false},{"id":"4c054c4658dad13af4714897","name":"TGI Fridays","contact":{"phone":"9732432700","formattedPhone":"(973) 243-2700","twitter":"tgifridays","facebook":"107696493204","facebookUsername":"TGIFridays","facebookName":"TGI Fridays"},"location":{"address":"495 Prospect Ave","lat":40.7920441,"lng":-74.25504684,"labeledLatLngs":[{"label":"display","lat":40.7920441,"lng":-74.25504684}],"postalCode":"07052","cc":"US","city":"West Orange","state":"NJ","country":"United States","formattedAddress":["495 Prospect Ave","West Orange, NJ 07052","United States"]},"categories":[{"id":"4bf58dd8d48988d14e941735","name":"American Restaurant","pluralName":"American Restaurants","shortName":"American","icon":{"prefix":"https:\/\/ss3.4sqi.net\/img\/categories_v2\/food\/default_","suffix":".png"},"primary":true}],"verified":true,"stats":{"checkinsCount":4215,"usersCount":1996,"tipCount":46},"url":"http:\/\/tgifridays.com","allowMenuUrlEdit":true,"beenHere":{"lastCheckinExpiredAt":0},"specials":{"count":0,"items":[]},"storeId":"1688","referralId":"v-1483291002","venueChains":[{"id":"556cfa63aceaff43eb063e0f"}],"hasPerk":false},{"id":"4b54651ef964a520b6b927e3","name":"Manhattan Bagel","contact":{"phone":"9732264440","formattedPhone":"(973) 226-4440","twitter":"manhattanbagel","facebook":"543775229016441","facebookUsername":"manhattanbagelbayonne","facebookName":"Manhattan Bagel Bayonne"},"location":{"address":"29 Eisenhower Pkwy","lat":40.82200326,"lng":-74.32776269,"labeledLatLngs":[{"label":"display","lat":40.82200326,"lng":-74.32776269}],"postalCode":"07068","cc":"US","city":"Roseland","state":"NJ","country":"United States","formattedAddress":["29 Eisenhower Pkwy","Roseland, NJ 07068","United States"]},"categories":[{"id":"4bf58dd8d48988d179941735","name":"Bagel Shop","pluralName":"Bagel Shops","shortName":"Bagels","icon":{"prefix":"https:\/\/ss3.4sqi.net\/img\/categories_v2\/food\/bagels_","suffix":".png"},"primary":true}],"verified":true,"stats":{"checkinsCount":1851,"usersCount":400,"tipCount":9},"url":"http:\/\/www.manhattanbagel.com","hasMenu":true,"menu":{"type":"Menu","label":"Menu","anchor":"View Menu","url":"https:\/\/foursquare.com\/v\/manhattan-bagel\/4b54651ef964a520b6b927e3\/menu","mobileUrl":"https:\/\/foursquare.com\/v\/4b54651ef964a520b6b927e3\/device_menu"},"allowMenuUrlEdit":true,"beenHere":{"lastCheckinExpiredAt":0},"specials":{"count":0,"items":[]},"storeId":"460","referralId":"v-1483291002","venueChains":[{"id":"556f4350bd6a007c773894a4"}],"hasPerk":false},{"id":"4bf5bcb9bfeac928221b9336","name":"Livingston Mart","contact":{},"location":{"address":"North Livingston Ave","lat":40.807789508302726,"lng":-74.31285530311148,"labeledLatLngs":[{"label":"display","lat":40.807789508302726,"lng":-74.31285530311148}],"postalCode":"07039","cc":"US","city":"Livingston","state":"NJ","country":"United States","formattedAddress":["North Livingston Ave","Livingston, NJ 07039","United States"]},"categories":[{"id":"4bf58dd8d48988d1ff941735","name":"Miscellaneous Shop","pluralName":"Miscellaneous Shops","shortName":"Shop","icon":{"prefix":"https:\/\/ss3.4sqi.net\/img\/categories_v2\/shops\/default_","suffix":".png"},"primary":true}],"verified":false,"stats":{"checkinsCount":1554,"usersCount":162,"tipCount":4},"allowMenuUrlEdit":true,"beenHere":{"lastCheckinExpiredAt":0},"specials":{"count":0,"items":[]},"referralId":"v-1483291002","venueChains":[],"hasPerk":false},{"id":"4ba4d26ff964a52028b838e3","name":"Hot Bagels Abroad","contact":{"phone":"9735910661","formattedPhone":"(973) 591-0661"},"location":{"address":"8 S Orange Ave","lat":40.746200298055705,"lng":-74.2595636844635,"labeledLatLngs":[{"label":"display","lat":40.746200298055705,"lng":-74.2595636844635}],"postalCode":"07079","cc":"US","city":"South Orange","state":"NJ","country":"United States","formattedAddress":["8 S Orange Ave","South Orange, NJ 07079","United States"]},"categories":[{"id":"4bf58dd8d48988d179941735","name":"Bagel Shop","pluralName":"Bagel Shops","shortName":"Bagels","icon":{"prefix":"https:\/\/ss3.4sqi.net\/img\/categories_v2\/food\/bagels_","suffix":".png"},"primary":true}],"verified":false,"stats":{"checkinsCount":2204,"usersCount":496,"tipCount":25},"url":"http:\/\/hotbagelsabroad.com\/","menu":{"type":"Menu","label":"Menu","anchor":"View Menu","url":"http:\/\/hotbagelsabroad.com\/index.php\/menu","mobileUrl":"http:\/\/hotbagelsabroad.com\/index.php\/menu","externalUrl":"http:\/\/hotbagelsabroad.com\/index.php\/menu"},"allowMenuUrlEdit":true,"beenHere":{"lastCheckinExpiredAt":0},"specials":{"count":0,"items":[]},"referralId":"v-1483291002","venueChains":[],"hasPerk":false},{"id":"4b3fd4bcf964a520edaf25e3","name":"Nero's Grille","contact":{"phone":"9739941410","formattedPhone":"(973) 994-1410","twitter":"nerosgrill"},"location":{"address":"618 S Livingston Ave","lat":40.772928,"lng":-74.32713,"labeledLatLngs":[{"label":"display","lat":40.772928,"lng":-74.32713}],"postalCode":"07039","cc":"US","city":"Livingston","state":"NJ","country":"United States","formattedAddress":["618 S Livingston Ave","Livingston, NJ 07039","United States"]},"categories":[{"id":"4bf58dd8d48988d14e941735","name":"American Restaurant","pluralName":"American Restaurants","shortName":"American","icon":{"prefix":"https:\/\/ss3.4sqi.net\/img\/categories_v2\/food\/default_","suffix":".png"},"primary":true}],"verified":false,"stats":{"checkinsCount":942,"usersCount":407,"tipCount":8},"hasMenu":true,"menu":{"type":"Menu","label":"Menu","anchor":"View Menu","url":"https:\/\/foursquare.com\/v\/neros-grille\/4b3fd4bcf964a520edaf25e3\/menu","mobileUrl":"https:\/\/foursquare.com\/v\/4b3fd4bcf964a520edaf25e3\/device_menu"},"allowMenuUrlEdit":true,"beenHere":{"lastCheckinExpiredAt":0},"specials":{"count":0,"items":[]},"referralId":"v-1483291002","venueChains":[],"hasPerk":false},{"id":"4bffedabdaf9c9b605effaef","name":"Jerusalem Restaurant","contact":{"phone":"9735331424","formattedPhone":"(973) 533-1424"},"location":{"address":"99 W Mount Pleasant Ave","lat":40.794973348009954,"lng":-74.3198388170945,"labeledLatLngs":[{"label":"display","lat":40.794973348009954,"lng":-74.3198388170945}],"postalCode":"07039","cc":"US","city":"Livingston","state":"NJ","country":"United States","formattedAddress":["99 W Mount Pleasant Ave","Livingston, NJ 07039","United States"]},"categories":[{"id":"4bf58dd8d48988d1ca941735","name":"Pizza Place","pluralName":"Pizza Places","shortName":"Pizza","icon":{"prefix":"https:\/\/ss3.4sqi.net\/img\/categories_v2\/food\/pizza_","suffix":".png"},"primary":true}],"verified":false,"stats":{"checkinsCount":939,"usersCount":177,"tipCount":11},"url":"http:\/\/www.jerusalem-gourmet.com\/","hasMenu":true,"menu":{"type":"Menu","label":"Menu","anchor":"View Menu","url":"https:\/\/foursquare.com\/v\/jerusalem-restaurant\/4bffedabdaf9c9b605effaef\/menu","mobileUrl":"https:\/\/foursquare.com\/v\/4bffedabdaf9c9b605effaef\/device_menu"},"allowMenuUrlEdit":true,"beenHere":{"lastCheckinExpiredAt":0},"specials":{"count":0,"items":[]},"referralId":"v-1483291002","venueChains":[],"hasPerk":false},{"id":"5491a7f7498e3a75acd21465","name":"Jersey Mike's Subs","contact":{"phone":"9733253220","formattedPhone":"(973) 325-3220"},"location":{"address":"235 Prospect Ave","lat":40.8039436,"lng":-74.24913845,"labeledLatLngs":[{"label":"display","lat":40.8039436,"lng":-74.24913845}],"postalCode":"07052","cc":"US","city":"West Orange","state":"NJ","country":"United States","formattedAddress":["235 Prospect Ave","West Orange, NJ 07052","United States"]},"categories":[{"id":"4bf58dd8d48988d146941735","name":"Deli \/ Bodega","pluralName":"Delis \/ Bodegas","shortName":"Deli \/ Bodega","icon":{"prefix":"https:\/\/ss3.4sqi.net\/img\/categories_v2\/food\/deli_","suffix":".png"},"primary":true}],"verified":true,"stats":{"checkinsCount":261,"usersCount":111,"tipCount":2},"url":"https:\/\/www.jerseymikes.com\/1054","allowMenuUrlEdit":true,"beenHere":{"lastCheckinExpiredAt":0},"specials":{"count":0,"items":[]},"referralId":"v-1483291002","venueChains":[{"id":"556ceb48aceaff43eb05f62f"}],"hasPerk":false},{"id":"4b897238f964a520083732e3","name":"Dunkin' Donuts","contact":{"phone":"9737402313","formattedPhone":"(973) 740-2313","twitter":"dunkindonuts","facebook":"6979393237","facebookUsername":"DunkinDonutsUS","facebookName":"Dunkin' Donuts"},"location":{"address":"3135 Northfield Rd","lat":40.774065561148944,"lng":-74.32291514414074,"labeledLatLngs":[{"label":"display","lat":40.774065561148944,"lng":-74.32291514414074}],"postalCode":"7039","cc":"US","city":"Livingston","state":"NJ","country":"United States","formattedAddress":["3135 Northfield Rd","Livingston, NJ 7039","United States"]},"categories":[{"id":"4bf58dd8d48988d148941735","name":"Donut Shop","pluralName":"Donut Shops","shortName":"Donuts","icon":{"prefix":"https:\/\/ss3.4sqi.net\/img\/categories_v2\/food\/donuts_","suffix":".png"},"primary":true}],"verified":true,"stats":{"checkinsCount":1902,"usersCount":280,"tipCount":2},"url":"http:\/\/www.dunkindonuts.com","allowMenuUrlEdit":true,"beenHere":{"lastCheckinExpiredAt":0},"specials":{"count":0,"items":[]},"storeId":"344414","referralId":"v-1483291002","venueChains":[{"id":"556f676fbd6a75a99038d8f0"}],"hasPerk":false},{"id":"51eaa953498e0c4a2fcd1080","name":"7-Eleven","contact":{"phone":"9737630161","formattedPhone":"(973) 763-0161","twitter":"7eleven","facebook":"238505752974027","facebookUsername":"7ElevenSouthOrange36429","facebookName":"7-Eleven"},"location":{"address":"60 Valley St","lat":40.744665,"lng":-74.259221,"labeledLatLngs":[{"label":"display","lat":40.744665,"lng":-74.259221}],"postalCode":"07079","cc":"US","city":"South Orange","state":"NJ","country":"United States","formattedAddress":["60 Valley St","South Orange, NJ 07079","United States"]},"categories":[{"id":"4d954b0ea243a5684a65b473","name":"Convenience Store","pluralName":"Convenience Stores","shortName":"Convenience Store","icon":{"prefix":"https:\/\/ss3.4sqi.net\/img\/categories_v2\/shops\/conveniencestore_","suffix":".png"},"primary":true}],"verified":true,"stats":{"checkinsCount":244,"usersCount":56,"tipCount":1},"url":"http:\/\/www.7-eleven.com","allowMenuUrlEdit":true,"beenHere":{"lastCheckinExpiredAt":0},"specials":{"count":0,"items":[]},"referralId":"v-1483291002","venueChains":[{"id":"556f676fbd6a75a99038d8e9"}],"hasPerk":false},{"id":"541895ee498e07696660a7a2","name":"Anthony's Coal Fired Pizza","contact":{"phone":"9739922625","formattedPhone":"(973) 992-2625","twitter":"anthonyscfpizza"},"location":{"address":"8119 Town Center Way","crossStreet":"E. Mt. Pleasant Ave (Route 10) & N. Livingston Ave","lat":40.796282281098314,"lng":-74.31409276248857,"labeledLatLngs":[{"label":"display","lat":40.796282281098314,"lng":-74.31409276248857}],"postalCode":"07039","cc":"US","city":"Livingston","state":"NJ","country":"United States","formattedAddress":["8119 Town Center Way (E. Mt. Pleasant Ave (Route 10) & N. Livingston Ave)","Livingston, NJ 07039","United States"]},"categories":[{"id":"4bf58dd8d48988d1ca941735","name":"Pizza Place","pluralName":"Pizza Places","shortName":"Pizza","icon":{"prefix":"https:\/\/ss3.4sqi.net\/img\/categories_v2\/food\/pizza_","suffix":".png"},"primary":true}],"verified":false,"stats":{"checkinsCount":430,"usersCount":198,"tipCount":8},"url":"https:\/\/acfp.com","allowMenuUrlEdit":true,"beenHere":{"lastCheckinExpiredAt":0},"specials":{"count":0,"items":[]},"referralId":"v-1483291002","venueChains":[{"id":"5569fbe9a7c8896abe7d744c"}],"hasPerk":false}]}}