{"meta":{"code":200,"requestId":"586939779fb6b73bd1238904"},"response":{"venues":[{"id":"54fc4926498e39df2f400e57","name":"Starbucks","contact":{"phone":"2019391613","formattedPhone":"(201) 939-1613","twitter":"starbucks","facebook":"22092443056","facebookUsername":"Starbucks","facebookName":"Starbucks"},"location":{"address":"96 Meadow Road","crossStreet":"Hwy 17 South","lat":40.82276,"lng":-74.10072,"labeledLatLngs":[{"label":"display","lat":40.82276,"lng":-74.10072}],"postalCode":"07070","cc":"US","city":"Rutherford","state":"NJ","country":"United States","formattedAddress":["96 Meadow Road (Hwy 17 South)","Rutherford, NJ 07070","United States"]},"categories":[{"id":"4bf58dd8d48988d1e0931735","name":"Coffee Shop","pluralName":"Coffee Shops","shortName":"Coffee Shop","icon":{"prefix":"https:\/\/ss3.4sqi.net\/img\/categories_v2\/food\/coffeeshop_","suffix":".png"},"primary":true}],"verified":true,"stats":{"checkinsCount":1722,"usersCount":290,"tipCount":4},"url":"http:\/\/www.starbucks.com","menu":{"type":"Menu","label":"Menu","anchor":"View Menu","url":"http:\/\/starbucks.com\/menu\/","mobileUrl":"http:\/\/starbucks.com\/menu\/","externalUrl":"http:\/\/starbucks.com\/menu\/"},"allowMenuUrlEdit":true,"beenHere":{"lastCheckinExpiredAt":0},"specials":{"count":0,"items":[]},"storeId":"23590","referralId":"v-1483290999","venueChains":[{"id":"556f676fbd6a75a99038d8ec"}],"hasPerk":false},{"id":"50c3cbbce4b085c8e4119be8","name":"Wawa","contact":{"twitter":"wawa"},"location":{"address":"200 Harrison Ave","lat":40.749020007573044,"lng":-74.13613920077994,"labeledLatLngs":[{"label":"display","lat":40.749020007573044,"lng":-74.13613920077994}],"postalCode":"07032","cc":"US","city":"Kearny","state":"NJ","country":"United States","formattedAddress":["200 Harrison Ave","Kearny, NJ 07032","United States"]},"categories":[{"id":"4bf58dd8d48988d113951735","name":"Gas Station","pluralName":"Gas Stations","shortName":"Gas Station","icon":{"prefix":"https:\/\/ss3.4sqi.net\/img\/categories_v2\/shops\/gas_","suffix":".png"},"primary":true}],"verified":true,"stats":{"checkinsCount":4354,"usersCount":1217,"tipCount":15},"url":"http:\/\/www.wawa.com","allowMenuUrlEdit":true,"beenHere":{"lastCheckinExpiredAt":0},"specials":{"count":0,"items":[]},"storeId":"8318","referralId":"v-1483290999","venueChains":[{"id":"556d0353aceaff43eb077f05"}],"hasPerk":false},{"id":"4ba4bd65f964a520a3b038e3","name":"Super Stop & Shop","contact":{"phone":"2014381747","formattedPhone":"(201) 438-1747"},"location":{"address":"425 Lewandowski St","crossStreet":"btwn Page & Marin","lat":40.80370856979643,"lng":-74.11799433686318,"labeledLatLngs":[{"label":"display","lat":40.80370856979643,"lng":-74.11799433686318}],"postalCode":"07071","cc":"US","city":"Lyndhurst","state":"NJ","country":"United States","formattedAddress":["425 Lewandowski St (btwn Page & Marin)","Lyndhurst, NJ 07071","United States"]},"categories":[{"id":"52f2ab2ebcbc57f1066b8b46","name":"Supermarket","pluralName":"Supermarkets","shortName":"Supermarket","icon":{"prefix":"https:\/\/ss3.4sqi.net\/img\/categories_v2\/shops\/food_grocery_","suffix":".png"},"primary":true}],"verified":false,"stats":{"checkinsCount":7160,"usersCount":735,"tipCount":13},"allowMenuUrlEdit":true,"beenHere":{"lastCheckinExpiredAt":0},"specials":{"count":0,"items":[]},"referralId":"v-1483290999","venueChains":[{"id":"57471a0b498e6f9eafbcc874"}],"hasPerk":false},{"id":"4a90a5caf964a520f01820e3","name":"The Shannon Rose Irish Pub","contact":{"phone":"9732840200","formattedPhone":"(973) 284-0200","twitter":"theshannonrosec"},"location":{"address":"98 Kingsland Rd","crossStreet":"Clifton Commons","lat":40.82530613438675,"lng":-74.1381025314331,"labeledLatLngs":[{"label":"display","lat":40.82530613438675,"lng":-74.1381025314331}],"postalCode":"07014","cc":"US","city":"Clifton","state":"NJ","country":"United States","formattedAddress":["98 Kingsland Rd (Clifton Commons)","Clifton, NJ 07014","United States"]},"categories":[{"id":"52e81612bcbc57f1066b7a06","name":"Irish Pub","pluralName":"Irish Pubs","shortName":"Irish","icon":{"prefix":"https:\/\/ss3.4sqi.net\/img\/categories_v2\/nightlife\/pub_","suffix":".png"},"primary":true}],"verified":true,"stats":{"checkinsCount":16630,"usersCount":6771,"tipCount":84},"url":"https:\/\/www.facebook.com\/shannonrosepubs","menu":{"type":"Menu","label":"Menu","anchor":"View Menu","url":"http:\/\/www.theshannonrose.com\/menu\/","mobileUrl":"http:\/\/www.theshannonrose.com\/menu\/","externalUrl":"http:\/\/www.theshannonrose.com\/menu\/"},"allowMenuUrlEdit":true,"beenHere":{"lastCheckinExpiredAt":0},"specials":{"count":0,"items":[]},"referralId":"v-1483290999","venueChains":[{"id":"556e54aebd6a82902e287090"}],"hasPerk":false},{"id":"4ba120adf964a5207d9a37e3","name":"7-Eleven","contact":{"phone":"2017290990","formattedPhone":"(201) 729-0990","twitter":"7eleven","facebook":"255712781117292","facebookUsername":"7ElevenLyndhurst32353","facebookName":"7-Eleven"},"location":{"address":"750 Rutherford Ave","crossStreet":"at Orient Way","lat":40.813494,"lng":-74.109647,"labeledLatLngs":[{"label":"display","lat":40.813494,"lng":-74.109647}],"postalCode":"07071","cc":"US","city":"Lyndhurst","state":"NJ","country":"United States","formattedAddress":["750 Rutherford Ave (at Orient Way)","Lyndhurst, NJ 07071","United States"]},"categories":[{"id":"4d954b0ea243a5684a65b473","name":"Convenience Store","pluralName":"Convenience Stores","shortName":"Convenience Store","icon":{"prefix":"https:\/\/ss3.4sqi.net\/img\/categories_v2\/shops\/conveniencestore_","suffix":".png"},"primary":true}],"verified":true,"stats":{"checkinsCount":3771,"usersCount":873,"tipCount":11},"url":"http:\/\/www.7-eleven.com","allowMenuUrlEdit":true,"beenHere":{"lastCheckinExpiredAt":0},"specials":{"count":0,"items":[]},"storeId":"32353","referralId":"v-1483290999","venueChains":[{"id":"556f676fbd6a75a99038d8e9"}],"hasPerk":false},{"id":"4b4bbdc1f964a52000a626e3","name":"Rutt's Hut","contact":{"phone":"9737798615","formattedPhone":"(973) 779-8615"},"location":{"address":"417 River Rd","lat":40.826987453774166,"lng":-74.12384974596348,"labeledLatLngs":[{"label":"display","lat":40.826987453774166,"lng":-74.12384974596348}],"postalCode":"07014","cc":"US","city":"Clifton","state":"NJ","country":"United States","formattedAddress":["417 River Rd","Clifton, NJ 07014","United States"]},"categories":[{"id":"4bf58dd8d48988d16f941735","name":"Hot Dog Joint","pluralName":"Hot Dog Joints","shortName":"Hot Dogs","icon":{"prefix":"https:\/\/ss3.4sqi.net\/img\/categories_v2\/food\/hotdog_","suffix":".png"},"primary":true}],"verified":false,"stats":{"checkinsCount":7262,"usersCount":3595,"tipCount":116},"url":"http:\/\/www.ruttshut.com\/","hasMenu":true,"menu":{"type":"Menu","label":"Menu","anchor":"View Menu","url":"https:\/\/foursquare.com\/v\/rutts-hut\/4b4bbdc1f964a52000a626e3\/menu","mobileUrl":"https:\/\/foursquare.com\/v\/4b4bbdc1f964a52000a626e3\/device_menu"},"allowMenuUrlEdit":true,"beenHere":{"lastCheckinExpiredAt":0},"specials":{"count":0,"items":[]},"referralId":"v-1483290999","venueChains":[],"hasPerk":false},{"id":"4abfe614f964a520de9220e3","name":"Medieval Times Dinner & Tournament","contact":{"phone":"8889356878","formattedPhone":"(888) 935-6878","twitter":"MedievalTimes","facebook":"167890996670308","facebookUsername":"MedievalTimesNJ","facebookName":"Medieval Times Dinner & Tournament - Lyndhurst NJ"},"location":{"address":"149 Polito Ave","lat":40.80821140416836,"lng":-74.10635179503741,"labeledLatLngs":[{"label":"display","lat":40.80821140416836,"lng":-74.10635179503741}],"postalCode":"07071","cc":"US","city":"Lyndhurst","state":"NJ","country":"United States","formattedAddress":["149 Polito Ave","Lyndhurst, NJ 07071","United States"]},"categories":[{"id":"56aa371be4b08b9a8d573538","name":"Theme Restaurant","pluralName":"Theme Restaurants","shortName":"Theme Restaurant","icon":{"prefix":"https:\/\/ss3.4sqi.net\/img\/categories_v2\/food\/default_","suffix":".png"},"primary":true}],"verified":true,"stats":{"checkinsCount":15281,"usersCount":11687,"tipCount":124},"url":"http:\/\/www.medievaltimes.com","allowMenuUrlEdit":true,"beenHere":{"lastCheckinExpiredAt":0},"specials":{"count":0,"items":[]},"venuePage":{"id":"81107858"},"referralId":"v-1483290999","venueChains":[],"hasPerk":false},{"id":"4a91fd0af964a520861c20e3","name":"White Mana Diner","contact":{"phone":"2019631441","formattedPhone":"(201) 963-1441","twitter":"whitemana","facebook":"543653602348850","facebookUsername":"WhiteManaJerseyCity","facebookName":"White Mana Diner"},"location":{"address":"470 Tonnele Ave","crossStreet":"at Manhattan Ave.","lat":40.74702327877691,"lng":-74.06160861253738,"labeledLatLngs":[{"label":"display","lat":40.74702327877691,"lng":-74.06160861253738}],"postalCode":"07307","cc":"US","city":"Jersey City","state":"NJ","country":"United States","formattedAddress":["470 Tonnele Ave (at Manhattan Ave.)","Jersey City, NJ 07307","United States"]},"categories":[{"id":"4bf58dd8d48988d16c941735","name":"Burger Joint","pluralName":"Burger Joints","shortName":"Burgers","icon":{"prefix":"https:\/\/ss3.4sqi.net\/img\/categories_v2\/food\/burger_","suffix":".png"},"primary":true}],"verified":false,"stats":{"checkinsCount":3037,"usersCount":1595,"tipCount":44},"allowMenuUrlEdit":true,"beenHere":{"lastCheckinExpiredAt":0},"specials":{"count":0,"items":[]},"referralId":"v-1483290999","venueChains":[],"hasPerk":false},{"id":"4c4b8380bad7a5934110efab","name":"Red Robin Gourmet Burgers","contact":{"phone":"9734709222","formattedPhone":"(973) 470-9222","twitter":"redrobincareers","facebook":"7854678793","facebookUsername":"RedRobin","facebookName":"Red Robin Gourmet Burgers"},"location":{"address":"265 State Rt 3","lat":40.827270801334265,"lng":-74.13460493087769,"labeledLatLngs":[{"label":"display","lat":40.827270801334265,"lng":-74.13460493087769}],"postalCode":"07014","cc":"US","city":"Clifton","state":"NJ","country":"United States","formattedAddress":["265 State Rt 3","Clifton, NJ 07014","United States"]},"categories":[{"id":"4bf58dd8d48988d16c941735","name":"Burger Joint","pluralName":"Burger Joints","shortName":"Burgers","icon":{"prefix":"https:\/\/ss3.4sqi.net\/img\/categories_v2\/food\/burger_","suffix":".png"},"primary":true}],"verified":true,"stats":{"checkinsCount":9089,"usersCount":4166,"tipCount":71},"url":"http:\/\/www.redrobin.com\/locations","allowMenuUrlEdit":true,"beenHere":{"lastCheckinExpiredAt":0},"specials":{"count":0,"items":[]},"storeId":"370","referralId":"v-1483290999","venueChains":[{"id":"556cfe41aceaff43eb06e33f"}],"hasPerk":false},{"id":"4bee3e922c082d7f43413042","name":"Dunkin' Donuts","contact":{"phone":"2019911104","formattedPhone":"(201) 991-1104","twitter":"dunkindonuts","facebook":"6979393237","facebookUsername":"DunkinDonutsUS","facebookName":"Dunkin' Donuts"},"location":{"address":"29 Schuyler Ave","lat":40.778446598041214,"lng":-74.1300719927181,"labeledLatLngs":[{"label":"display","lat":40.778446598041214,"lng":-74.1300719927181}],"postalCode":"07031","cc":"US","city":"North Arlington","state":"NJ","country":"United States","formattedAddress":["29 Schuyler Ave","North Arlington, NJ 07031","United States"]},"categories":[{"id":"4bf58dd8d48988d148941735","name":"Donut Shop","pluralName":"Donut Shops","shortName":"Donuts","icon":{"prefix":"https:\/\/ss3.4sqi.net\/img\/categories_v2\/food\/donuts_","suffix":".png"},"primary":true}],"verified":true,"stats":{"checkinsCount":4709,"usersCount":562,"tipCount":13},"url":"http:\/\/www.dunkindonuts.com","hasMenu":true,"menu":{"type":"Menu","label":"Menu","anchor":"View Menu","url":"https:\/\/foursquare.com\/v\/dunkin-donuts\/4bee3e922c082d7f43413042\/menu","mobileUrl":"https:\/\/foursquare.com\/v\/4bee3e922c082d7f43413042\/device_menu"},"allowMenuUrlEdit":true,"beenHere":{"lastCheckinExpiredAt":0},"specials":{"count":0,"items":[]},"storeId":"349151","referralId":"v-1483290999","venueChains":[{"id":"556f676fbd6a75a99038d8f0"}],"hasPerk":false},{"id":"4bec5bea49430f47c19e07d2","name":"17 Farmers Market","contact":{"phone":"2019391710","formattedPhone":"(201) 939-1710"},"location":{"address":"17 E Union Ave","crossStreet":"Dubois St","lat":40.825313600921426,"lng":-74.0953337298939,"labeledLatLngs":[{"label":"display","lat":40.825313600921426,"lng":-74.0953337298939}],"postalCode":"07073","cc":"US","city":"East Rutherford","state":"NJ","country":"United States","formattedAddress":["17 E Union Ave (Dubois St)","East Rutherford, NJ 07073","United States"]},"categories":[{"id":"4bf58dd8d48988d1fa941735","name":"Farmers Market","pluralName":"Farmers Markets","shortName":"Farmer's Market","icon":{"prefix":"https:\/\/ss3.4sqi.net\/img\/categories_v2\/shops\/food_farmersmarket_","suffix":".png"},"primary":true}],"verified":false,"stats":{"checkinsCount":2235,"usersCount":696,"tipCount":23},"allowMenuUrlEdit":true,"beenHere":{"lastCheckinExpiredAt":0},"specials":{"count":0,"items":[]},"referralId":"v-1483290999","venueChains":[],"hasPerk":false},{"id":"4c24c603c11dc9b602f82524","name":"Dunkin' Donuts","contact":{"phone":"--","formattedPhone":"--","twitter":"dunkindonuts","facebook":"6979393237","facebookUsername":"DunkinDonutsUS","facebookName":"Dunkin' Donuts"},"location":{"address":"216 County Ave","lat":40.77199669416584,"lng":-74.06490882350236,"labeledLatLngs":[{"label":"display","lat":40.77199669416584,"lng":-74.06490882350236}],"postalCode":"07094","cc":"US","city":"Secaucus","state":"NJ","country":"United States","formattedAddress":["216 County Ave","Secaucus, NJ 07094","United States"]},"categories":[{"id":"4bf58dd8d48988d148941735","name":"Donut Shop","pluralName":"Donut Shops","shortName":"Donuts","icon":{"prefix":"https:\/\/ss3.4sqi.net\/img\/categories_v2\/food\/donuts_","suffix":".png"},"primary":true}],"verified":true,"stats":{"checkinsCount":1369,"usersCount":384,"tipCount":9},"url":"http:\/\/www.dunkindonuts.com","allowMenuUrlEdit":true,"beenHere":{"lastCheckinExpiredAt":0},"specials":{"count":0,"items":[]},"storeId":"342860","referralId":"v-1483290999","venueChains":[{"id":"556f676fbd6a75a99038d8f0"}],"hasPerk":false},{"id":"50d4f4bfe4b09e2e511e59d6","name":"7-Eleven","contact":{"phone":"2019917289","formattedPhone":"(201) 991-7289","twitter":"7eleven","facebook":"347358632137153","facebookUsername":"7ElevenNorthArlington35301","facebookName":"7-Eleven"},"location":{"address":"448 Ridge Rd","lat":40.794774,"lng":-74.128417,"labeledLatLngs":[{"label":"display","lat":40.794774,"lng":-74.128417}],"postalCode":"07031","cc":"US","city":"North Arlington","state":"NJ","country":"United States","formattedAddress":["448 Ridge Rd","North Arlington, NJ 07031","United States"]},"categories":[{"id":"4d954b0ea243a5684a65b473","name":"Convenience Store","pluralName":"Convenience Stores","shortName":"Convenience Store","icon":{"prefix":"https:\/\/ss3.4sqi.net\/img\/categories_v2\/shops\/conveniencestore_","suffix":".png"},"primary":true}],"verified":true,"stats":{"checkinsCount":1007,"usersCount":145,"tipCount":0},"url":"http:\/\/www.7-eleven.com","allowMenuUrlEdit":true,"beenHere":{"lastCheckinExpiredAt":0},"specials":{"count":0,"items":[]},"referralId":"v-1483290999","venueChains":[{"id":"556f676fbd6a75a99038d8e9"}],"hasPerk":false},{"id":"4b4fd71df964a520401727e3","name":"Dunkin' Donuts","contact":{"phone":"9732359827","formattedPhone":"(973) 235-9827","twitter":"dunkindonuts"},"location":{"address":"177 Washington Ave","lat":40.81221187747949,"lng":-74.14519376947463,"labeledLatLngs":[{"label":"display","lat":40.81221187747949,"lng":-74.14519376947463}],"postalCode":"07110","cc":"US","city":"Nutley","state":"NJ","country":"United States","formattedAddress":["177 Washington Ave","Nutley, NJ 07110","United States"]},"categories":[{"id":"4bf58dd8d48988d148941735","name":"Donut Shop","pluralName":"Donut Shops","shortName":"Donuts","icon":{"prefix":"https:\/\/ss3.4sqi.net\/img\/categories_v2\/food\/donuts_","suffix":".png"},"primary":true}],"verified":true,"stats":{"checkinsCount":4269,"usersCount":911,"tipCount":24},"url":"http:\/\/www.dunkindonuts.com","allowMenuUrlEdit":true,"beenHere":{"lastCheckinExpiredAt":0},"specials":{"count":0,"items":[]},"storeId":"301274","referralId":"v-1483290999","venueChains":[{"id":"556f676fbd6a75a99038d8f0"}],"hasPerk":false},{"id":"4ab2f83bf964a520266d20e3","name":"QuickChek","contact":{"phone":"9085342200","formattedPhone":"(908) 534-2200","twitter":"quickchek"},"location":{"address":"238 Kearny Ave","lat":40.75913,"lng":-74.151699,"labeledLatLngs":[{"label":"display","lat":40.75913,"lng":-74.151699}],"postalCode":"07032","cc":"US","city":"Kearny","state":"NJ","country":"United States","formattedAddress":["238 Kearny Ave","Kearny, NJ 07032","United States"]},"categories":[{"id":"4bf58dd8d48988d146941735","name":"Deli \/ Bodega","pluralName":"Delis \/ Bodegas","shortName":"Deli \/ Bodega","icon":{"prefix":"https:\/\/ss3.4sqi.net\/img\/categories_v2\/food\/deli_","suffix":".png"},"primary":true}],"verified":false,"stats":{"checkinsCount":1333,"usersCount":375,"tipCount":5},"url":"http:\/\/quickchek.com","hasMenu":true,"menu":{"type":"Menu","label":"Menu","anchor":"View Menu","url":"https:\/\/foursquare.com\/v\/quickchek\/4ab2f83bf964a520266d20e3\/menu","mobileUrl":"https:\/\/foursquare.com\/v\/4ab2f83bf964a520266d20e3\/device_menu","externalUrl":"http:\/\/quickchek.com\/fresh_food.asp"},"allowMenuUrlEdit":true,"beenHere":{"lastCheckinExpiredAt":0},"specials":{"count":0,"items":[]},"referralId":"v-1483290999","venueChains":[{"id":"556f431fbd6a007c77388d9e"}],"hasPerk":false},{"id":"4b66def6f964a5202f2e2be3","name":"Dunkin' Donuts","contact":{"phone":"2018961115","formattedPhone":"(201) 896-1115","twitter":"dunkindonuts","facebook":"6979393237","facebookUsername":"DunkinDonutsUS","facebookName":"Dunkin' Donuts"},"location":{"address":"425 Valley Brook Ave","lat":40.81215734007166,"lng":-74.12236440486242,"labeledLatLngs":[{"label":"display","lat":40.81215734007166,"lng":-74.12236440486242}],"postalCode":"07071","cc":"US","city":"Lyndhurst","state":"NJ","country":"United States","formattedAddress":["425 Valley Brook Ave","Lyndhurst, NJ 07071","United States"]},"categories":[{"id":"4bf58dd8d48988d148941735","name":"Donut Shop","pluralName":"Donut Shops","shortName":"Donuts","icon":{"prefix":"https:\/\/ss3.4sqi.net\/img\/categories_v2\/food\/donuts_","suffix":".png"},"primary":true}],"verified":true,"stats":{"checkinsCount":2396,"usersCount":519,"tipCount":4},"url":"http:\/\/www.dunkindonuts.com","allowMenuUrlEdit":true,"beenHere":{"lastCheckinExpiredAt":0},"specials":{"count":0,"items":[]},"storeId":"304821","referralId":"v-1483290999","venueChains":[{"id":"556f676fbd6a75a99038d8f0"}],"hasPerk":false},{"id":"4b813aa8f964a5205a9b30e3","name":"McDonald's","contact":{"phone":"9737516700","formattedPhone":"(973) 751-6700"},"location":{"address":"663 Washington Ave","lat":40.80337145154763,"lng":-74.14641515644117,"labeledLatLngs":[{"label":"display","lat":40.80337145154763,"lng":-74.14641515644117}],"postalCode":"07109","cc":"US","city":"Belleville","state":"NJ","country":"United States","formattedAddress":["663 Washington Ave","Belleville, NJ 07109","United States"]},"categories":[{"id":"4bf58dd8d48988d16e941735","name":"Fast Food Restaurant","pluralName":"Fast Food Restaurants","shortName":"Fast Food","icon":{"prefix":"https:\/\/ss3.4sqi.net\/img\/categories_v2\/food\/fastfood_","suffix":".png"},"primary":true}],"verified":true,"stats":{"checkinsCount":3329,"usersCount":871,"tipCount":31},"url":"http:\/\/mcdonalds.com","hasMenu":true,"menu":{"type":"Menu","label":"Menu","anchor":"View Menu","url":"https:\/\/foursquare.com\/v\/mcdonalds\/4b813aa8f964a5205a9b30e3\/menu","mobileUrl":"https:\/\/foursquare.com\/v\/4b813aa8f964a5205a9b30e3\/device_menu"},"allowMenuUrlEdit":true,"beenHere":{"lastCheckinExpiredAt":0},"specials":{"count":0,"items":[]},"storeId":"916","referralId":"v-1483290999","venueChains":[{"id":"556f7a12bd6a75a9903bddb2"}],"hasPerk":false},{"id":"4bae7846f964a52063b63be3","name":"Krauszer's Food & Liquor","contact":{},"location":{"address":"40 Meadowlands Pkwy","lat":40.79373358887698,"lng":-74.06969547271729,"labeledLatLngs":[{"label":"display","lat":40.79373358887698,"lng":-74.06969547271729}],"postalCode":"07094","cc":"US","city":"Secaucus","state":"NJ","country":"United States","formattedAddress":["40 Meadowlands Pkwy","Secaucus, NJ 07094","United States"]},"categories":[{"id":"4bf58dd8d48988d146941735","name":"Deli \/ Bodega","pluralName":"Delis \/ Bodegas","shortName":"Deli \/ Bodega","icon":{"prefix":"https:\/\/ss3.4sqi.net\/img\/categories_v2\/food\/deli_","suffix":".png"},"primary":true}],"verified":false,"stats":{"checkinsCount":1934,"usersCount":370,"tipCount":5},"allowMenuUrlEdit":true,"beenHere":{"lastCheckinExpiredAt":0},"specials":{"count":0,"items":[]},"referralId":"v-1483290999","venueChains":[],"hasPerk":false},{"id":"4c00b96fad46c9b62d019066","name":"Colonial Diner","contact":{"phone":"2019353192","formattedPhone":"(201) 935-3192"},"location":{"address":"27 Orient Way","lat":40.81325706922519,"lng":-74.10960674285889,"labeledLatLngs":[{"label":"display","lat":40.81325706922519,"lng":-74.10960674285889}],"postalCode":"07071","cc":"US","city":"Lyndhurst","state":"NJ","country":"United States","formattedAddress":["27 Orient Way","Lyndhurst, NJ 07071","United States"]},"categories":[{"id":"4bf58dd8d48988d147941735","name":"Diner","pluralName":"Diners","shortName":"Diner","icon":{"prefix":"https:\/\/ss3.4sqi.net\/img\/categories_v2\/food\/diner_","suffix":".png"},"primary":true}],"verified":false,"stats":{"checkinsCount":3030,"usersCount":1106,"tipCount":32},"url":"http:\/\/thecolonialnj.com","hasMenu":true,"menu":{"type":"Menu","label":"Menu","anchor":"View Menu","url":"https:\/\/foursquare.com\/v\/colonial-diner\/4c00b96fad46c9b62d019066\/menu","mobileUrl":"https:\/\/foursquare.com\/v\/4c00b96fad46c9b62d019066\/device_menu"},"allowMenuUrlEdit":true,"beenHere":{"lastCheckinExpiredAt":0},"specials":{"count":0,"items":[]},"referralId":"v-1483290999","venueChains":[],"hasPerk":false},{"id":"4bd4559ccaff9521e57ad6f0","name":"Dunkin' Donuts","contact":{"phone":"2014590006","formattedPhone":"(201) 459-0006","twitter":"dunkindonuts","facebook":"6979393237","facebookUsername":"DunkinDonutsUS","facebookName":"Dunkin' Donuts"},"location":{"address":"463 Tonnele Ave","lat":40.746742443844425,"lng":-74.06208061855872,"labeledLatLngs":[{"label":"display","lat":40.746742443844425,"lng":-74.06208061855872}],"postalCode":"07307","cc":"US","city":"Jersey City","state":"NJ","country":"United States","formattedAddress":["463 Tonnele Ave","Jersey City, NJ 07307","United States"]},"categories":[{"id":"4bf58dd8d48988d148941735","name":"Donut Shop","pluralName":"Donut Shops","shortName":"Donuts","icon":{"prefix":"https:\/\/ss3.4sqi.net\/img\/categories_v2\/food\/donuts_","suffix":".png"},"primary":true}],"verified":true,"stats":{"checkinsCount":1699,"usersCount":512,"tipCount":2},"url":"http:\/\/www.dunkindonuts.com","allowMenuUrlEdit":true,"beenHere":{"lastCheckinExpiredAt":0},"specials":{"count":0,"items":[]},"storeId":"331310","referralId":"v-1483290999","venueChains":[{"id":"556f676fbd6a75a99038d8f0"}],"hasPerk":false},{"id":"4b89707ff964a520603632e3","name":"Lyndhurst Diner","contact":{"phone":"2019337660","formattedPhone":"(201) 933-7660"},"location":{"address":"540 Riverside Ave","crossStreet":"At Kingsland Ave","lat":40.810817500434496,"lng":-74.13660942985167,"labeledLatLngs":[{"label":"display","lat":40.810817500434496,"lng":-74.13660942985167}],"postalCode":"07071","cc":"US","city":"Lyndhurst","state":"NJ","country":"United States","formattedAddress":["540 Riverside Ave (At Kingsland Ave)","Lyndhurst, NJ 07071","United States"]},"categories":[{"id":"4bf58dd8d48988d147941735","name":"Diner","pluralName":"Diners","shortName":"Diner","icon":{"prefix":"https:\/\/ss3.4sqi.net\/img\/categories_v2\/food\/diner_","suffix":".png"},"primary":true}],"verified":false,"stats":{"checkinsCount":4045,"usersCount":1130,"tipCount":30},"allowMenuUrlEdit":true,"beenHere":{"lastCheckinExpiredAt":0},"specials":{"count":0,"items":[]},"referralId":"v-1483290999","venueChains":[],"hasPerk":false},{"id":"4cab36df76d3a093bb192a6b","name":"Dunkin Donuts","contact":{"phone":"2019390702","formattedPhone":"(201) 939-0702","twitter":"dunkindonuts","facebook":"6979393237","facebookUsername":"DunkinDonutsUS","facebookName":"Dunkin' Donuts"},"location":{"address":"131-147 Rte 17 N Lukoil","lat":40.82043252995243,"lng":-74.10039259896107,"labeledLatLngs":[{"label":"display","lat":40.82043252995243,"lng":-74.10039259896107}],"postalCode":"7070","cc":"US","city":"Rutherford","state":"NJ","country":"United States","formattedAddress":["131-147 Rte 17 N Lukoil","Rutherford, NJ 7070","United States"]},"categories":[{"id":"4bf58dd8d48988d148941735","name":"Donut Shop","pluralName":"Donut Shops","shortName":"Donuts","icon":{"prefix":"https:\/\/ss3.4sqi.net\/img\/categories_v2\/food\/donuts_","suffix":".png"},"primary":true}],"verified":true,"stats":{"checkinsCount":3535,"usersCount":566,"tipCount":7},"url":"http:\/\/www.dunkindonuts.com","allowMenuUrlEdit":true,"beenHere":{"lastCheckinExpiredAt":0},"specials":{"count":0,"items":[]},"storeId":"347095","referralId":"v-1483290999","venueChains":[{"id":"556f676fbd6a75a99038d8f0"}],"hasPerk":false},{"id":"5420965f498e3a898b149c0a","name":"1 Republik","contact":{"phone":"2016282494","formattedPhone":"(201) 628-2494","twitter":"1republikna","facebook":"247602978602788","facebookUsername":"1Republik.Hoboken","facebookName":"1 Republik (Hoboken)"},"location":{"address":"26 Ridge Rd","lat":40.78241319490493,"lng":-74.13784807637381,"labeledLatLngs":[{"label":"display","lat":40.78241319490493,"lng":-74.13784807637381}],"postalCode":"07031","cc":"US","neighborhood":"Arlington, Kearny, NJ","city":"North Arlington","state":"NJ","country":"United States","formattedAddress":["26 Ridge Rd","North Arlington, NJ 07031","United States"]},"categories":[{"id":"4bf58dd8d48988d116941735","name":"Bar","pluralName":"Bars","shortName":"Bar","icon":{"prefix":"https:\/\/ss3.4sqi.net\/img\/categories_v2\/nightlife\/pub_","suffix":".png"},"primary":true}],"verified":true,"stats":{"checkinsCount":516,"usersCount":208,"tipCount":3},"url":"http:\/\/www.1republik.com","menu":{"type":"Menu","label":"Menu","anchor":"View Menu","url":"http:\/\/www.1republik.com\/_pdf\/1R-LUNCH.pdf","mobileUrl":"http:\/\/www.1republik.com\/_pdf\/1R-LUNCH.pdf","externalUrl":"http:\/\/www.1republik.com\/_pdf\/1R-LUNCH.pdf"},"allowMenuUrlEdit":true,"beenHere":{"lastCheckinExpiredAt":0},"specials":{"count":0,"items":[]},"venuePage":{"id":"95250250"},"storeId":"","referralId":"v-1483290999","venueChains":[],"hasPerk":false},{"id":"4c8962031797236a60755888","name":"7-Eleven","contact":{"phone":"2012226076","formattedPhone":"(201) 222-6076","twitter":"7eleven","facebook":"153946161356911","facebookUsername":"7ElevenJerseyCity39373","facebookName":"7-Eleven"},"location":{"address":"3080 John F Kennedy Blvd","lat":40.73871,"lng":-74.06208,"labeledLatLngs":[{"label":"display","lat":40.73871,"lng":-74.06208}],"postalCode":"07306","cc":"US","city":"Jersey City","state":"NJ","country":"United States","formattedAddress":["3080 John F Kennedy Blvd","Jersey City, NJ 07306","United States"]},"categories":[{"id":"4d954b0ea243a5684a65b473","name":"Convenience Store","pluralName":"Convenience Stores","shortName":"Convenience Store","icon":{"prefix":"https:\/\/ss3.4sqi.net\/img\/categories_v2\/shops\/conveniencestore_","suffix":".png"},"primary":true}],"verified":true,"stats":{"checkinsCount":1153,"usersCount":325,"tipCount":3},"url":"http:\/\/www.7-eleven.com","allowMenuUrlEdit":true,"beenHere":{"lastCheckinExpiredAt":0},"specials":{"count":0,"items":[]},"storeId":"39373","referralId":"v-1483290999","venueChains":[{"id":"556f676fbd6a75a99038d8e9"}],"hasPerk":false},{"id":"4f70c8bce4b068883f5d1d6a","name":"Spuntino Wine Bar and Italian Tapas","contact":{"phone":"9736612435","formattedPhone":"(973) 661-2435","twitter":"spuntinowinebar"},"location":{"address":"70 Kingsland Rd","lat":40.82563695757829,"lng":-74.13759576015599,"labeledLatLngs":[{"label":"display","lat":40.82563695757829,"lng":-74.13759576015599}],"postalCode":"07014","cc":"US","city":"Clifton","state":"NJ","country":"United States","formattedAddress":["70 Kingsland Rd","Clifton, NJ 07014","United States"]},"categories":[{"id":"4bf58dd8d48988d1db931735","name":"Tapas Restaurant","pluralName":"Tapas Restaurants","shortName":"Tapas","icon":{"prefix":"https:\/\/ss3.4sqi.net\/img\/categories_v2\/food\/tapas_","suffix":".png"},"primary":true}],"verified":true,"stats":{"checkinsCount":3325,"usersCount":1885,"tipCount":43},"url":"http:\/\/www.spuntinowinebar.com","hasMenu":true,"menu":{"type":"Menu","label":"Menu","anchor":"View Menu","url":"https:\/\/foursquare.com\/v\/spuntino-wine-bar-and-italian-tapas\/4f70c8bce4b068883f5d1d6a\/menu","mobileUrl":"https:\/\/foursquare.com\/v\/4f70c8bce4b068883f5d1d6a\/device_menu"},"allowMenuUrlEdit":true,"beenHere":{"lastCheckinExpiredAt":0},"specials":{"count":0,"items":[]},"venuePage":{"id":"36987860"},"storeId":"","referralId":"v-1483290999","venueChains":[],"hasPerk":false},{"id":"4be805a3ee96c928d68afdbf","name":"Dunkin' Donuts","contact":{"phone":"2016170100","formattedPhone":"(201) 617-0100","twitter":"dunkindonuts","facebook":"6979393237","facebookUsername":"DunkinDonutsUS","facebookName":"Dunkin' Donuts"},"location":{"address":"20 Meadowlands Pkwy","lat":40.79744544134614,"lng":-74.06506597995758,"labeledLatLngs":[{"label":"display","lat":40.79744544134614,"lng":-74.06506597995758}],"postalCode":"07094","cc":"US","city":"Secaucus","state":"NJ","country":"United States","formattedAddress":["20 Meadowlands Pkwy","Secaucus, NJ 07094","United States"]},"categories":[{"id":"4bf58dd8d48988d148941735","name":"Donut Shop","pluralName":"Donut Shops","shortName":"Donuts","icon":{"prefix":"https:\/\/ss3.4sqi.net\/img\/categories_v2\/food\/donuts_","suffix":".png"},"primary":true}],"verified":true,"stats":{"checkinsCount":2215,"usersCount":632,"tipCount":8},"url":"http:\/\/www.dunkindonuts.com","allowMenuUrlEdit":true,"beenHere":{"lastCheckinExpiredAt":0},"specials":{"count":0,"items":[]},"storeId":"340230","referralId":"v-1483290999","venueChains":[{"id":"556f676fbd6a75a99038d8f0"}],"hasPerk":false},{"id":"4b44d7e7f964a520e6fd25e3","name":"Bob's Bagel & Deli","contact":{"phone":"2013404165","formattedPhone":"(201) 340-4165"},"location":{"address":"100 Ridge Rd","lat":40.813674,"lng":-74.114679,"labeledLatLngs":[{"label":"display","lat":40.813674,"lng":-74.114679}],"postalCode":"07071","cc":"US","city":"Lyndhurst","state":"NJ","country":"United States","formattedAddress":["100 Ridge Rd","Lyndhurst, NJ 07071","United States"]},"categories":[{"id":"4bf58dd8d48988d179941735","name":"Bagel Shop","pluralName":"Bagel Shops","shortName":"Bagels","icon":{"prefix":"https:\/\/ss3.4sqi.net\/img\/categories_v2\/food\/bagels_","suffix":".png"},"primary":true}],"verified":false,"stats":{"checkinsCount":1934,"usersCount":524,"tipCount":33},"allowMenuUrlEdit":true,"beenHere":{"lastCheckinExpiredAt":0},"specials":{"count":0,"items":[]},"referralId":"v-1483290999","venueChains":[],"hasPerk":false},{"id":"4f2312166aa3ce557949255f","name":"QuickChek","contact":{"phone":"9737519581","formattedPhone":"(973) 751-9581","twitter":"quickchek"},"location":{"address":"501 Washington Ave","crossStreet":"at Little St","lat":40.79768658093413,"lng":-74.14847945425008,"labeledLatLngs":[{"label":"display","lat":40.79768658093413,"lng":-74.14847945425008}],"postalCode":"07109","cc":"US","city":"Belleville","state":"NJ","country":"United States","formattedAddress":["501 Washington Ave (at Little St)","Belleville, NJ 07109","United States"]},"categories":[{"id":"4d954b0ea243a5684a65b473","name":"Convenience Store","pluralName":"Convenience Stores","shortName":"Convenience Store","icon":{"prefix":"https:\/\/ss3.4sqi.net\/img\/categories_v2\/shops\/conveniencestore_","suffix":".png"},"primary":true}],"verified":true,"stats":{"checkinsCount":2411,"usersCount":400,"tipCount":7},"url":"https:\/\/www.facebook.com\/Quick.Chek.GetFresh.GoFast","hasMenu":true,"menu":{"type":"Products","label":"Products","anchor":"View Products","url":"https:\/\/foursquare.com\/v\/quickchek\/4f2312166aa3ce557949255f\/menu","mobileUrl":"https:\/\/foursquare.com\/v\/4f2312166aa3ce557949255f\/device_menu"},"allowMenuUrlEdit":true,"beenHere":{"lastCheckinExpiredAt":0},"specials":{"count":0,"items":[]},"storeId":"","referralId":"v-1483290999","venueChains":[{"id":"556f431fbd6a007c77388d9e"}],"hasPerk":false},{"id":"55eb8a3e498e433fa376c838","name":"Noches de Columbia","contact":{},"location":{"address":"545 Washington Ave","lat":40.793406,"lng":-74.150381,"labeledLatLngs":[{"label":"display","lat":40.793406,"lng":-74.150381}],"postalCode":"07109","cc":"US","city":"Belleville","state":"NJ","country":"United States","formattedAddress":["545 Washington Ave","Belleville, NJ 07109","United States"]},"categories":[{"id":"4bf58dd8d48988d1be941735","name":"Latin American Restaurant","pluralName":"Latin American Restaurants","shortName":"Latin American","icon":{"prefix":"https:\/\/ss3.4sqi.net\/img\/categories_v2\/food\/latinamerican_","suffix":".png"},"primary":true}],"verified":false,"stats":{"checkinsCount":200,"usersCount":107,"tipCount":6},"allowMenuUrlEdit":true,"beenHere":{"lastCheckinExpiredAt":0},"specials":{"count":0,"items":[]},"referralId":"v-1483290999","venueChains":[],"hasPerk":false},{"id":"4b84685ff964a520b23331e3","name":"Bagel Supreme","contact":{"phone":"2014607775","formattedPhone":"(201) 460-7775"},"location":{"address":"284 Park Ave","crossStreet":"btwn Riverview & Addison Aves","lat":40.8241013,"lng":-74.1129134,"labeledLatLngs":[{"label":"display","lat":40.8241013,"lng":-74.1129134}],"postalCode":"07070","cc":"US","city":"Rutherford","state":"NJ","country":"United States","formattedAddress":["284 Park Ave (btwn Riverview & Addison Aves)","Rutherford, NJ 07070","United States"]},"categories":[{"id":"4bf58dd8d48988d179941735","name":"Bagel Shop","pluralName":"Bagel Shops","shortName":"Bagels","icon":{"prefix":"https:\/\/ss3.4sqi.net\/img\/categories_v2\/food\/bagels_","suffix":".png"},"primary":true}],"verified":false,"stats":{"checkinsCount":1928,"usersCount":369,"tipCount":18},"allowMenuUrlEdit":true,"beenHere":{"lastCheckinExpiredAt":0},"specials":{"count":0,"items":[]},"referralId":"v-1483290999","venueChains":[],"hasPerk":false}]}}