{"meta":{"code":200,"requestId":"58693974351e3d703428ca95"},"response":{"venues":[{"id":"4afd96d6f964a520da2822e3","name":"Nan Xiang Xiao Long Bao","contact":{"phone":"7183213838","formattedPhone":"(718) 321-3838"},"location":{"address":"38-12 Prince St","crossStreet":"at 39th Ave","lat":40.75989766651769,"lng":-73.8323061700874,"labeledLatLngs":[{"label":"display","lat":40.75989766651769,"lng":-73.8323061700874}],"postalCode":"11354","cc":"US","city":"Flushing","state":"NY","country":"United States","formattedAddress":["38-12 Prince St (at 39th Ave)","Flushing, NY 11354","United States"]},"categories":[{"id":"4bf58dd8d48988d108941735","name":"Dumpling Restaurant","pluralName":"Dumpling Restaurants","shortName":"Dumplings","icon":{"prefix":"https:\/\/ss3.4sqi.net\/img\/categories_v2\/food\/dumplings_","suffix":".png"},"primary":true}],"verified":false,"stats":{"checkinsCount":15870,"usersCount":8218,"tipCount":247},"url":"http:\/\/www.nanxiangdumpling.com","hasMenu":true,"menu":{"type":"Menu","label":"Menu","anchor":"View Menu","url":"https:\/\/foursquare.com\/v\/nan-xiang-xiao-long-bao\/4afd96d6f964a520da2822e3\/menu","mobileUrl":"https:\/\/foursquare.com\/v\/4afd96d6f964a520da2822e3\/device_menu"},"allowMenuUrlEdit":true,"beenHere":{"lastCheckinExpiredAt":0},"specials":{"count":0,"items":[]},"referralId":"v-1483290996","venueChains":[],"hasPerk":false},{"id":"51323ff4e4b006d9cdccfabc","name":"Starbucks","contact":{"phone":"7185652021","formattedPhone":"(718) 565-2021","twitter":"starbucks","facebook":"22092443056","facebookUsername":"Starbucks","facebookName":"Starbucks"},"location":{"address":"86-51 Broadway","crossStreet":"btwn Justice Ave & Queens Blvd","lat":40.737294098097,"lng":-73.87787051423742,"labeledLatLngs":[{"label":"display","lat":40.737294098097,"lng":-73.87787051423742}],"postalCode":"11373","cc":"US","city":"Elmhurst","state":"NY","country":"United States","formattedAddress":["86-51 Broadway (btwn Justice Ave & Queens Blvd)","Elmhurst, NY 11373","United States"]},"categories":[{"id":"4bf58dd8d48988d1e0931735","name":"Coffee Shop","pluralName":"Coffee Shops","shortName":"Coffee Shop","icon":{"prefix":"https:\/\/ss3.4sqi.net\/img\/categories_v2\/food\/coffeeshop_","suffix":".png"},"primary":true}],"verified":true,"stats":{"checkinsCount":5845,"usersCount":1251,"tipCount":26},"url":"http:\/\/www.starbucks.com\/store\/113993\/","hasMenu":true,"menu":{"type":"Menu","label":"Menu","anchor":"View Menu","url":"http:\/\/www.starbucks.com\/menu","mobileUrl":"http:\/\/www.starbucks.com\/menu","externalUrl":"http:\/\/www.starbucks.com\/menu"},"allowMenuUrlEdit":true,"beenHere":{"lastCheckinExpiredAt":0},"specials":{"count":0,"items":[]},"storeId":"17202","referralId":"v-1483290996","venueChains":[{"id":"556f676fbd6a75a99038d8ec"}],"hasPerk":false},{"id":"4eade683cc21b06a57cde8b8","name":"New World Mall Food Court","contact":{"phone":"7183537327","formattedPhone":"(718) 353-7327"},"location":{"address":"136-20 Roosevelt Ave","crossStreet":"at Main St.","lat":40.75943448940211,"lng":-73.82905125596153,"labeledLatLngs":[{"label":"display","lat":40.75943448940211,"lng":-73.82905125596153}],"postalCode":"11354","cc":"US","city":"Flushing","state":"NY","country":"United States","formattedAddress":["136-20 Roosevelt Ave (at Main St.)","Flushing, NY 11354","United States"]},"categories":[{"id":"4bf58dd8d48988d120951735","name":"Food Court","pluralName":"Food Courts","shortName":"Food Court","icon":{"prefix":"https:\/\/ss3.4sqi.net\/img\/categories_v2\/shops\/food_foodcourt_","suffix":".png"},"primary":true}],"verified":true,"stats":{"checkinsCount":7170,"usersCount":3741,"tipCount":68},"url":"http:\/\/newworldmallny.com","allowMenuUrlEdit":true,"beenHere":{"lastCheckinExpiredAt":0},"specials":{"count":0,"items":[]},"venuePage":{"id":"88926282"},"referralId":"v-1483290996","venueChains":[],"hasPerk":false},{"id":"546fe3ac498eb0b4972d89dc","name":"Spring Shabu Shabu Buffet","contact":{"phone":"7183958067","formattedPhone":"(718) 395-8067"},"location":{"address":"136-20 38th Ave Fl 2","lat":40.76101699735881,"lng":-73.82933097016867,"labeledLatLngs":[{"label":"display","lat":40.76101699735881,"lng":-73.82933097016867}],"postalCode":"11354","cc":"US","city":"Flushing","state":"NY","country":"United States","formattedAddress":["136-20 38th Ave Fl 2","Flushing, NY 11354","United States"]},"categories":[{"id":"52af0bd33cf9994f4e043bdd","name":"Hotpot Restaurant","pluralName":"Hotpot Restaurants","shortName":"Hotpot","icon":{"prefix":"https:\/\/ss3.4sqi.net\/img\/categories_v2\/food\/asian_","suffix":".png"},"primary":true}],"verified":false,"stats":{"checkinsCount":2220,"usersCount":1022,"tipCount":22},"url":"http:\/\/www.springshabu.com","allowMenuUrlEdit":true,"beenHere":{"lastCheckinExpiredAt":0},"specials":{"count":0,"items":[]},"referralId":"v-1483290996","venueChains":[],"hasPerk":false},{"id":"4f8379737716785a1637c2e3","name":"Little Sheep Mongolian Hot Pot 小肥羊","contact":{"phone":"7187628881","formattedPhone":"(718) 762-8881","twitter":"littlesheephp","facebook":"424231300934524","facebookUsername":"LittleSheepHotPotFlushing","facebookName":"Little Sheep Mongolian Hot Pot, Flushing 小肥羊"},"location":{"address":"136-59 37th Ave","crossStreet":"btwn 138th & Union St.","lat":40.762146022089304,"lng":-73.82896184921265,"labeledLatLngs":[{"label":"display","lat":40.762146022089304,"lng":-73.82896184921265}],"postalCode":"11354","cc":"US","city":"Flushing","state":"NY","country":"United States","formattedAddress":["136-59 37th Ave (btwn 138th & Union St.)","Flushing, NY 11354","United States"]},"categories":[{"id":"52af0bd33cf9994f4e043bdd","name":"Hotpot Restaurant","pluralName":"Hotpot Restaurants","shortName":"Hotpot","icon":{"prefix":"https:\/\/ss3.4sqi.net\/img\/categories_v2\/food\/asian_","suffix":".png"},"primary":true}],"verified":true,"stats":{"checkinsCount":4400,"usersCount":2723,"tipCount":47},"url":"http:\/\/www.littlesheephotpot.com","allowMenuUrlEdit":true,"beenHere":{"lastCheckinExpiredAt":0},"specials":{"count":0,"items":[]},"venuePage":{"id":"54937444"},"storeId":"","referralId":"v-1483290996","venueChains":[],"hasPerk":false},{"id":"4a1175a1f964a52018771fe3","name":"East Manor Buffet & Restaurant","contact":{"phone":"7183589810","formattedPhone":"(718) 358-9810"},"location":{"address":"4207 Main St","crossStreet":"at Maple Ave.","lat":40.75502554943094,"lng":-73.82803863965844,"labeledLatLngs":[{"label":"display","lat":40.75502554943094,"lng":-73.82803863965844}],"postalCode":"11355","cc":"US","city":"Flushing","state":"NY","country":"United States","formattedAddress":["4207 Main St (at Maple Ave.)","Flushing, NY 11355","United States"]},"categories":[{"id":"4bf58dd8d48988d145941735","name":"Chinese Restaurant","pluralName":"Chinese Restaurants","shortName":"Chinese","icon":{"prefix":"https:\/\/ss3.4sqi.net\/img\/categories_v2\/food\/asian_","suffix":".png"},"primary":true}],"verified":false,"stats":{"checkinsCount":4957,"usersCount":1698,"tipCount":37},"hasMenu":true,"menu":{"type":"Menu","label":"Menu","anchor":"View Menu","url":"https:\/\/foursquare.com\/v\/east-manor-buffet--restaurant\/4a1175a1f964a52018771fe3\/menu","mobileUrl":"https:\/\/foursquare.com\/v\/4a1175a1f964a52018771fe3\/device_menu"},"allowMenuUrlEdit":true,"beenHere":{"lastCheckinExpiredAt":0},"specials":{"count":0,"items":[]},"referralId":"v-1483290996","venueChains":[],"hasPerk":false},{"id":"54593a92498e6d7350a3a3e2","name":"New York Food Court 紐約美食廣場","contact":{},"location":{"address":"133-35 Roosevelt Ave","lat":40.7587595947449,"lng":-73.83317344966652,"labeledLatLngs":[{"label":"display","lat":40.7587595947449,"lng":-73.83317344966652}],"postalCode":"11354","cc":"US","city":"Flushing","state":"NY","country":"United States","formattedAddress":["133-35 Roosevelt Ave","Flushing, NY 11354","United States"]},"categories":[{"id":"4bf58dd8d48988d120951735","name":"Food Court","pluralName":"Food Courts","shortName":"Food Court","icon":{"prefix":"https:\/\/ss3.4sqi.net\/img\/categories_v2\/shops\/food_foodcourt_","suffix":".png"},"primary":true}],"verified":false,"stats":{"checkinsCount":2048,"usersCount":854,"tipCount":15},"hasMenu":true,"menu":{"type":"Menu","label":"Menu","anchor":"View Menu","url":"https:\/\/foursquare.com\/v\/new-york-food-court-%E7%B4%90%E7%B4%84%E7%BE%8E%E9%A3%9F%E5%BB%A3%E5%A0%B4\/54593a92498e6d7350a3a3e2\/menu","mobileUrl":"https:\/\/foursquare.com\/v\/54593a92498e6d7350a3a3e2\/device_menu"},"allowMenuUrlEdit":true,"beenHere":{"lastCheckinExpiredAt":0},"specials":{"count":0,"items":[]},"referralId":"v-1483290996","venueChains":[],"hasPerk":false},{"id":"4a19aaebf964a520307a1fe3","name":"Starbucks","contact":{"phone":"7183589355","formattedPhone":"(718) 358-9355","twitter":"starbucks","facebook":"22092443056","facebookUsername":"Starbucks","facebookName":"Starbucks"},"location":{"address":"41-02 Main St","crossStreet":"at 41st Ave","lat":40.758017730590645,"lng":-73.8296028971672,"labeledLatLngs":[{"label":"display","lat":40.758017730590645,"lng":-73.8296028971672}],"postalCode":"11355","cc":"US","city":"Flushing","state":"NY","country":"United States","formattedAddress":["41-02 Main St (at 41st Ave)","Flushing, NY 11355","United States"]},"categories":[{"id":"4bf58dd8d48988d1e0931735","name":"Coffee Shop","pluralName":"Coffee Shops","shortName":"Coffee Shop","icon":{"prefix":"https:\/\/ss3.4sqi.net\/img\/categories_v2\/food\/coffeeshop_","suffix":".png"},"primary":true}],"verified":true,"stats":{"checkinsCount":10708,"usersCount":2686,"tipCount":45},"url":"http:\/\/www.starbucks.com\/store\/13531\/","hasMenu":true,"menu":{"type":"Menu","label":"Menu","anchor":"View Menu","url":"http:\/\/www.starbucks.com\/menu","mobileUrl":"http:\/\/www.starbucks.com\/menu","externalUrl":"http:\/\/www.starbucks.com\/menu"},"allowMenuUrlEdit":true,"beenHere":{"lastCheckinExpiredAt":0},"specials":{"count":0,"items":[]},"storeId":"7539","referralId":"v-1483290996","venueChains":[{"id":"556f676fbd6a75a99038d8ec"}],"hasPerk":false},{"id":"4bc8e36bfb84c9b613f8193e","name":"Starbucks","contact":{"phone":"7185394072","formattedPhone":"(718) 539-4072","twitter":"starbucks","facebook":"22092443056","facebookUsername":"Starbucks","facebookName":"Starbucks"},"location":{"address":"138-11 20th Ave","lat":40.782021,"lng":-73.829869,"labeledLatLngs":[{"label":"display","lat":40.782021,"lng":-73.829869}],"postalCode":"11356","cc":"US","city":"College Point","state":"NY","country":"United States","formattedAddress":["138-11 20th Ave","College Point, NY 11356","United States"]},"categories":[{"id":"4bf58dd8d48988d1e0931735","name":"Coffee Shop","pluralName":"Coffee Shops","shortName":"Coffee Shop","icon":{"prefix":"https:\/\/ss3.4sqi.net\/img\/categories_v2\/food\/coffeeshop_","suffix":".png"},"primary":true}],"verified":true,"stats":{"checkinsCount":4759,"usersCount":1579,"tipCount":13},"url":"http:\/\/www.starbucks.com\/store\/13536\/","hasMenu":true,"menu":{"type":"Menu","label":"Menu","anchor":"View Menu","url":"http:\/\/www.starbucks.com\/menu","mobileUrl":"http:\/\/www.starbucks.com\/menu","externalUrl":"http:\/\/www.starbucks.com\/menu"},"allowMenuUrlEdit":true,"beenHere":{"lastCheckinExpiredAt":0},"specials":{"count":0,"items":[]},"storeId":"7559","referralId":"v-1483290996","venueChains":[{"id":"556f676fbd6a75a99038d8ec"}],"hasPerk":false},{"id":"4f844c6fe4b0059705cb042c","name":"Lake Pavilion Restaurant","contact":{"phone":"7188866693","formattedPhone":"(718) 886-6693"},"location":{"address":"60-15 Main St","crossStreet":"at Horace Harding Expressway","lat":40.74266238098926,"lng":-73.82502168416976,"labeledLatLngs":[{"label":"display","lat":40.74266238098926,"lng":-73.82502168416976}],"postalCode":"11355","cc":"US","city":"Flushing","state":"NY","country":"United States","formattedAddress":["60-15 Main St (at Horace Harding Expressway)","Flushing, NY 11355","United States"]},"categories":[{"id":"4bf58dd8d48988d145941735","name":"Chinese Restaurant","pluralName":"Chinese Restaurants","shortName":"Chinese","icon":{"prefix":"https:\/\/ss3.4sqi.net\/img\/categories_v2\/food\/asian_","suffix":".png"},"primary":true}],"verified":false,"stats":{"checkinsCount":5328,"usersCount":2170,"tipCount":39},"url":"http:\/\/www.lakepavilion.net","hasMenu":true,"menu":{"type":"Menu","label":"Menu","anchor":"View Menu","url":"https:\/\/foursquare.com\/v\/lake-pavilion-restaurant\/4f844c6fe4b0059705cb042c\/menu","mobileUrl":"https:\/\/foursquare.com\/v\/4f844c6fe4b0059705cb042c\/device_menu","externalUrl":"http:\/\/www.lakepavilion.net\/menu.html"},"allowMenuUrlEdit":true,"beenHere":{"lastCheckinExpiredAt":0},"specials":{"count":0,"items":[]},"referralId":"v-1483290996","venueChains":[],"hasPerk":false},{"id":"4a1845c8f964a52092791fe3","name":"Asian Jewels Seafood Restaurant 敦城海鲜酒家","contact":{"phone":"7183598600","formattedPhone":"(718) 359-8600"},"location":{"address":"13330 39th Ave","lat":40.75928550092745,"lng":-73.83324265480042,"labeledLatLngs":[{"label":"display","lat":40.75928550092745,"lng":-73.83324265480042}],"postalCode":"11354","cc":"US","city":"Flushing","state":"NY","country":"United States","formattedAddress":["13330 39th Ave","Flushing, NY 11354","United States"]},"categories":[{"id":"4bf58dd8d48988d145941735","name":"Chinese Restaurant","pluralName":"Chinese Restaurants","shortName":"Chinese","icon":{"prefix":"https:\/\/ss3.4sqi.net\/img\/categories_v2\/food\/asian_","suffix":".png"},"primary":true}],"verified":false,"stats":{"checkinsCount":9124,"usersCount":5132,"tipCount":85},"url":"http:\/\/www.tunseng.com","hasMenu":true,"menu":{"type":"Menu","label":"Menu","anchor":"View Menu","url":"https:\/\/foursquare.com\/v\/asian-jewels-seafood-restaurant-%E6%95%A6%E5%9F%8E%E6%B5%B7%E9%B2%9C%E9%85%92%E5%AE%B6\/4a1845c8f964a52092791fe3\/menu","mobileUrl":"https:\/\/foursquare.com\/v\/4a1845c8f964a52092791fe3\/device_menu"},"allowMenuUrlEdit":true,"beenHere":{"lastCheckinExpiredAt":0},"specials":{"count":0,"items":[]},"referralId":"v-1483290996","venueChains":[],"hasPerk":false},{"id":"4b592c1bf964a5200f8028e3","name":"Taco Bell","contact":{"phone":"7183596709","formattedPhone":"(718) 359-6709","twitter":"tacobell"},"location":{"address":"172-12 Northern Blvd","crossStreet":"Utopia Pkwy.","lat":40.75763367328229,"lng":-73.79344125652307,"labeledLatLngs":[{"label":"display","lat":40.75763367328229,"lng":-73.79344125652307}],"postalCode":"11358","cc":"US","city":"Flushing","state":"NY","country":"United States","formattedAddress":["172-12 Northern Blvd (Utopia Pkwy.)","Flushing, NY 11358","United States"]},"categories":[{"id":"4bf58dd8d48988d151941735","name":"Taco Place","pluralName":"Taco Places","shortName":"Tacos","icon":{"prefix":"https:\/\/ss3.4sqi.net\/img\/categories_v2\/food\/taco_","suffix":".png"},"primary":true}],"verified":true,"stats":{"checkinsCount":5752,"usersCount":1848,"tipCount":33},"url":"http:\/\/www.tacobell.com","hasMenu":true,"menu":{"type":"Menu","label":"Menu","anchor":"View Menu","url":"https:\/\/foursquare.com\/v\/taco-bell\/4b592c1bf964a5200f8028e3\/menu","mobileUrl":"https:\/\/foursquare.com\/v\/4b592c1bf964a5200f8028e3\/device_menu"},"allowMenuUrlEdit":true,"beenHere":{"lastCheckinExpiredAt":0},"specials":{"count":0,"items":[]},"storeId":"291089","referralId":"v-1483290996","venueChains":[{"id":"556f46f6bd6a007c77390fac"}],"hasPerk":false},{"id":"4baa01d5f964a52045433ae3","name":"Dunkin' Donuts","contact":{"phone":"7183584031","formattedPhone":"(718) 358-4031","twitter":"dunkindonuts","facebook":"6979393237","facebookUsername":"DunkinDonutsUS","facebookName":"Dunkin' Donuts"},"location":{"address":"15367 Horace Harding Expy","crossStreet":"at Kissena Blvd","lat":40.73942708474485,"lng":-73.81534427404404,"labeledLatLngs":[{"label":"display","lat":40.73942708474485,"lng":-73.81534427404404}],"postalCode":"11367","cc":"US","city":"Flushing","state":"NY","country":"United States","formattedAddress":["15367 Horace Harding Expy (at Kissena Blvd)","Flushing, NY 11367","United States"]},"categories":[{"id":"4bf58dd8d48988d148941735","name":"Donut Shop","pluralName":"Donut Shops","shortName":"Donuts","icon":{"prefix":"https:\/\/ss3.4sqi.net\/img\/categories_v2\/food\/donuts_","suffix":".png"},"primary":true}],"verified":true,"stats":{"checkinsCount":6127,"usersCount":1673,"tipCount":32},"url":"http:\/\/www.dunkindonuts.com","hasMenu":true,"menu":{"type":"Menu","label":"Menu","anchor":"View Menu","url":"https:\/\/foursquare.com\/v\/dunkin-donuts\/4baa01d5f964a52045433ae3\/menu","mobileUrl":"https:\/\/foursquare.com\/v\/4baa01d5f964a52045433ae3\/device_menu"},"allowMenuUrlEdit":true,"beenHere":{"lastCheckinExpiredAt":0},"specials":{"count":0,"items":[]},"storeId":"304011","referralId":"v-1483290996","venueChains":[{"id":"556f676fbd6a75a99038d8f0"}],"hasPerk":false},{"id":"4b210713f964a520293624e3","name":"Utopia Bagels","contact":{"phone":"7183522588","formattedPhone":"(718) 352-2588"},"location":{"address":"1909 Utopia Pkwy","lat":40.780151,"lng":-73.793696,"labeledLatLngs":[{"label":"display","lat":40.780151,"lng":-73.793696}],"postalCode":"11357","cc":"US","city":"Whitestone","state":"NY","country":"United States","formattedAddress":["1909 Utopia Pkwy","Whitestone, NY 11357","United States"]},"categories":[{"id":"4bf58dd8d48988d179941735","name":"Bagel Shop","pluralName":"Bagel Shops","shortName":"Bagels","icon":{"prefix":"https:\/\/ss3.4sqi.net\/img\/categories_v2\/food\/bagels_","suffix":".png"},"primary":true}],"verified":false,"stats":{"checkinsCount":3147,"usersCount":726,"tipCount":32},"allowMenuUrlEdit":true,"beenHere":{"lastCheckinExpiredAt":0},"specials":{"count":0,"items":[]},"referralId":"v-1483290996","venueChains":[],"hasPerk":false},{"id":"4b9beb47f964a520c53536e3","name":"Lucia Pizza","contact":{"phone":"7184451313","formattedPhone":"(718) 445-1313","twitter":"lucia_pizza"},"location":{"address":"136-55 Roosevelt Ave","crossStreet":"at Lippmann Plaza","lat":40.76008468045607,"lng":-73.82825115681126,"labeledLatLngs":[{"label":"display","lat":40.76008468045607,"lng":-73.82825115681126}],"postalCode":"11354","cc":"US","city":"Flushing","state":"NY","country":"United States","formattedAddress":["136-55 Roosevelt Ave (at Lippmann Plaza)","Flushing, NY 11354","United States"]},"categories":[{"id":"4bf58dd8d48988d1ca941735","name":"Pizza Place","pluralName":"Pizza Places","shortName":"Pizza","icon":{"prefix":"https:\/\/ss3.4sqi.net\/img\/categories_v2\/food\/pizza_","suffix":".png"},"primary":true}],"verified":true,"stats":{"checkinsCount":1965,"usersCount":623,"tipCount":41},"url":"http:\/\/luciapizza-hub.com","allowMenuUrlEdit":true,"beenHere":{"lastCheckinExpiredAt":0},"specials":{"count":0,"items":[]},"venuePage":{"id":"138360202"},"storeId":"","referralId":"v-1483290996","venueChains":[],"hasPerk":false},{"id":"54858fb9498e5a6cf73d6dee","name":"Starbucks","contact":{"phone":"7184450354","formattedPhone":"(718) 445-0354","twitter":"starbucks","facebook":"22092443056","facebookUsername":"Starbucks","facebookName":"Starbucks"},"location":{"address":"3805 Main St","lat":40.76071945,"lng":-73.83050954,"labeledLatLngs":[{"label":"display","lat":40.76071945,"lng":-73.83050954}],"postalCode":"11354","cc":"US","city":"Flushing","state":"NY","country":"United States","formattedAddress":["3805 Main St","Flushing, NY 11354","United States"]},"categories":[{"id":"4bf58dd8d48988d1e0931735","name":"Coffee Shop","pluralName":"Coffee Shops","shortName":"Coffee Shop","icon":{"prefix":"https:\/\/ss3.4sqi.net\/img\/categories_v2\/food\/coffeeshop_","suffix":".png"},"primary":true}],"verified":true,"stats":{"checkinsCount":1216,"usersCount":348,"tipCount":3},"url":"http:\/\/www.starbucks.com","allowMenuUrlEdit":true,"beenHere":{"lastCheckinExpiredAt":0},"specials":{"count":0,"items":[]},"storeId":"23593","referralId":"v-1483290996","venueChains":[{"id":"556f676fbd6a75a99038d8ec"}],"hasPerk":false},{"id":"567d7969498e3bcdbe0b9ab1","name":"Shanghai You Garden Dumpling House","contact":{"phone":"7188862286","formattedPhone":"(718) 886-2286"},"location":{"address":"135-33 40th Rd","lat":40.7588131809164,"lng":-73.83041077763097,"labeledLatLngs":[{"label":"display","lat":40.7588131809164,"lng":-73.83041077763097}],"postalCode":"11354","cc":"US","city":"Flushing","state":"NY","country":"United States","formattedAddress":["135-33 40th Rd","Flushing, NY 11354","United States"]},"categories":[{"id":"52af3b593cf9994f4e043c00","name":"Shanghai Restaurant","pluralName":"Shanghai Restaurants","shortName":"Shanghai","icon":{"prefix":"https:\/\/ss3.4sqi.net\/img\/categories_v2\/food\/asian_","suffix":".png"},"primary":true}],"verified":true,"stats":{"checkinsCount":589,"usersCount":383,"tipCount":8},"url":"http:\/\/www.yougarden28.com\/index.php","menu":{"type":"Menu","label":"Menu","anchor":"View Menu","url":"http:\/\/www.yougarden28.com\/menu.php","mobileUrl":"http:\/\/www.yougarden28.com\/menu.php","externalUrl":"http:\/\/www.yougarden28.com\/menu.php"},"allowMenuUrlEdit":true,"beenHere":{"lastCheckinExpiredAt":0},"specials":{"count":0,"items":[]},"venuePage":{"id":"380130315"},"referralId":"v-1483290996","venueChains":[],"hasPerk":false},{"id":"4e0f605462e1d5a30d0ab7ff","name":"JoJu","contact":{"phone":"3478080887","formattedPhone":"(347) 808-0887","twitter":"jojubanhmi","facebook":"167476483314812","facebookUsername":"JoJuBanhMi","facebookName":"JoJu"},"location":{"address":"83-25 Broadway","crossStreet":"Dongan Ave","lat":40.74070970368057,"lng":-73.87930033087929,"labeledLatLngs":[{"label":"display","lat":40.74070970368057,"lng":-73.87930033087929}],"postalCode":"11373","cc":"US","city":"Elmhurst","state":"NY","country":"United States","formattedAddress":["83-25 Broadway (Dongan Ave)","Elmhurst, NY 11373","United States"]},"categories":[{"id":"4bf58dd8d48988d14a941735","name":"Vietnamese Restaurant","pluralName":"Vietnamese Restaurants","shortName":"Vietnamese","icon":{"prefix":"https:\/\/ss3.4sqi.net\/img\/categories_v2\/food\/vietnamese_","suffix":".png"},"primary":true}],"verified":true,"stats":{"checkinsCount":6934,"usersCount":2172,"tipCount":87},"url":"http:\/\/www.jojuny.com\/","hasMenu":true,"menu":{"type":"Menu","label":"Menu","anchor":"View Menu","url":"https:\/\/foursquare.com\/v\/joju\/4e0f605462e1d5a30d0ab7ff\/menu","mobileUrl":"https:\/\/foursquare.com\/v\/4e0f605462e1d5a30d0ab7ff\/device_menu"},"allowMenuUrlEdit":true,"beenHere":{"lastCheckinExpiredAt":0},"specials":{"count":0,"items":[]},"venuePage":{"id":"32832894"},"storeId":"","referralId":"v-1483290996","venueChains":[],"hasPerk":false},{"id":"49e10e0bf964a52089611fe3","name":"Mad For Chicken","contact":{"phone":"7183213818","formattedPhone":"(718) 321-3818","facebook":"108504405874422","facebookUsername":"MadForChickenNY","facebookName":"Mad For Chicken"},"location":{"address":"15718 Northern Blvd","lat":40.763492,"lng":-73.80776230597031,"labeledLatLngs":[{"label":"display","lat":40.763492,"lng":-73.80776230597031}],"postalCode":"11354","cc":"US","city":"Flushing","state":"NY","country":"United States","formattedAddress":["15718 Northern Blvd","Flushing, NY 11354","United States"]},"categories":[{"id":"4bf58dd8d48988d113941735","name":"Korean Restaurant","pluralName":"Korean Restaurants","shortName":"Korean","icon":{"prefix":"https:\/\/ss3.4sqi.net\/img\/categories_v2\/food\/korean_","suffix":".png"},"primary":true}],"verified":true,"stats":{"checkinsCount":6017,"usersCount":2591,"tipCount":60},"url":"http:\/\/madforchicken.com","hasMenu":true,"menu":{"type":"Menu","label":"Menu","anchor":"View Menu","url":"https:\/\/foursquare.com\/v\/mad-for-chicken\/49e10e0bf964a52089611fe3\/menu","mobileUrl":"https:\/\/foursquare.com\/v\/49e10e0bf964a52089611fe3\/device_menu"},"allowMenuUrlEdit":true,"beenHere":{"lastCheckinExpiredAt":0},"specials":{"count":0,"items":[]},"venuePage":{"id":"61808157"},"storeId":"","referralId":"v-1483290996","venueChains":[],"hasPerk":false},{"id":"5210005f11d26e8f151335fc","name":"Kang Hodong Baekjeong | 강호동 백정","contact":{"phone":"7188868645","formattedPhone":"(718) 886-8645"},"location":{"address":"152-12 Northern Blvd","crossStreet":"Murray St.","lat":40.76479556540369,"lng":-73.81251278315298,"labeledLatLngs":[{"label":"display","lat":40.76479556540369,"lng":-73.81251278315298}],"postalCode":"11354","cc":"US","city":"Flushing","state":"NY","country":"United States","formattedAddress":["152-12 Northern Blvd (Murray St.)","Flushing, NY 11354","United States"]},"categories":[{"id":"4bf58dd8d48988d113941735","name":"Korean Restaurant","pluralName":"Korean Restaurants","shortName":"Korean","icon":{"prefix":"https:\/\/ss3.4sqi.net\/img\/categories_v2\/food\/korean_","suffix":".png"},"primary":true}],"verified":false,"stats":{"checkinsCount":3397,"usersCount":1951,"tipCount":63},"allowMenuUrlEdit":true,"beenHere":{"lastCheckinExpiredAt":0},"specials":{"count":0,"items":[]},"referralId":"v-1483290996","venueChains":[],"hasPerk":false},{"id":"5516ef4a498e089178ed0b9b","name":"Presso Coffee","contact":{"phone":"7183580257","formattedPhone":"(718) 358-0257"},"location":{"address":"133-42 39th Ave #101","crossStreet":"at Prince St","lat":40.75949515593592,"lng":-73.83267375924783,"labeledLatLngs":[{"label":"display","lat":40.75949515593592,"lng":-73.83267375924783}],"postalCode":"11354","cc":"US","city":"Flushing","state":"NY","country":"United States","formattedAddress":["133-42 39th Ave #101 (at Prince St)","Flushing, NY 11354","United States"]},"categories":[{"id":"4bf58dd8d48988d1e0931735","name":"Coffee Shop","pluralName":"Coffee Shops","shortName":"Coffee Shop","icon":{"prefix":"https:\/\/ss3.4sqi.net\/img\/categories_v2\/food\/coffeeshop_","suffix":".png"},"primary":true}],"verified":false,"stats":{"checkinsCount":1688,"usersCount":635,"tipCount":27},"url":"http:\/\/pressocoffeenyc.com","allowMenuUrlEdit":true,"beenHere":{"lastCheckinExpiredAt":0},"specials":{"count":0,"items":[]},"referralId":"v-1483290996","venueChains":[],"hasPerk":false},{"id":"50030d01e4b042c51d0b3285","name":"Kung Fu Xiao Long Bao","contact":{"phone":"7186612882","formattedPhone":"(718) 661-2882"},"location":{"address":"59-16 Main St","lat":40.74336,"lng":-73.825856,"labeledLatLngs":[{"label":"display","lat":40.74336,"lng":-73.825856}],"postalCode":"11355","cc":"US","city":"Flushing","state":"NY","country":"United States","formattedAddress":["59-16 Main St","Flushing, NY 11355","United States"]},"categories":[{"id":"4bf58dd8d48988d108941735","name":"Dumpling Restaurant","pluralName":"Dumpling Restaurants","shortName":"Dumplings","icon":{"prefix":"https:\/\/ss3.4sqi.net\/img\/categories_v2\/food\/dumplings_","suffix":".png"},"primary":true}],"verified":false,"stats":{"checkinsCount":2645,"usersCount":1155,"tipCount":49},"url":"http:\/\/kungfuxiaolongbao.com","menu":{"type":"Menu","label":"Menu","anchor":"View Menu","url":"http:\/\/www.kungfuxiaolongbao.com\/menu.aspx","mobileUrl":"http:\/\/www.kungfuxiaolongbao.com\/menu.aspx","externalUrl":"http:\/\/www.kungfuxiaolongbao.com\/menu.aspx"},"allowMenuUrlEdit":true,"beenHere":{"lastCheckinExpiredAt":0},"specials":{"count":0,"items":[]},"referralId":"v-1483290996","venueChains":[],"hasPerk":false},{"id":"517d47f1e4b04f1b6e2f03f3","name":"Good Fortune Restaurant","contact":{"phone":"7188888998","formattedPhone":"(718) 888-8998"},"location":{"address":"46-45 Kissena Blvd","crossStreet":"Kissena Blvd","lat":40.74979870312076,"lng":-73.81784903603229,"labeledLatLngs":[{"label":"display","lat":40.74979870312076,"lng":-73.81784903603229}],"postalCode":"11355","cc":"US","city":"Flushing","state":"NY","country":"United States","formattedAddress":["46-45 Kissena Blvd (Kissena Blvd)","Flushing, NY 11355","United States"]},"categories":[{"id":"4bf58dd8d48988d145941735","name":"Chinese Restaurant","pluralName":"Chinese Restaurants","shortName":"Chinese","icon":{"prefix":"https:\/\/ss3.4sqi.net\/img\/categories_v2\/food\/asian_","suffix":".png"},"primary":true}],"verified":false,"stats":{"checkinsCount":1468,"usersCount":763,"tipCount":9},"allowMenuUrlEdit":true,"beenHere":{"lastCheckinExpiredAt":0},"specials":{"count":0,"items":[]},"referralId":"v-1483290996","venueChains":[],"hasPerk":false},{"id":"4b80790bf964a5209b7530e3","name":"Kim Ga Nae","contact":{"phone":"7188883100","formattedPhone":"(718) 888-3100"},"location":{"address":"3912 Union St","lat":40.76068327096592,"lng":-73.82683753967285,"labeledLatLngs":[{"label":"display","lat":40.76068327096592,"lng":-73.82683753967285}],"postalCode":"11354","cc":"US","city":"Flushing","state":"NY","country":"United States","formattedAddress":["3912 Union St","Flushing, NY 11354","United States"]},"categories":[{"id":"4bf58dd8d48988d113941735","name":"Korean Restaurant","pluralName":"Korean Restaurants","shortName":"Korean","icon":{"prefix":"https:\/\/ss3.4sqi.net\/img\/categories_v2\/food\/korean_","suffix":".png"},"primary":true}],"verified":false,"stats":{"checkinsCount":3315,"usersCount":1495,"tipCount":46},"url":"http:\/\/kimganae.com","allowMenuUrlEdit":true,"beenHere":{"lastCheckinExpiredAt":0},"specials":{"count":0,"items":[]},"referralId":"v-1483290996","venueChains":[],"hasPerk":false},{"id":"4adfb158f964a520c47c21e3","name":"Taiwanese Specialties 老華西街台菜館","contact":{"phone":"7184294818","formattedPhone":"(718) 429-4818"},"location":{"address":"84-02 Broadway","crossStreet":"at St. James Ave","lat":40.73982744086438,"lng":-73.87863636016846,"labeledLatLngs":[{"label":"display","lat":40.73982744086438,"lng":-73.87863636016846}],"postalCode":"11373","cc":"US","city":"Elmhurst","state":"NY","country":"United States","formattedAddress":["84-02 Broadway (at St. James Ave)","Elmhurst, NY 11373","United States"]},"categories":[{"id":"52af3b813cf9994f4e043c04","name":"Taiwanese Restaurant","pluralName":"Taiwanese Restaurants","shortName":"Taiwanese","icon":{"prefix":"https:\/\/ss3.4sqi.net\/img\/categories_v2\/food\/asian_","suffix":".png"},"primary":true}],"verified":false,"stats":{"checkinsCount":3042,"usersCount":1263,"tipCount":48},"allowMenuUrlEdit":true,"beenHere":{"lastCheckinExpiredAt":0},"specials":{"count":0,"items":[]},"referralId":"v-1483290996","venueChains":[],"hasPerk":false},{"id":"50ca2615e4b05efe2742f99a","name":"Tous les Jours","contact":{"phone":"7187626557","formattedPhone":"(718) 762-6557"},"location":{"address":"39-02 Union St","lat":40.760971031073176,"lng":-73.82709666898953,"labeledLatLngs":[{"label":"display","lat":40.760971031073176,"lng":-73.82709666898953}],"postalCode":"11354","cc":"US","city":"Flushing","state":"NY","country":"United States","formattedAddress":["39-02 Union St","Flushing, NY 11354","United States"]},"categories":[{"id":"4bf58dd8d48988d16a941735","name":"Bakery","pluralName":"Bakeries","shortName":"Bakery","icon":{"prefix":"https:\/\/ss3.4sqi.net\/img\/categories_v2\/food\/bakery_","suffix":".png"},"primary":true}],"verified":false,"stats":{"checkinsCount":2303,"usersCount":989,"tipCount":24},"url":"http:\/\/tljus.com","allowMenuUrlEdit":true,"beenHere":{"lastCheckinExpiredAt":0},"specials":{"count":0,"items":[]},"referralId":"v-1483290996","venueChains":[],"hasPerk":false},{"id":"4d1bcddc1356224bc6410abe","name":"OK Ryan","contact":{"phone":"7183217309","formattedPhone":"(718) 321-7309"},"location":{"address":"4104 College Point Blvd","crossStreet":"41st Ave.","lat":40.75612146391382,"lng":-73.83358698560936,"labeledLatLngs":[{"label":"display","lat":40.75612146391382,"lng":-73.83358698560936}],"postalCode":"11355","cc":"US","city":"Flushing","state":"NY","country":"United States","formattedAddress":["4104 College Point Blvd (41st Ave.)","Flushing, NY 11355","United States"]},"categories":[{"id":"4bf58dd8d48988d145941735","name":"Chinese Restaurant","pluralName":"Chinese Restaurants","shortName":"Chinese","icon":{"prefix":"https:\/\/ss3.4sqi.net\/img\/categories_v2\/food\/asian_","suffix":".png"},"primary":true}],"verified":false,"stats":{"checkinsCount":1416,"usersCount":281,"tipCount":17},"allowMenuUrlEdit":true,"beenHere":{"lastCheckinExpiredAt":0},"specials":{"count":0,"items":[]},"referralId":"v-1483290996","venueChains":[],"hasPerk":false},{"id":"4b808501f964a5207b7930e3","name":"Park Side Restaurant","contact":{"phone":"7182719321","formattedPhone":"(718) 271-9321"},"location":{"address":"107-01 Corona Ave","lat":40.743843062346414,"lng":-73.85608434677124,"labeledLatLngs":[{"label":"display","lat":40.743843062346414,"lng":-73.85608434677124}],"postalCode":"11368","cc":"US","city":"Corona","state":"NY","country":"United States","formattedAddress":["107-01 Corona Ave","Corona, NY 11368","United States"]},"categories":[{"id":"4bf58dd8d48988d110941735","name":"Italian Restaurant","pluralName":"Italian Restaurants","shortName":"Italian","icon":{"prefix":"https:\/\/ss3.4sqi.net\/img\/categories_v2\/food\/italian_","suffix":".png"},"primary":true}],"verified":false,"stats":{"checkinsCount":2794,"usersCount":1762,"tipCount":66},"url":"http:\/\/parksiderestaurantny.com","hasMenu":true,"menu":{"type":"Menu","label":"Menu","anchor":"View Menu","url":"https:\/\/foursquare.com\/v\/park-side-restaurant\/4b808501f964a5207b7930e3\/menu","mobileUrl":"https:\/\/foursquare.com\/v\/4b808501f964a5207b7930e3\/device_menu"},"allowMenuUrlEdit":true,"beenHere":{"lastCheckinExpiredAt":0},"specials":{"count":0,"items":[]},"referralId":"v-1483290996","venueChains":[],"hasPerk":false},{"id":"4c487d9f31e41b8d703b5035","name":"Dunkin' Donuts","contact":{"phone":"7183212096","formattedPhone":"(718) 321-2096","twitter":"dunkindonuts","facebook":"6979393237","facebookUsername":"DunkinDonutsUS","facebookName":"Dunkin' Donuts"},"location":{"address":"4159 Kissena Blvd","crossStreet":"Sanford Ave","lat":40.757402582718136,"lng":-73.82715985008934,"labeledLatLngs":[{"label":"display","lat":40.757402582718136,"lng":-73.82715985008934}],"postalCode":"11355","cc":"US","city":"Flushing","state":"NY","country":"United States","formattedAddress":["4159 Kissena Blvd (Sanford Ave)","Flushing, NY 11355","United States"]},"categories":[{"id":"4bf58dd8d48988d148941735","name":"Donut Shop","pluralName":"Donut Shops","shortName":"Donuts","icon":{"prefix":"https:\/\/ss3.4sqi.net\/img\/categories_v2\/food\/donuts_","suffix":".png"},"primary":true}],"verified":true,"stats":{"checkinsCount":2411,"usersCount":389,"tipCount":10},"url":"http:\/\/www.dunkindonuts.com","allowMenuUrlEdit":true,"beenHere":{"lastCheckinExpiredAt":0},"specials":{"count":0,"items":[]},"storeId":"347899","referralId":"v-1483290996","venueChains":[{"id":"556f676fbd6a75a99038d8f0"}],"hasPerk":false},{"id":"4de09019fa76425c541ce0bd","name":"Dunkin' Donuts","contact":{"phone":"9173964635","formattedPhone":"(917) 396-4635","twitter":"dunkindonuts","facebook":"6979393237","facebookUsername":"DunkinDonutsUS","facebookName":"Dunkin' Donuts"},"location":{"address":"9403 Corona Ave","lat":40.74251851316905,"lng":-73.86983119037848,"labeledLatLngs":[{"label":"display","lat":40.74251851316905,"lng":-73.86983119037848}],"postalCode":"11373","cc":"US","city":"Elmhurst","state":"NY","country":"United States","formattedAddress":["9403 Corona Ave","Elmhurst, NY 11373","United States"]},"categories":[{"id":"4bf58dd8d48988d148941735","name":"Donut Shop","pluralName":"Donut Shops","shortName":"Donuts","icon":{"prefix":"https:\/\/ss3.4sqi.net\/img\/categories_v2\/food\/donuts_","suffix":".png"},"primary":true}],"verified":true,"stats":{"checkinsCount":784,"usersCount":181,"tipCount":2},"url":"http:\/\/www.dunkindonuts.com","allowMenuUrlEdit":true,"beenHere":{"lastCheckinExpiredAt":0},"specials":{"count":0,"items":[]},"storeId":"348661","referralId":"v-1483290996","venueChains":[{"id":"556f676fbd6a75a99038d8f0"}],"hasPerk":false}]}}