{"meta":{"code":200,"requestId":"58693979351e3d7031d07cd9"},"response":{"venues":[{"id":"4ae46fcef964a520939a21e3","name":"Tops Diner","contact":{"phone":"9734810490","formattedPhone":"(973) 481-0490","twitter":"topsdiner"},"location":{"address":"500 Passaic Ave","crossStreet":"Central Ave","lat":40.75053343610722,"lng":-74.16402402861083,"labeledLatLngs":[{"label":"display","lat":40.75053343610722,"lng":-74.16402402861083}],"postalCode":"07029","cc":"US","city":"East Newark","state":"NJ","country":"United States","formattedAddress":["500 Passaic Ave (Central Ave)","East Newark, NJ 07029","United States"]},"categories":[{"id":"4bf58dd8d48988d147941735","name":"Diner","pluralName":"Diners","shortName":"Diner","icon":{"prefix":"https:\/\/ss3.4sqi.net\/img\/categories_v2\/food\/diner_","suffix":".png"},"primary":true}],"verified":true,"stats":{"checkinsCount":14790,"usersCount":5640,"tipCount":220},"url":"http:\/\/www.thetopsdiner.com","hasMenu":true,"menu":{"type":"Menu","label":"Menu","anchor":"View Menu","url":"https:\/\/foursquare.com\/v\/tops-diner\/4ae46fcef964a520939a21e3\/menu","mobileUrl":"https:\/\/foursquare.com\/v\/4ae46fcef964a520939a21e3\/device_menu"},"allowMenuUrlEdit":true,"beenHere":{"lastCheckinExpiredAt":0},"specials":{"count":0,"items":[]},"venuePage":{"id":"94545216"},"storeId":"","referralId":"v-1483291001","venueChains":[],"hasPerk":false},{"id":"4b282ed5f964a5206c9024e3","name":"Whole Foods Market","contact":{"phone":"9737465110","formattedPhone":"(973) 746-5110","twitter":"wfmmontclair","facebook":"102361209784","facebookUsername":"WFMMontclair","facebookName":"Whole Foods Market"},"location":{"address":"701 Bloomfield Ave","lat":40.818506476164764,"lng":-74.2228764295578,"labeledLatLngs":[{"label":"display","lat":40.818506476164764,"lng":-74.2228764295578}],"postalCode":"07042","cc":"US","city":"Montclair","state":"NJ","country":"United States","formattedAddress":["701 Bloomfield Ave","Montclair, NJ 07042","United States"]},"categories":[{"id":"4bf58dd8d48988d118951735","name":"Grocery Store","pluralName":"Grocery Stores","shortName":"Grocery Store","icon":{"prefix":"https:\/\/ss3.4sqi.net\/img\/categories_v2\/shops\/food_grocery_","suffix":".png"},"primary":true}],"verified":true,"stats":{"checkinsCount":7359,"usersCount":1926,"tipCount":33},"url":"http:\/\/www.wholefoodsmarket.com\/stores\/montclair","allowMenuUrlEdit":true,"beenHere":{"lastCheckinExpiredAt":0},"specials":{"count":0,"items":[]},"storeId":"MNC","referralId":"v-1483291001","venueChains":[{"id":"556cdf5baceaff43eb042df6"}],"hasPerk":false},{"id":"4b59fb2ff964a52084a528e3","name":"Starbucks","contact":{"phone":"9737431752","formattedPhone":"(973) 743-1752","twitter":"starbucks","facebook":"22092443056","facebookUsername":"Starbucks","facebookName":"Starbucks"},"location":{"address":"710 Bloomfield Ave","crossStreet":"at Park St","lat":40.79755122345955,"lng":-74.20104251073076,"labeledLatLngs":[{"label":"display","lat":40.79755122345955,"lng":-74.20104251073076}],"postalCode":"07028","cc":"US","city":"Glen Ridge","state":"NJ","country":"United States","formattedAddress":["710 Bloomfield Ave (at Park St)","Glen Ridge, NJ 07028","United States"]},"categories":[{"id":"4bf58dd8d48988d1e0931735","name":"Coffee Shop","pluralName":"Coffee Shops","shortName":"Coffee Shop","icon":{"prefix":"https:\/\/ss3.4sqi.net\/img\/categories_v2\/food\/coffeeshop_","suffix":".png"},"primary":true}],"verified":true,"stats":{"checkinsCount":11280,"usersCount":1624,"tipCount":35},"url":"http:\/\/www.starbucks.com\/store\/6409\/","hasMenu":true,"menu":{"type":"Menu","label":"Menu","anchor":"View Menu","url":"http:\/\/www.starbucks.com\/menu","mobileUrl":"http:\/\/www.starbucks.com\/menu","externalUrl":"http:\/\/www.starbucks.com\/menu"},"allowMenuUrlEdit":true,"beenHere":{"lastCheckinExpiredAt":0},"specials":{"count":0,"items":[]},"storeId":"13383","referralId":"v-1483291001","venueChains":[{"id":"556f676fbd6a75a99038d8ec"}],"hasPerk":false},{"id":"4ac14826f964a5208b9620e3","name":"Panera Bread","contact":{"phone":"9732331703","formattedPhone":"(973) 233-1703","twitter":"panerabread","facebook":"99044554628","facebookUsername":"panerabread","facebookName":"Panera Bread"},"location":{"address":"15 Bloomfield Ave","lat":40.80620117952681,"lng":-74.208193749173,"labeledLatLngs":[{"label":"display","lat":40.80620117952681,"lng":-74.208193749173}],"postalCode":"07042","cc":"US","city":"Montclair","state":"NJ","country":"United States","formattedAddress":["15 Bloomfield Ave","Montclair, NJ 07042","United States"]},"categories":[{"id":"4bf58dd8d48988d16d941735","name":"Café","pluralName":"Cafés","shortName":"Café","icon":{"prefix":"https:\/\/ss3.4sqi.net\/img\/categories_v2\/food\/cafe_","suffix":".png"},"primary":true}],"verified":true,"stats":{"checkinsCount":5270,"usersCount":1540,"tipCount":34},"url":"http:\/\/www.panerabread.com","hasMenu":true,"menu":{"type":"Menu","label":"Menu","anchor":"View Menu","url":"https:\/\/foursquare.com\/v\/panera-bread\/4ac14826f964a5208b9620e3\/menu","mobileUrl":"https:\/\/foursquare.com\/v\/4ac14826f964a5208b9620e3\/device_menu","externalUrl":"http:\/\/www.listingextensions.com\/f43115baa3\/2048208350\/menu"},"allowMenuUrlEdit":true,"beenHere":{"lastCheckinExpiredAt":0},"specials":{"count":0,"items":[]},"storeId":"1501","referralId":"v-1483291001","venueChains":[{"id":"556e0f6fa7c82e6b724f8c8a"}],"hasPerk":false},{"id":"4bbbbce2afe1b713649c2f4b","name":"The Montclair Bread Co","contact":{"phone":"9735092525","formattedPhone":"(973) 509-2525","twitter":"montclairbread"},"location":{"address":"113 Walnut St","crossStreet":"Frink St","lat":40.817293,"lng":-74.2114,"labeledLatLngs":[{"label":"display","lat":40.817293,"lng":-74.2114}],"postalCode":"07042","cc":"US","city":"Montclair","state":"NJ","country":"United States","formattedAddress":["113 Walnut St (Frink St)","Montclair, NJ 07042","United States"]},"categories":[{"id":"4bf58dd8d48988d16a941735","name":"Bakery","pluralName":"Bakeries","shortName":"Bakery","icon":{"prefix":"https:\/\/ss3.4sqi.net\/img\/categories_v2\/food\/bakery_","suffix":".png"},"primary":true}],"verified":false,"stats":{"checkinsCount":1542,"usersCount":517,"tipCount":17},"url":"http:\/\/www.montclairbread.com","hasMenu":true,"menu":{"type":"Menu","label":"Menu","anchor":"View Menu","url":"https:\/\/foursquare.com\/v\/the-montclair-bread-co\/4bbbbce2afe1b713649c2f4b\/menu","mobileUrl":"https:\/\/foursquare.com\/v\/4bbbbce2afe1b713649c2f4b\/device_menu"},"allowMenuUrlEdit":true,"beenHere":{"lastCheckinExpiredAt":0},"specials":{"count":0,"items":[]},"referralId":"v-1483291001","venueChains":[],"hasPerk":false},{"id":"4bbb445ab35776b0fbbbcb01","name":"Dunkin' Donuts","contact":{"phone":"9736439228","formattedPhone":"(973) 643-9228","twitter":"dunkindonuts","facebook":"6979393237","facebookUsername":"DunkinDonutsUS","facebookName":"Dunkin' Donuts"},"location":{"address":"150 Halsey St Prudential Plaza Mall, 1st Flr","crossStreet":"Academy","lat":40.73744762364982,"lng":-74.17278081178665,"labeledLatLngs":[{"label":"display","lat":40.73744762364982,"lng":-74.17278081178665}],"postalCode":"7102","cc":"US","city":"Newark","state":"NJ","country":"United States","formattedAddress":["150 Halsey St Prudential Plaza Mall, 1st Flr (Academy)","Newark, NJ 7102","United States"]},"categories":[{"id":"4bf58dd8d48988d148941735","name":"Donut Shop","pluralName":"Donut Shops","shortName":"Donuts","icon":{"prefix":"https:\/\/ss3.4sqi.net\/img\/categories_v2\/food\/donuts_","suffix":".png"},"primary":true}],"verified":true,"stats":{"checkinsCount":3278,"usersCount":473,"tipCount":9},"url":"http:\/\/www.dunkindonuts.com","hasMenu":true,"menu":{"type":"Menu","label":"Menu","anchor":"View Menu","url":"https:\/\/foursquare.com\/v\/dunkin-donuts\/4bbb445ab35776b0fbbbcb01\/menu","mobileUrl":"https:\/\/foursquare.com\/v\/4bbb445ab35776b0fbbbcb01\/device_menu"},"allowMenuUrlEdit":true,"beenHere":{"lastCheckinExpiredAt":0},"specials":{"count":0,"items":[]},"storeId":"342634","referralId":"v-1483291001","venueChains":[{"id":"556f676fbd6a75a99038d8f0"}],"hasPerk":false},{"id":"4b053e8af964a520825722e3","name":"Starbucks","contact":{"phone":"9735620045","formattedPhone":"(973) 562-0045","twitter":"starbucks","facebook":"22092443056","facebookUsername":"Starbucks","facebookName":"Starbucks"},"location":{"address":"483 Franklin Ave","crossStreet":"at Vreeland Ave","lat":40.823195,"lng":-74.156095,"labeledLatLngs":[{"label":"display","lat":40.823195,"lng":-74.156095}],"postalCode":"07110","cc":"US","city":"Nutley","state":"NJ","country":"United States","formattedAddress":["483 Franklin Ave (at Vreeland Ave)","Nutley, NJ 07110","United States"]},"categories":[{"id":"4bf58dd8d48988d1e0931735","name":"Coffee Shop","pluralName":"Coffee Shops","shortName":"Coffee Shop","icon":{"prefix":"https:\/\/ss3.4sqi.net\/img\/categories_v2\/food\/coffeeshop_","suffix":".png"},"primary":true}],"verified":true,"stats":{"checkinsCount":8379,"usersCount":1212,"tipCount":33},"url":"http:\/\/www.starbucks.com\/store\/12414\/","hasMenu":true,"menu":{"type":"Menu","label":"Menu","anchor":"View Menu","url":"http:\/\/www.starbucks.com\/menu","mobileUrl":"http:\/\/www.starbucks.com\/menu","externalUrl":"http:\/\/www.starbucks.com\/menu"},"allowMenuUrlEdit":true,"beenHere":{"lastCheckinExpiredAt":0},"specials":{"count":0,"items":[]},"storeId":"7649","referralId":"v-1483291001","venueChains":[{"id":"556f676fbd6a75a99038d8ec"}],"hasPerk":false},{"id":"4adfbedbf964a5202e7d21e3","name":"State Street Grill","contact":{"phone":"9737483003","formattedPhone":"(973) 748-3003"},"location":{"address":"9 State St","lat":40.79574536105362,"lng":-74.19906478621976,"labeledLatLngs":[{"label":"display","lat":40.79574536105362,"lng":-74.19906478621976}],"postalCode":"07003","cc":"US","city":"Bloomfield","state":"NJ","country":"United States","formattedAddress":["9 State St","Bloomfield, NJ 07003","United States"]},"categories":[{"id":"4bf58dd8d48988d147941735","name":"Diner","pluralName":"Diners","shortName":"Diner","icon":{"prefix":"https:\/\/ss3.4sqi.net\/img\/categories_v2\/food\/diner_","suffix":".png"},"primary":true}],"verified":false,"stats":{"checkinsCount":4728,"usersCount":1752,"tipCount":58},"url":"http:\/\/www.statestreetgrill.com\/","hasMenu":true,"menu":{"type":"Menu","label":"Menu","anchor":"View Menu","url":"https:\/\/foursquare.com\/v\/state-street-grill\/4adfbedbf964a5202e7d21e3\/menu","mobileUrl":"https:\/\/foursquare.com\/v\/4adfbedbf964a5202e7d21e3\/device_menu"},"allowMenuUrlEdit":true,"beenHere":{"lastCheckinExpiredAt":0},"specials":{"count":0,"items":[]},"referralId":"v-1483291001","venueChains":[],"hasPerk":false},{"id":"4c79698c566db60c81de440e","name":"Dunkin' Donuts","contact":{"phone":"9736724700","formattedPhone":"(973) 672-4700","twitter":"dunkindonuts","facebook":"6979393237","facebookUsername":"DunkinDonutsUS","facebookName":"Dunkin' Donuts"},"location":{"address":"306 Main St","crossStreet":"north day","lat":40.77224006587206,"lng":-74.22994353014637,"labeledLatLngs":[{"label":"display","lat":40.77224006587206,"lng":-74.22994353014637}],"postalCode":"07050","cc":"US","city":"Orange","state":"NJ","country":"United States","formattedAddress":["306 Main St (north day)","Orange, NJ 07050","United States"]},"categories":[{"id":"4bf58dd8d48988d148941735","name":"Donut Shop","pluralName":"Donut Shops","shortName":"Donuts","icon":{"prefix":"https:\/\/ss3.4sqi.net\/img\/categories_v2\/food\/donuts_","suffix":".png"},"primary":true}],"verified":true,"stats":{"checkinsCount":575,"usersCount":169,"tipCount":5},"url":"http:\/\/www.dunkindonuts.com","allowMenuUrlEdit":true,"beenHere":{"lastCheckinExpiredAt":0},"specials":{"count":0,"items":[]},"storeId":"343735","referralId":"v-1483291001","venueChains":[{"id":"556f676fbd6a75a99038d8f0"}],"hasPerk":false},{"id":"4b4ddddff964a520c5d926e3","name":"Dunkin' Donuts","contact":{"phone":"9734291770","formattedPhone":"(973) 429-1770","twitter":"dunkindonuts","facebook":"6979393237","facebookUsername":"DunkinDonutsUS","facebookName":"Dunkin' Donuts"},"location":{"address":"548 Broad St","crossStreet":"btwn Bay Ave & Vernon Terr","lat":40.812038,"lng":-74.19436435,"labeledLatLngs":[{"label":"display","lat":40.812038,"lng":-74.19436435}],"postalCode":"07003","cc":"US","city":"Bloomfield","state":"NJ","country":"United States","formattedAddress":["548 Broad St (btwn Bay Ave & Vernon Terr)","Bloomfield, NJ 07003","United States"]},"categories":[{"id":"4bf58dd8d48988d148941735","name":"Donut Shop","pluralName":"Donut Shops","shortName":"Donuts","icon":{"prefix":"https:\/\/ss3.4sqi.net\/img\/categories_v2\/food\/donuts_","suffix":".png"},"primary":true}],"verified":true,"stats":{"checkinsCount":4048,"usersCount":613,"tipCount":10},"url":"http:\/\/www.dunkindonuts.com","allowMenuUrlEdit":true,"beenHere":{"lastCheckinExpiredAt":0},"specials":{"count":0,"items":[]},"storeId":"302831","referralId":"v-1483291001","venueChains":[{"id":"556f676fbd6a75a99038d8f0"}],"hasPerk":false},{"id":"55182b6e498eedf962123ed2","name":"The Corner","contact":{"phone":"9737832400","formattedPhone":"(973) 783-2400"},"location":{"address":"115 Grove St","crossStreet":"at Walnut St","lat":40.815131,"lng":-74.207724,"labeledLatLngs":[{"label":"display","lat":40.815131,"lng":-74.207724}],"postalCode":"07042","cc":"US","city":"Montclair","state":"NJ","country":"United States","formattedAddress":["115 Grove St (at Walnut St)","Montclair, NJ 07042","United States"]},"categories":[{"id":"4bf58dd8d48988d16d941735","name":"Café","pluralName":"Cafés","shortName":"Café","icon":{"prefix":"https:\/\/ss3.4sqi.net\/img\/categories_v2\/food\/cafe_","suffix":".png"},"primary":true}],"verified":false,"stats":{"checkinsCount":682,"usersCount":238,"tipCount":12},"url":"http:\/\/thecornermontclair.com","allowMenuUrlEdit":true,"beenHere":{"lastCheckinExpiredAt":0},"specials":{"count":0,"items":[]},"referralId":"v-1483291001","venueChains":[],"hasPerk":false},{"id":"55a8d702498e336ef529adc6","name":"Starbucks","contact":{"phone":"9735580253","formattedPhone":"(973) 558-0253","twitter":"starbucks","facebook":"22092443056","facebookUsername":"Starbucks","facebookName":"Starbucks"},"location":{"address":"Broad Street","crossStreet":"W. Park","lat":40.738663,"lng":-74.17059,"labeledLatLngs":[{"label":"display","lat":40.738663,"lng":-74.17059}],"postalCode":"07102","cc":"US","city":"Newark","state":"NJ","country":"United States","formattedAddress":["Broad Street (W. Park)","Newark, NJ 07102","United States"]},"categories":[{"id":"4bf58dd8d48988d1e0931735","name":"Coffee Shop","pluralName":"Coffee Shops","shortName":"Coffee Shop","icon":{"prefix":"https:\/\/ss3.4sqi.net\/img\/categories_v2\/food\/coffeeshop_","suffix":".png"},"primary":true}],"verified":true,"stats":{"checkinsCount":935,"usersCount":188,"tipCount":6},"url":"http:\/\/www.starbucks.com","menu":{"type":"Menu","label":"Menu","anchor":"View Menu","url":"http:\/\/starbucks.com\/menu\/","mobileUrl":"http:\/\/starbucks.com\/menu\/","externalUrl":"http:\/\/starbucks.com\/menu\/"},"allowMenuUrlEdit":true,"beenHere":{"lastCheckinExpiredAt":0},"specials":{"count":0,"items":[]},"storeId":"1012914","referralId":"v-1483291001","venueChains":[{"id":"556f676fbd6a75a99038d8ec"}],"hasPerk":false},{"id":"4af0d533f964a52091df21e3","name":"QuickChek","contact":{"phone":"9734291742","formattedPhone":"(973) 429-1742","twitter":"QuickChek"},"location":{"address":"357 Broad St","lat":40.8054744264275,"lng":-74.19282191689628,"labeledLatLngs":[{"label":"display","lat":40.8054744264275,"lng":-74.19282191689628}],"postalCode":"07003","cc":"US","city":"Bloomfield","state":"NJ","country":"United States","formattedAddress":["357 Broad St","Bloomfield, NJ 07003","United States"]},"categories":[{"id":"4d954b0ea243a5684a65b473","name":"Convenience Store","pluralName":"Convenience Stores","shortName":"Convenience Store","icon":{"prefix":"https:\/\/ss3.4sqi.net\/img\/categories_v2\/shops\/conveniencestore_","suffix":".png"},"primary":true}],"verified":true,"stats":{"checkinsCount":5824,"usersCount":786,"tipCount":6},"url":"http:\/\/qchek.com","hasMenu":true,"menu":{"type":"Products","label":"Products","anchor":"View Products","url":"https:\/\/foursquare.com\/v\/quickchek\/4af0d533f964a52091df21e3\/menu","mobileUrl":"https:\/\/foursquare.com\/v\/4af0d533f964a52091df21e3\/device_menu"},"allowMenuUrlEdit":true,"beenHere":{"lastCheckinExpiredAt":0},"specials":{"count":0,"items":[]},"storeId":"","referralId":"v-1483291001","venueChains":[{"id":"556f431fbd6a007c77388d9e"}],"hasPerk":false},{"id":"4b8300a7f964a52000f230e3","name":"Wendy's","contact":{"phone":"9734838704","formattedPhone":"(973) 483-8704","twitter":"wendys","facebook":"113385204488","facebookUsername":"wendys","facebookName":"Wendy's"},"location":{"address":"401 Bergen St","crossStreet":"Frank E Rodgers Blvd","lat":40.743126500719995,"lng":-74.15537748351814,"labeledLatLngs":[{"label":"display","lat":40.743126500719995,"lng":-74.15537748351814}],"postalCode":"07029","cc":"US","city":"Harrison","state":"NJ","country":"United States","formattedAddress":["401 Bergen St (Frank E Rodgers Blvd)","Harrison, NJ 07029","United States"]},"categories":[{"id":"4bf58dd8d48988d16e941735","name":"Fast Food Restaurant","pluralName":"Fast Food Restaurants","shortName":"Fast Food","icon":{"prefix":"https:\/\/ss3.4sqi.net\/img\/categories_v2\/food\/fastfood_","suffix":".png"},"primary":true}],"verified":true,"stats":{"checkinsCount":1318,"usersCount":600,"tipCount":13},"url":"http:\/\/www.wendys.com","hasMenu":true,"menu":{"type":"Menu","label":"Menu","anchor":"View Menu","url":"https:\/\/foursquare.com\/v\/wendys\/4b8300a7f964a52000f230e3\/menu","mobileUrl":"https:\/\/foursquare.com\/v\/4b8300a7f964a52000f230e3\/device_menu"},"allowMenuUrlEdit":true,"beenHere":{"lastCheckinExpiredAt":0},"specials":{"count":0,"items":[]},"storeId":"03675-FS-OP","referralId":"v-1483291001","venueChains":[{"id":"556f46f6bd6a007c77390fa9"}],"hasPerk":false},{"id":"5679e751498e9a318d9fb8ba","name":"7-Eleven","contact":{"phone":"9736722964","formattedPhone":"(973) 672-2964","twitter":"7eleven","facebook":"228916954107170","facebookName":"7-Eleven"},"location":{"address":"247 Freeway Dr","crossStreet":"S. Arlington Street","lat":40.75990813524744,"lng":-74.21131525938108,"labeledLatLngs":[{"label":"display","lat":40.75990813524744,"lng":-74.21131525938108}],"postalCode":"07018","cc":"US","city":"East Orange","state":"NJ","country":"United States","formattedAddress":["247 Freeway Dr (S. Arlington Street)","East Orange, NJ 07018","United States"]},"categories":[{"id":"4d954b0ea243a5684a65b473","name":"Convenience Store","pluralName":"Convenience Stores","shortName":"Convenience Store","icon":{"prefix":"https:\/\/ss3.4sqi.net\/img\/categories_v2\/shops\/conveniencestore_","suffix":".png"},"primary":true}],"verified":false,"stats":{"checkinsCount":322,"usersCount":30,"tipCount":0},"url":"http:\/\/www.7-eleven.com","allowMenuUrlEdit":true,"beenHere":{"lastCheckinExpiredAt":0},"specials":{"count":0,"items":[]},"referralId":"v-1483291001","venueChains":[{"id":"556f676fbd6a75a99038d8e9"}],"hasPerk":false},{"id":"4f2312166aa3ce5579492576","name":"QuickChek","contact":{"phone":"9736551121","formattedPhone":"(973) 655-1121","twitter":"quickchek"},"location":{"address":"146 Valley Rd","lat":40.82294612390572,"lng":-74.21967793993015,"labeledLatLngs":[{"label":"display","lat":40.82294612390572,"lng":-74.21967793993015}],"postalCode":"07042","cc":"US","city":"Montclair","state":"NJ","country":"United States","formattedAddress":["146 Valley Rd","Montclair, NJ 07042","United States"]},"categories":[{"id":"4d954b0ea243a5684a65b473","name":"Convenience Store","pluralName":"Convenience Stores","shortName":"Convenience Store","icon":{"prefix":"https:\/\/ss3.4sqi.net\/img\/categories_v2\/shops\/conveniencestore_","suffix":".png"},"primary":true}],"verified":true,"stats":{"checkinsCount":3717,"usersCount":587,"tipCount":14},"url":"https:\/\/www.facebook.com\/Quick.Chek.GetFresh.GoFast","hasMenu":true,"menu":{"type":"Products","label":"Products","anchor":"View Products","url":"https:\/\/foursquare.com\/v\/quickchek\/4f2312166aa3ce5579492576\/menu","mobileUrl":"https:\/\/foursquare.com\/v\/4f2312166aa3ce5579492576\/device_menu"},"allowMenuUrlEdit":true,"beenHere":{"lastCheckinExpiredAt":0},"specials":{"count":0,"items":[]},"storeId":"","referralId":"v-1483291001","venueChains":[{"id":"556f431fbd6a007c77388d9e"}],"hasPerk":false},{"id":"4ac8f5e6f964a5209abd20e3","name":"Cuban Pete's","contact":{"phone":"9737461100","formattedPhone":"(973) 746-1100"},"location":{"address":"428 Bloomfield Ave","lat":40.81315962851092,"lng":-74.21691656112671,"labeledLatLngs":[{"label":"display","lat":40.81315962851092,"lng":-74.21691656112671}],"postalCode":"07042","cc":"US","city":"Montclair","state":"NJ","country":"United States","formattedAddress":["428 Bloomfield Ave","Montclair, NJ 07042","United States"]},"categories":[{"id":"4bf58dd8d48988d154941735","name":"Cuban Restaurant","pluralName":"Cuban Restaurants","shortName":"Cuban","icon":{"prefix":"https:\/\/ss3.4sqi.net\/img\/categories_v2\/food\/cuban_","suffix":".png"},"primary":true}],"verified":false,"stats":{"checkinsCount":12678,"usersCount":7596,"tipCount":245},"url":"http:\/\/www.cubanpetes.com\/","hasMenu":true,"menu":{"type":"Menu","label":"Menu","anchor":"View Menu","url":"https:\/\/foursquare.com\/v\/cuban-petes\/4ac8f5e6f964a5209abd20e3\/menu","mobileUrl":"https:\/\/foursquare.com\/v\/4ac8f5e6f964a5209abd20e3\/device_menu"},"allowMenuUrlEdit":true,"beenHere":{"lastCheckinExpiredAt":0},"specials":{"count":0,"items":[]},"referralId":"v-1483291001","venueChains":[],"hasPerk":false},{"id":"4db31652cda1c57c823e4320","name":"Calandra's Bakery","contact":{"phone":"9734845598","formattedPhone":"(973) 484-5598"},"location":{"address":"204 1st Ave W","lat":40.76779734080019,"lng":-74.18178602629237,"labeledLatLngs":[{"label":"display","lat":40.76779734080019,"lng":-74.18178602629237}],"postalCode":"07107","cc":"US","city":"Newark","state":"NJ","country":"United States","formattedAddress":["204 1st Ave W","Newark, NJ 07107","United States"]},"categories":[{"id":"4bf58dd8d48988d16a941735","name":"Bakery","pluralName":"Bakeries","shortName":"Bakery","icon":{"prefix":"https:\/\/ss3.4sqi.net\/img\/categories_v2\/food\/bakery_","suffix":".png"},"primary":true}],"verified":false,"stats":{"checkinsCount":1691,"usersCount":460,"tipCount":20},"url":"http:\/\/www.calandrasbakery.com\/","hasMenu":true,"menu":{"type":"Menu","label":"Menu","anchor":"View Menu","url":"https:\/\/foursquare.com\/v\/calandras-bakery\/4db31652cda1c57c823e4320\/menu","mobileUrl":"https:\/\/foursquare.com\/v\/4db31652cda1c57c823e4320\/device_menu"},"allowMenuUrlEdit":true,"beenHere":{"lastCheckinExpiredAt":0},"specials":{"count":0,"items":[]},"referralId":"v-1483291001","venueChains":[],"hasPerk":false},{"id":"4ba577b2f964a5201b0a39e3","name":"Binh Duong","contact":{"phone":"9736808440","formattedPhone":"(973) 680-8440","twitter":"lachrymosegov"},"location":{"address":"61 Belleville Ave","lat":40.79751488159932,"lng":-74.18180322559478,"labeledLatLngs":[{"label":"display","lat":40.79751488159932,"lng":-74.18180322559478}],"postalCode":"07003","cc":"US","city":"Bloomfield","state":"NJ","country":"United States","formattedAddress":["61 Belleville Ave","Bloomfield, NJ 07003","United States"]},"categories":[{"id":"4bf58dd8d48988d14a941735","name":"Vietnamese Restaurant","pluralName":"Vietnamese Restaurants","shortName":"Vietnamese","icon":{"prefix":"https:\/\/ss3.4sqi.net\/img\/categories_v2\/food\/vietnamese_","suffix":".png"},"primary":true}],"verified":false,"stats":{"checkinsCount":2585,"usersCount":846,"tipCount":28},"allowMenuUrlEdit":true,"beenHere":{"lastCheckinExpiredAt":0},"specials":{"count":0,"items":[]},"referralId":"v-1483291001","venueChains":[],"hasPerk":false},{"id":"4c3150c166e40f473feac48b","name":"7-Eleven","contact":{"phone":"9737077741","formattedPhone":"(973) 707-7741","twitter":"7eleven","facebook":"227245563989978","facebookName":"7-Eleven"},"location":{"address":"122 Bloomfield Ave","crossStreet":"at Ampere Pkwy.","lat":40.77802900233484,"lng":-74.18876307884297,"labeledLatLngs":[{"label":"display","lat":40.77802900233484,"lng":-74.18876307884297}],"postalCode":"07003","cc":"US","city":"Bloomfield","state":"NJ","country":"United States","formattedAddress":["122 Bloomfield Ave (at Ampere Pkwy.)","Bloomfield, NJ 07003","United States"]},"categories":[{"id":"4d954b0ea243a5684a65b473","name":"Convenience Store","pluralName":"Convenience Stores","shortName":"Convenience Store","icon":{"prefix":"https:\/\/ss3.4sqi.net\/img\/categories_v2\/shops\/conveniencestore_","suffix":".png"},"primary":true}],"verified":true,"stats":{"checkinsCount":2189,"usersCount":359,"tipCount":7},"url":"http:\/\/www.7-eleven.com","allowMenuUrlEdit":true,"beenHere":{"lastCheckinExpiredAt":0},"specials":{"count":0,"items":[]},"storeId":"39322","referralId":"v-1483291001","venueChains":[{"id":"556f676fbd6a75a99038d8e9"}],"hasPerk":false},{"id":"537bf153498e9a76c533639c","name":"Ani Ramen House","contact":{"phone":"9737443960","formattedPhone":"(973) 744-3960"},"location":{"address":"401 Bloomfield Ave","crossStreet":"Seymour Street","lat":40.81283391324978,"lng":-74.21613557649731,"labeledLatLngs":[{"label":"display","lat":40.81283391324978,"lng":-74.21613557649731}],"postalCode":"07042","cc":"US","city":"Montclair","state":"NJ","country":"United States","formattedAddress":["401 Bloomfield Ave (Seymour Street)","Montclair, NJ 07042","United States"]},"categories":[{"id":"4bf58dd8d48988d1d1941735","name":"Noodle House","pluralName":"Noodle Houses","shortName":"Noodles","icon":{"prefix":"https:\/\/ss3.4sqi.net\/img\/categories_v2\/food\/ramen_","suffix":".png"},"primary":true}],"verified":false,"stats":{"checkinsCount":1746,"usersCount":899,"tipCount":39},"url":"http:\/\/aniramen.com","menu":{"type":"Menu","label":"Menu","anchor":"View Menu","url":"http:\/\/aniramen.com\/our-full-selection\/","mobileUrl":"http:\/\/aniramen.com\/our-full-selection\/","externalUrl":"http:\/\/aniramen.com\/our-full-selection\/"},"allowMenuUrlEdit":true,"beenHere":{"lastCheckinExpiredAt":0},"specials":{"count":0,"items":[]},"referralId":"v-1483291001","venueChains":[],"hasPerk":false},{"id":"4bcba8600687ef3b963bdecc","name":"Star Tavern Pizzeria","contact":{"phone":"9736753336","formattedPhone":"(973) 675-3336","twitter":"startavern","facebook":"306821596100070","facebookUsername":"StarTavern","facebookName":"The Star Tavern"},"location":{"address":"400 High St","lat":40.78334501512924,"lng":-74.22558745915079,"labeledLatLngs":[{"label":"display","lat":40.78334501512924,"lng":-74.22558745915079}],"postalCode":"07050","cc":"US","city":"Orange","state":"NJ","country":"United States","formattedAddress":["400 High St","Orange, NJ 07050","United States"]},"categories":[{"id":"4bf58dd8d48988d1ca941735","name":"Pizza Place","pluralName":"Pizza Places","shortName":"Pizza","icon":{"prefix":"https:\/\/ss3.4sqi.net\/img\/categories_v2\/food\/pizza_","suffix":".png"},"primary":true}],"verified":true,"stats":{"checkinsCount":5395,"usersCount":2140,"tipCount":75},"url":"http:\/\/www.startavern.net","hasMenu":true,"menu":{"type":"Menu","label":"Menu","anchor":"View Menu","url":"https:\/\/foursquare.com\/v\/star-tavern-pizzeria\/4bcba8600687ef3b963bdecc\/menu","mobileUrl":"https:\/\/foursquare.com\/v\/4bcba8600687ef3b963bdecc\/device_menu"},"allowMenuUrlEdit":true,"beenHere":{"lastCheckinExpiredAt":0},"specials":{"count":0,"items":[]},"venuePage":{"id":"44278400"},"storeId":"","referralId":"v-1483291001","venueChains":[],"hasPerk":false},{"id":"4b38e86ef964a520055225e3","name":"Starbucks","contact":{"phone":"9737460291","formattedPhone":"(973) 746-0291","twitter":"starbucks","facebook":"22092443056","facebookUsername":"Starbucks","facebookName":"Starbucks"},"location":{"address":"40 S Park St","crossStreet":"at Church St","lat":40.81433558269459,"lng":-74.21993014443521,"labeledLatLngs":[{"label":"display","lat":40.81433558269459,"lng":-74.21993014443521}],"postalCode":"07042","cc":"US","city":"Montclair","state":"NJ","country":"United States","formattedAddress":["40 S Park St (at Church St)","Montclair, NJ 07042","United States"]},"categories":[{"id":"4bf58dd8d48988d1e0931735","name":"Coffee Shop","pluralName":"Coffee Shops","shortName":"Coffee Shop","icon":{"prefix":"https:\/\/ss3.4sqi.net\/img\/categories_v2\/food\/coffeeshop_","suffix":".png"},"primary":true}],"verified":true,"stats":{"checkinsCount":8727,"usersCount":2039,"tipCount":73},"url":"http:\/\/www.starbucks.com\/store\/6512\/","hasMenu":true,"menu":{"type":"Menu","label":"Menu","anchor":"View Menu","url":"http:\/\/www.starbucks.com\/menu","mobileUrl":"http:\/\/www.starbucks.com\/menu","externalUrl":"http:\/\/www.starbucks.com\/menu"},"allowMenuUrlEdit":true,"beenHere":{"lastCheckinExpiredAt":0},"specials":{"count":0,"items":[]},"storeId":"13856","referralId":"v-1483291001","venueChains":[{"id":"556f676fbd6a75a99038d8ec"}],"hasPerk":false},{"id":"4a875f62f964a5201e0420e3","name":"Raymond's","contact":{"phone":"9737449263","formattedPhone":"(973) 744-9263"},"location":{"address":"28 Church St","lat":40.813942,"lng":-74.218789,"labeledLatLngs":[{"label":"display","lat":40.813942,"lng":-74.218789}],"postalCode":"07042","cc":"US","city":"Montclair","state":"NJ","country":"United States","formattedAddress":["28 Church St","Montclair, NJ 07042","United States"]},"categories":[{"id":"4bf58dd8d48988d14e941735","name":"American Restaurant","pluralName":"American Restaurants","shortName":"American","icon":{"prefix":"https:\/\/ss3.4sqi.net\/img\/categories_v2\/food\/default_","suffix":".png"},"primary":true}],"verified":false,"stats":{"checkinsCount":9412,"usersCount":3663,"tipCount":134},"url":"http:\/\/www.raymondsnj.com\/","hasMenu":true,"menu":{"type":"Menu","label":"Menu","anchor":"View Menu","url":"https:\/\/foursquare.com\/v\/raymonds\/4a875f62f964a5201e0420e3\/menu","mobileUrl":"https:\/\/foursquare.com\/v\/4a875f62f964a5201e0420e3\/device_menu"},"allowMenuUrlEdit":true,"beenHere":{"lastCheckinExpiredAt":0},"specials":{"count":0,"items":[]},"referralId":"v-1483291001","venueChains":[],"hasPerk":false},{"id":"4bc9de9368f976b0c9ff5d83","name":"Dunkin' Donuts","contact":{"phone":"9734815411","formattedPhone":"(973) 481-5411","twitter":"dunkindonuts","facebook":"6979393237","facebookUsername":"DunkinDonutsUS","facebookName":"Dunkin' Donuts"},"location":{"address":"420 Bergen St","crossStreet":"S 5th","lat":40.743497430691235,"lng":-74.15509652139936,"labeledLatLngs":[{"label":"display","lat":40.743497430691235,"lng":-74.15509652139936}],"postalCode":"07029","cc":"US","city":"Harrison","state":"NJ","country":"United States","formattedAddress":["420 Bergen St (S 5th)","Harrison, NJ 07029","United States"]},"categories":[{"id":"4bf58dd8d48988d148941735","name":"Donut Shop","pluralName":"Donut Shops","shortName":"Donuts","icon":{"prefix":"https:\/\/ss3.4sqi.net\/img\/categories_v2\/food\/donuts_","suffix":".png"},"primary":true}],"verified":true,"stats":{"checkinsCount":2326,"usersCount":607,"tipCount":12},"url":"http:\/\/www.dunkindonuts.com","allowMenuUrlEdit":true,"beenHere":{"lastCheckinExpiredAt":0},"specials":{"count":0,"items":[]},"storeId":"302797","referralId":"v-1483291001","venueChains":[{"id":"556f676fbd6a75a99038d8f0"}],"hasPerk":false},{"id":"4c07c6e7c69aa59329c29ba2","name":"McDonald's","contact":{"phone":"9736243103","formattedPhone":"(973) 624-3103"},"location":{"address":"334 W Market St","crossStreet":"at Bergen","lat":40.74541654630899,"lng":-74.19033961550248,"labeledLatLngs":[{"label":"display","lat":40.74541654630899,"lng":-74.19033961550248}],"postalCode":"07107","cc":"US","city":"Newark","state":"NJ","country":"United States","formattedAddress":["334 W Market St (at Bergen)","Newark, NJ 07107","United States"]},"categories":[{"id":"4bf58dd8d48988d16e941735","name":"Fast Food Restaurant","pluralName":"Fast Food Restaurants","shortName":"Fast Food","icon":{"prefix":"https:\/\/ss3.4sqi.net\/img\/categories_v2\/food\/fastfood_","suffix":".png"},"primary":true}],"verified":true,"stats":{"checkinsCount":1038,"usersCount":334,"tipCount":6},"url":"http:\/\/mcdonalds.com","hasMenu":true,"menu":{"type":"Menu","label":"Menu","anchor":"View Menu","url":"https:\/\/foursquare.com\/v\/mcdonalds\/4c07c6e7c69aa59329c29ba2\/menu","mobileUrl":"https:\/\/foursquare.com\/v\/4c07c6e7c69aa59329c29ba2\/device_menu"},"allowMenuUrlEdit":true,"beenHere":{"lastCheckinExpiredAt":0},"specials":{"count":0,"items":[]},"storeId":"11079","referralId":"v-1483291001","venueChains":[{"id":"556f7a12bd6a75a9903bddb2"}],"hasPerk":false},{"id":"4b0977d9f964a520bd1723e3","name":"Nutley Diner","contact":{"phone":"9732350937","formattedPhone":"(973) 235-0937","twitter":"nutleydiner"},"location":{"address":"372 Centre St","crossStreet":"at Franklin Ave.","lat":40.81502721728655,"lng":-74.16193127632141,"labeledLatLngs":[{"label":"display","lat":40.81502721728655,"lng":-74.16193127632141}],"postalCode":"07110","cc":"US","city":"Nutley","state":"NJ","country":"United States","formattedAddress":["372 Centre St (at Franklin Ave.)","Nutley, NJ 07110","United States"]},"categories":[{"id":"4bf58dd8d48988d147941735","name":"Diner","pluralName":"Diners","shortName":"Diner","icon":{"prefix":"https:\/\/ss3.4sqi.net\/img\/categories_v2\/food\/diner_","suffix":".png"},"primary":true}],"verified":false,"stats":{"checkinsCount":4998,"usersCount":1483,"tipCount":30},"url":"http:\/\/www.nutleydiner.com\/","allowMenuUrlEdit":true,"beenHere":{"lastCheckinExpiredAt":0},"specials":{"count":0,"items":[]},"referralId":"v-1483291001","venueChains":[],"hasPerk":false},{"id":"4bd972e42e6f0f477f8e0a08","name":"Dunkin' Donuts","contact":{"phone":"9736727913","formattedPhone":"(973) 672-7913","twitter":"dunkindonuts","facebook":"6979393237","facebookUsername":"DunkinDonutsUS","facebookName":"Dunkin' Donuts"},"location":{"address":"523 Central Ave","crossStreet":"at Halstead St","lat":40.759385824174586,"lng":-74.22220570126734,"labeledLatLngs":[{"label":"display","lat":40.759385824174586,"lng":-74.22220570126734}],"postalCode":"07018","cc":"US","neighborhood":"East Orange","city":"East Orange","state":"NJ","country":"United States","formattedAddress":["523 Central Ave (at Halstead St)","East Orange, NJ 07018","United States"]},"categories":[{"id":"4bf58dd8d48988d148941735","name":"Donut Shop","pluralName":"Donut Shops","shortName":"Donuts","icon":{"prefix":"https:\/\/ss3.4sqi.net\/img\/categories_v2\/food\/donuts_","suffix":".png"},"primary":true}],"verified":true,"stats":{"checkinsCount":1246,"usersCount":262,"tipCount":13},"url":"http:\/\/www.dunkindonuts.com","allowMenuUrlEdit":true,"beenHere":{"lastCheckinExpiredAt":0},"specials":{"count":0,"items":[]},"storeId":"306453","referralId":"v-1483291001","venueChains":[{"id":"556f676fbd6a75a99038d8f0"}],"hasPerk":false},{"id":"4aee2d2df964a520b6d221e3","name":"Nevada Diner","contact":{"phone":"9737439393","formattedPhone":"(973) 743-9393","twitter":"Nevada"},"location":{"address":"293 Broad St","lat":40.80383102937309,"lng":-74.19449014229535,"labeledLatLngs":[{"label":"display","lat":40.80383102937309,"lng":-74.19449014229535}],"postalCode":"07003","cc":"US","city":"Bloomfield","state":"NJ","country":"United States","formattedAddress":["293 Broad St","Bloomfield, NJ 07003","United States"]},"categories":[{"id":"4bf58dd8d48988d147941735","name":"Diner","pluralName":"Diners","shortName":"Diner","icon":{"prefix":"https:\/\/ss3.4sqi.net\/img\/categories_v2\/food\/diner_","suffix":".png"},"primary":true}],"verified":false,"stats":{"checkinsCount":4395,"usersCount":1638,"tipCount":45},"url":"http:\/\/www.nevadadiner.com\/","hasMenu":true,"menu":{"type":"Menu","label":"Menu","anchor":"View Menu","url":"https:\/\/foursquare.com\/v\/nevada-diner\/4aee2d2df964a520b6d221e3\/menu","mobileUrl":"https:\/\/foursquare.com\/v\/4aee2d2df964a520b6d221e3\/device_menu"},"allowMenuUrlEdit":true,"beenHere":{"lastCheckinExpiredAt":0},"specials":{"count":0,"items":[]},"referralId":"v-1483291001","venueChains":[],"hasPerk":false},{"id":"54f4e5af498e087eecc83ec8","name":"Cowan's Public","contact":{"phone":"9735428151","formattedPhone":"(973) 542-8151"},"location":{"address":"227-229 Centre St","lat":40.812548,"lng":-74.156303,"labeledLatLngs":[{"label":"display","lat":40.812548,"lng":-74.156303}],"postalCode":"07110","cc":"US","city":"Nutley","state":"NJ","country":"United States","formattedAddress":["227-229 Centre St","Nutley, NJ 07110","United States"]},"categories":[{"id":"4bf58dd8d48988d155941735","name":"Gastropub","pluralName":"Gastropubs","shortName":"Gastropub","icon":{"prefix":"https:\/\/ss3.4sqi.net\/img\/categories_v2\/food\/gastropub_","suffix":".png"},"primary":true}],"verified":false,"stats":{"checkinsCount":1006,"usersCount":316,"tipCount":10},"url":"http:\/\/cowanspublic.com","menu":{"type":"Menu","label":"Menu","anchor":"View Menu","url":"http:\/\/cowanspublic.com\/wp-content\/uploads\/2015\/01\/CowansFoodMenu4.pdf","mobileUrl":"http:\/\/cowanspublic.com\/wp-content\/uploads\/2015\/01\/CowansFoodMenu4.pdf","externalUrl":"http:\/\/cowanspublic.com\/wp-content\/uploads\/2015\/01\/CowansFoodMenu4.pdf"},"allowMenuUrlEdit":true,"beenHere":{"lastCheckinExpiredAt":0},"specials":{"count":0,"items":[]},"referralId":"v-1483291001","venueChains":[],"hasPerk":false}]}}