{"meta":{"code":200,"requestId":"58693970f594df18aa72aada"},"response":{"venues":[{"id":"4b4e2339f964a52090e226e3","name":"Starbucks","contact":{"phone":"9736550044","formattedPhone":"(973) 655-0044","twitter":"starbucks","facebook":"22092443056","facebookUsername":"Starbucks","facebookName":"Starbucks"},"location":{"address":"572 Valley Rd","crossStreet":"at Upper Montclair Plaza","lat":40.839676,"lng":-74.208046,"labeledLatLngs":[{"label":"display","lat":40.839676,"lng":-74.208046}],"postalCode":"07043","cc":"US","city":"Upper Montclair","state":"NJ","country":"United States","formattedAddress":["572 Valley Rd (at Upper Montclair Plaza)","Upper Montclair, NJ 07043","United States"]},"categories":[{"id":"4bf58dd8d48988d1e0931735","name":"Coffee Shop","pluralName":"Coffee Shops","shortName":"Coffee Shop","icon":{"prefix":"https:\/\/ss3.4sqi.net\/img\/categories_v2\/food\/coffeeshop_","suffix":".png"},"primary":true}],"verified":true,"stats":{"checkinsCount":6999,"usersCount":1613,"tipCount":45},"url":"http:\/\/www.starbucks.com\/store\/12021\/","hasMenu":true,"menu":{"type":"Menu","label":"Menu","anchor":"View Menu","url":"http:\/\/www.starbucks.com\/menu","mobileUrl":"http:\/\/www.starbucks.com\/menu","externalUrl":"http:\/\/www.starbucks.com\/menu"},"allowMenuUrlEdit":true,"beenHere":{"lastCheckinExpiredAt":0},"specials":{"count":0,"items":[]},"storeId":"858","referralId":"v-1483290992","venueChains":[{"id":"556f676fbd6a75a99038d8ec"}],"hasPerk":false},{"id":"4af182edf964a5202de121e3","name":"Tick Tock Diner","contact":{"phone":"9737770511","formattedPhone":"(973) 777-0511","twitter":"ticktockdiner"},"location":{"address":"281 Allwood Rd","crossStreet":"btwn Passaic & Bloomfield Ave","lat":40.83681390170937,"lng":-74.15221233472452,"labeledLatLngs":[{"label":"display","lat":40.83681390170937,"lng":-74.15221233472452}],"postalCode":"07012","cc":"US","city":"Clifton","state":"NJ","country":"United States","formattedAddress":["281 Allwood Rd (btwn Passaic & Bloomfield Ave)","Clifton, NJ 07012","United States"]},"categories":[{"id":"4bf58dd8d48988d147941735","name":"Diner","pluralName":"Diners","shortName":"Diner","icon":{"prefix":"https:\/\/ss3.4sqi.net\/img\/categories_v2\/food\/diner_","suffix":".png"},"primary":true}],"verified":false,"stats":{"checkinsCount":11207,"usersCount":5784,"tipCount":91},"url":"http:\/\/www.theticktockdiner.com","hasMenu":true,"menu":{"type":"Menu","label":"Menu","anchor":"View Menu","url":"https:\/\/foursquare.com\/v\/tick-tock-diner\/4af182edf964a5202de121e3\/menu","mobileUrl":"https:\/\/foursquare.com\/v\/4af182edf964a5202de121e3\/device_menu"},"allowMenuUrlEdit":true,"beenHere":{"lastCheckinExpiredAt":0},"specials":{"count":0,"items":[]},"referralId":"v-1483290992","venueChains":[],"hasPerk":false},{"id":"4ba10da2f964a520f19237e3","name":"Dunkin' Donuts","contact":{"phone":"9737732130","formattedPhone":"(973) 773-2130","twitter":"dunkindonuts","facebook":"6979393237","facebookUsername":"DunkinDonutsUS","facebookName":"Dunkin' Donuts"},"location":{"address":"1372 Clifton Ave","lat":40.85324965373645,"lng":-74.17371364420215,"labeledLatLngs":[{"label":"display","lat":40.85324965373645,"lng":-74.17371364420215}],"postalCode":"07012","cc":"US","city":"Clifton","state":"NJ","country":"United States","formattedAddress":["1372 Clifton Ave","Clifton, NJ 07012","United States"]},"categories":[{"id":"4bf58dd8d48988d148941735","name":"Donut Shop","pluralName":"Donut Shops","shortName":"Donuts","icon":{"prefix":"https:\/\/ss3.4sqi.net\/img\/categories_v2\/food\/donuts_","suffix":".png"},"primary":true}],"verified":true,"stats":{"checkinsCount":3523,"usersCount":638,"tipCount":9},"url":"http:\/\/www.dunkindonuts.com","allowMenuUrlEdit":true,"beenHere":{"lastCheckinExpiredAt":0},"specials":{"count":0,"items":[]},"storeId":"345783","referralId":"v-1483290992","venueChains":[{"id":"556f676fbd6a75a99038d8f0"}],"hasPerk":false},{"id":"57e932df498e0d78f49bd4a1","name":"The Barrow House","contact":{},"location":{"address":"1296 Van Houten Ave","lat":40.871621,"lng":-74.172091,"labeledLatLngs":[{"label":"display","lat":40.871621,"lng":-74.172091}],"postalCode":"07013","cc":"US","city":"Clifton","state":"NJ","country":"United States","formattedAddress":["1296 Van Houten Ave","Clifton, NJ 07013","United States"]},"categories":[{"id":"4bf58dd8d48988d157941735","name":"New American Restaurant","pluralName":"New American Restaurants","shortName":"New American","icon":{"prefix":"https:\/\/ss3.4sqi.net\/img\/categories_v2\/food\/newamerican_","suffix":".png"},"primary":true}],"verified":false,"stats":{"checkinsCount":180,"usersCount":109,"tipCount":1},"allowMenuUrlEdit":true,"beenHere":{"lastCheckinExpiredAt":0},"specials":{"count":0,"items":[]},"referralId":"v-1483290992","venueChains":[],"hasPerk":false},{"id":"4bc5325541cb76b0e9243e6f","name":"QuickChek","contact":{"phone":"9732569757","formattedPhone":"(973) 256-9757","twitter":"quickchek"},"location":{"address":"69 E Main St","lat":40.878947689575334,"lng":-74.22190764504771,"labeledLatLngs":[{"label":"display","lat":40.878947689575334,"lng":-74.22190764504771}],"postalCode":"07424","cc":"US","city":"Little Falls","state":"NJ","country":"United States","formattedAddress":["69 E Main St","Little Falls, NJ 07424","United States"]},"categories":[{"id":"4d954b0ea243a5684a65b473","name":"Convenience Store","pluralName":"Convenience Stores","shortName":"Convenience Store","icon":{"prefix":"https:\/\/ss3.4sqi.net\/img\/categories_v2\/shops\/conveniencestore_","suffix":".png"},"primary":true}],"verified":true,"stats":{"checkinsCount":4188,"usersCount":604,"tipCount":12},"url":"https:\/\/www.facebook.com\/Quick.Chek.GetFresh.GoFast","hasMenu":true,"menu":{"type":"Products","label":"Products","anchor":"View Products","url":"https:\/\/foursquare.com\/v\/quickchek\/4bc5325541cb76b0e9243e6f\/menu","mobileUrl":"https:\/\/foursquare.com\/v\/4bc5325541cb76b0e9243e6f\/device_menu"},"allowMenuUrlEdit":true,"beenHere":{"lastCheckinExpiredAt":0},"specials":{"count":0,"items":[]},"storeId":"","referralId":"v-1483290992","venueChains":[{"id":"556f431fbd6a007c77388d9e"}],"hasPerk":false},{"id":"4b5a7630f964a52093c628e3","name":"McDonald's","contact":{"phone":"9732565318","formattedPhone":"(973) 256-5318","twitter":"mcdnytristate"},"location":{"address":"405 US Highway 46","lat":40.872523203381895,"lng":-74.19472932815552,"labeledLatLngs":[{"label":"display","lat":40.872523203381895,"lng":-74.19472932815552}],"postalCode":"07424","cc":"US","city":"Little Falls","state":"NJ","country":"United States","formattedAddress":["405 US Highway 46","Little Falls, NJ 07424","United States"]},"categories":[{"id":"4bf58dd8d48988d16e941735","name":"Fast Food Restaurant","pluralName":"Fast Food Restaurants","shortName":"Fast Food","icon":{"prefix":"https:\/\/ss3.4sqi.net\/img\/categories_v2\/food\/fastfood_","suffix":".png"},"primary":true}],"verified":true,"stats":{"checkinsCount":5246,"usersCount":1680,"tipCount":54},"url":"http:\/\/mcdonalds.com","hasMenu":true,"menu":{"type":"Menu","label":"Menu","anchor":"View Menu","url":"https:\/\/foursquare.com\/v\/mcdonalds\/4b5a7630f964a52093c628e3\/menu","mobileUrl":"https:\/\/foursquare.com\/v\/4b5a7630f964a52093c628e3\/device_menu"},"allowMenuUrlEdit":true,"beenHere":{"lastCheckinExpiredAt":0},"specials":{"count":0,"items":[]},"storeId":"6658","referralId":"v-1483290992","venueChains":[{"id":"556f7a12bd6a75a9903bddb2"}],"hasPerk":false},{"id":"4b49d188f964a520197426e3","name":"Toros Restaurant","contact":{"phone":"9737426877","formattedPhone":"(973) 742-6877"},"location":{"address":"1083 Main St","lat":40.891565,"lng":-74.156382,"labeledLatLngs":[{"label":"display","lat":40.891565,"lng":-74.156382}],"postalCode":"07503","cc":"US","city":"Paterson","state":"NJ","country":"United States","formattedAddress":["1083 Main St","Paterson, NJ 07503","United States"]},"categories":[{"id":"4bf58dd8d48988d1c0941735","name":"Mediterranean Restaurant","pluralName":"Mediterranean Restaurants","shortName":"Mediterranean","icon":{"prefix":"https:\/\/ss3.4sqi.net\/img\/categories_v2\/food\/mediterranean_","suffix":".png"},"primary":true}],"verified":false,"stats":{"checkinsCount":923,"usersCount":460,"tipCount":11},"url":"http:\/\/torosrestaurant.com","hasMenu":true,"menu":{"type":"Menu","label":"Menu","anchor":"View Menu","url":"http:\/\/www.torosrestaurant.com\/our-menu\/","mobileUrl":"http:\/\/www.torosrestaurant.com\/our-menu\/","externalUrl":"http:\/\/www.torosrestaurant.com\/our-menu\/"},"allowMenuUrlEdit":true,"beenHere":{"lastCheckinExpiredAt":0},"specials":{"count":0,"items":[]},"referralId":"v-1483290992","venueChains":[],"hasPerk":false},{"id":"4d06ade828926ea8d5b276c2","name":"Zinburger Wine & Burger Bar","contact":{"phone":"9732721492","formattedPhone":"(973) 272-1492"},"location":{"address":"850 State Rt 3 #105","crossStreet":"Promenade Shops at Clifton","lat":40.838765371828245,"lng":-74.15544033050537,"labeledLatLngs":[{"label":"display","lat":40.838765371828245,"lng":-74.15544033050537}],"postalCode":"07012","cc":"US","city":"Clifton","state":"NJ","country":"United States","formattedAddress":["850 State Rt 3 #105 (Promenade Shops at Clifton)","Clifton, NJ 07012","United States"]},"categories":[{"id":"4bf58dd8d48988d16c941735","name":"Burger Joint","pluralName":"Burger Joints","shortName":"Burgers","icon":{"prefix":"https:\/\/ss3.4sqi.net\/img\/categories_v2\/food\/burger_","suffix":".png"},"primary":true}],"verified":true,"stats":{"checkinsCount":11144,"usersCount":5665,"tipCount":163},"url":"http:\/\/www.zinburgereast.com","hasMenu":true,"menu":{"type":"Menu","label":"Menu","anchor":"View Menu","url":"https:\/\/foursquare.com\/v\/zinburger-wine--burger-bar\/4d06ade828926ea8d5b276c2\/menu","mobileUrl":"https:\/\/foursquare.com\/v\/4d06ade828926ea8d5b276c2\/device_menu"},"allowMenuUrlEdit":true,"beenHere":{"lastCheckinExpiredAt":0},"specials":{"count":0,"items":[]},"storeId":"","referralId":"v-1483290992","venueChains":[],"hasPerk":false},{"id":"4b64737ef964a5202fb42ae3","name":"Park West Diner Cafe","contact":{"phone":"9732562767","formattedPhone":"(973) 256-2767"},"location":{"address":"1400 US Highway 46","lat":40.88429672870857,"lng":-74.21228360881152,"labeledLatLngs":[{"label":"display","lat":40.88429672870857,"lng":-74.21228360881152}],"postalCode":"07424","cc":"US","city":"Little Falls","state":"NJ","country":"United States","formattedAddress":["1400 US Highway 46","Little Falls, NJ 07424","United States"]},"categories":[{"id":"4bf58dd8d48988d147941735","name":"Diner","pluralName":"Diners","shortName":"Diner","icon":{"prefix":"https:\/\/ss3.4sqi.net\/img\/categories_v2\/food\/diner_","suffix":".png"},"primary":true}],"verified":false,"stats":{"checkinsCount":5757,"usersCount":2497,"tipCount":56},"url":"http:\/\/parkwestdiner.com","hasMenu":true,"menu":{"type":"Menu","label":"Menu","anchor":"View Menu","url":"https:\/\/foursquare.com\/v\/park-west-diner-cafe\/4b64737ef964a5202fb42ae3\/menu","mobileUrl":"https:\/\/foursquare.com\/v\/4b64737ef964a5202fb42ae3\/device_menu"},"allowMenuUrlEdit":true,"beenHere":{"lastCheckinExpiredAt":0},"specials":{"count":0,"items":[]},"referralId":"v-1483290992","venueChains":[],"hasPerk":false},{"id":"4b844cfaf964a520662d31e3","name":"Dunkin' Donuts","contact":{"phone":"9738904405","formattedPhone":"(973) 890-4405","twitter":"dunkindonuts","facebook":"6979393237","facebookUsername":"DunkinDonutsUS","facebookName":"Dunkin' Donuts"},"location":{"address":"410 Minnisink Rd","lat":40.89617061391373,"lng":-74.2348726437684,"labeledLatLngs":[{"label":"display","lat":40.89617061391373,"lng":-74.2348726437684}],"postalCode":"07512","cc":"US","city":"Totowa","state":"NJ","country":"United States","formattedAddress":["410 Minnisink Rd","Totowa, NJ 07512","United States"]},"categories":[{"id":"4bf58dd8d48988d148941735","name":"Donut Shop","pluralName":"Donut Shops","shortName":"Donuts","icon":{"prefix":"https:\/\/ss3.4sqi.net\/img\/categories_v2\/food\/donuts_","suffix":".png"},"primary":true}],"verified":true,"stats":{"checkinsCount":6927,"usersCount":1128,"tipCount":13},"url":"http:\/\/www.dunkindonuts.com","allowMenuUrlEdit":true,"beenHere":{"lastCheckinExpiredAt":0},"specials":{"count":0,"items":[]},"storeId":"339775","referralId":"v-1483290992","venueChains":[{"id":"556f676fbd6a75a99038d8f0"}],"hasPerk":false},{"id":"4d07ccf428926ea834387cc2","name":"The Allwood Diner","contact":{"phone":"9733652575","formattedPhone":"(973) 365-2575","twitter":"theallwooddiner"},"location":{"address":"913 Allwood Rd","crossStreet":"at Clifton Ave","lat":40.851706578563224,"lng":-74.17248096970434,"labeledLatLngs":[{"label":"display","lat":40.851706578563224,"lng":-74.17248096970434}],"postalCode":"07012","cc":"US","city":"Clifton","state":"NJ","country":"United States","formattedAddress":["913 Allwood Rd (at Clifton Ave)","Clifton, NJ 07012","United States"]},"categories":[{"id":"4bf58dd8d48988d147941735","name":"Diner","pluralName":"Diners","shortName":"Diner","icon":{"prefix":"https:\/\/ss3.4sqi.net\/img\/categories_v2\/food\/diner_","suffix":".png"},"primary":true}],"verified":false,"stats":{"checkinsCount":4774,"usersCount":1173,"tipCount":47},"url":"http:\/\/www.theallwooddiner.com","hasMenu":true,"menu":{"type":"Menu","label":"Menu","anchor":"View Menu","url":"https:\/\/foursquare.com\/v\/the-allwood-diner\/4d07ccf428926ea834387cc2\/menu","mobileUrl":"https:\/\/foursquare.com\/v\/4d07ccf428926ea834387cc2\/device_menu"},"allowMenuUrlEdit":true,"beenHere":{"lastCheckinExpiredAt":0},"specials":{"count":0,"items":[]},"referralId":"v-1483290992","venueChains":[],"hasPerk":false},{"id":"4c1fdd73d38ec9b6a34e4d83","name":"QuickChek","contact":{"phone":"9734739326","formattedPhone":"(973) 473-9326","twitter":"quickchek"},"location":{"address":"50 Market St","crossStreet":"at Bloomfield Ave","lat":40.8457417222957,"lng":-74.16002763166782,"labeledLatLngs":[{"label":"display","lat":40.8457417222957,"lng":-74.16002763166782}],"postalCode":"07012","cc":"US","city":"Clifton","state":"NJ","country":"United States","formattedAddress":["50 Market St (at Bloomfield Ave)","Clifton, NJ 07012","United States"]},"categories":[{"id":"4d954b0ea243a5684a65b473","name":"Convenience Store","pluralName":"Convenience Stores","shortName":"Convenience Store","icon":{"prefix":"https:\/\/ss3.4sqi.net\/img\/categories_v2\/shops\/conveniencestore_","suffix":".png"},"primary":true}],"verified":false,"stats":{"checkinsCount":2082,"usersCount":324,"tipCount":9},"url":"http:\/\/qchek.com","allowMenuUrlEdit":true,"beenHere":{"lastCheckinExpiredAt":0},"specials":{"count":0,"items":[]},"referralId":"v-1483290992","venueChains":[{"id":"556f431fbd6a007c77388d9e"}],"hasPerk":false},{"id":"4adf54daf964a520847921e3","name":"Holsten's","contact":{"phone":"9733800271","formattedPhone":"(973) 380-0271","facebook":"637115009758994","facebookUsername":"HolstensIceCreamParlor","facebookName":"Holsten's"},"location":{"address":"1063 Broad St","crossStreet":"at Watchung Ave","lat":40.82822875832288,"lng":-74.18665051460266,"labeledLatLngs":[{"label":"display","lat":40.82822875832288,"lng":-74.18665051460266}],"postalCode":"07003","cc":"US","city":"Bloomfield","state":"NJ","country":"United States","formattedAddress":["1063 Broad St (at Watchung Ave)","Bloomfield, NJ 07003","United States"]},"categories":[{"id":"4bf58dd8d48988d16c941735","name":"Burger Joint","pluralName":"Burger Joints","shortName":"Burgers","icon":{"prefix":"https:\/\/ss3.4sqi.net\/img\/categories_v2\/food\/burger_","suffix":".png"},"primary":true}],"verified":true,"stats":{"checkinsCount":3345,"usersCount":1518,"tipCount":40},"url":"http:\/\/www.holstens.com","hasMenu":true,"menu":{"type":"Menu","label":"Menu","anchor":"View Menu","url":"https:\/\/foursquare.com\/v\/holstens\/4adf54daf964a520847921e3\/menu","mobileUrl":"https:\/\/foursquare.com\/v\/4adf54daf964a520847921e3\/device_menu","externalUrl":"http:\/\/www.listingextensions.com\/f43115baa3\/3988073962\/menu"},"allowMenuUrlEdit":true,"beenHere":{"lastCheckinExpiredAt":0},"specials":{"count":0,"items":[]},"venuePage":{"id":"75993114"},"referralId":"v-1483290992","venueChains":[],"hasPerk":false},{"id":"4bfcc988f61dc9b679209ede","name":"QuickChek","contact":{"phone":"9739778430","formattedPhone":"(973) 977-8430","twitter":"QuickChek"},"location":{"address":"381 Valley Rd","lat":40.88575974727705,"lng":-74.17796200842318,"labeledLatLngs":[{"label":"display","lat":40.88575974727705,"lng":-74.17796200842318}],"postalCode":"07013","cc":"US","city":"Clifton","state":"NJ","country":"United States","formattedAddress":["381 Valley Rd","Clifton, NJ 07013","United States"]},"categories":[{"id":"4d954b0ea243a5684a65b473","name":"Convenience Store","pluralName":"Convenience Stores","shortName":"Convenience Store","icon":{"prefix":"https:\/\/ss3.4sqi.net\/img\/categories_v2\/shops\/conveniencestore_","suffix":".png"},"primary":true}],"verified":true,"stats":{"checkinsCount":2923,"usersCount":493,"tipCount":14},"url":"http:\/\/qchek.com","hasMenu":true,"menu":{"type":"Products","label":"Products","anchor":"View Products","url":"https:\/\/foursquare.com\/v\/quickchek\/4bfcc988f61dc9b679209ede\/menu","mobileUrl":"https:\/\/foursquare.com\/v\/4bfcc988f61dc9b679209ede\/device_menu"},"allowMenuUrlEdit":true,"beenHere":{"lastCheckinExpiredAt":0},"specials":{"count":0,"items":[]},"storeId":"","referralId":"v-1483290992","venueChains":[{"id":"556f431fbd6a007c77388d9e"}],"hasPerk":false},{"id":"4ac77916f964a5206db720e3","name":"Six Brothers Diner","contact":{"phone":"9732562510","formattedPhone":"(973) 256-2510"},"location":{"address":"475 US Highway 46","crossStreet":"at Clove Rd.","lat":40.872478791733634,"lng":-74.19559655152355,"labeledLatLngs":[{"label":"display","lat":40.872478791733634,"lng":-74.19559655152355}],"postalCode":"07424","cc":"US","city":"Little Falls","state":"NJ","country":"United States","formattedAddress":["475 US Highway 46 (at Clove Rd.)","Little Falls, NJ 07424","United States"]},"categories":[{"id":"4bf58dd8d48988d147941735","name":"Diner","pluralName":"Diners","shortName":"Diner","icon":{"prefix":"https:\/\/ss3.4sqi.net\/img\/categories_v2\/food\/diner_","suffix":".png"},"primary":true}],"verified":true,"stats":{"checkinsCount":6237,"usersCount":2558,"tipCount":60},"url":"http:\/\/www.sixbrothersdiner.net","allowMenuUrlEdit":true,"beenHere":{"lastCheckinExpiredAt":0},"specials":{"count":0,"items":[]},"storeId":"","referralId":"v-1483290992","venueChains":[],"hasPerk":false},{"id":"4b744d5ef964a520bad32de3","name":"Applebee's","contact":{"phone":"9738120011","formattedPhone":"(973) 812-0011","twitter":"applebees"},"location":{"address":"465 US Route 46 W","lat":40.89547952,"lng":-74.23471779,"labeledLatLngs":[{"label":"display","lat":40.89547952,"lng":-74.23471779}],"postalCode":"07512","cc":"US","city":"Totowa","state":"NJ","country":"United States","formattedAddress":["465 US Route 46 W","Totowa, NJ 07512","United States"]},"categories":[{"id":"4bf58dd8d48988d14e941735","name":"American Restaurant","pluralName":"American Restaurants","shortName":"American","icon":{"prefix":"https:\/\/ss3.4sqi.net\/img\/categories_v2\/food\/default_","suffix":".png"},"primary":true}],"verified":true,"stats":{"checkinsCount":6785,"usersCount":2909,"tipCount":43},"url":"http:\/\/restaurants.applebees.com\/nj\/totowa\/465-rte-46-w.html","allowMenuUrlEdit":true,"beenHere":{"lastCheckinExpiredAt":0},"specials":{"count":0,"items":[]},"referralId":"v-1483290992","venueChains":[{"id":"556e146fa7c82e6b725097e1"}],"hasPerk":false},{"id":"4c32ad67213c2d7fdae2355d","name":"Dunkin Donuts","contact":{"phone":"9739041411","formattedPhone":"(973) 904-1411","twitter":"dunkindonuts","facebook":"6979393237","facebookUsername":"DunkinDonutsUS","facebookName":"Dunkin' Donuts"},"location":{"address":"161 Union Ave","lat":40.91559004096221,"lng":-74.19450160770994,"labeledLatLngs":[{"label":"display","lat":40.91559004096221,"lng":-74.19450160770994}],"postalCode":"07502","cc":"US","city":"Paterson","state":"NJ","country":"United States","formattedAddress":["161 Union Ave","Paterson, NJ 07502","United States"]},"categories":[{"id":"4bf58dd8d48988d148941735","name":"Donut Shop","pluralName":"Donut Shops","shortName":"Donuts","icon":{"prefix":"https:\/\/ss3.4sqi.net\/img\/categories_v2\/food\/donuts_","suffix":".png"},"primary":true}],"verified":true,"stats":{"checkinsCount":1711,"usersCount":205,"tipCount":6},"url":"http:\/\/www.dunkindonuts.com","allowMenuUrlEdit":true,"beenHere":{"lastCheckinExpiredAt":0},"specials":{"count":0,"items":[]},"storeId":"300687","referralId":"v-1483290992","venueChains":[{"id":"556f676fbd6a75a99038d8f0"}],"hasPerk":false},{"id":"4b6cbdeaf964a520d7502ce3","name":"Friendly's","contact":{"phone":"9733388669","formattedPhone":"(973) 338-8669","twitter":"friendlys"},"location":{"address":"1243 Broad St","lat":40.83282070546746,"lng":-74.18079419715328,"labeledLatLngs":[{"label":"display","lat":40.83282070546746,"lng":-74.18079419715328}],"postalCode":"07003","cc":"US","city":"Bloomfield","state":"NJ","country":"United States","formattedAddress":["1243 Broad St","Bloomfield, NJ 07003","United States"]},"categories":[{"id":"4bf58dd8d48988d14e941735","name":"American Restaurant","pluralName":"American Restaurants","shortName":"American","icon":{"prefix":"https:\/\/ss3.4sqi.net\/img\/categories_v2\/food\/default_","suffix":".png"},"primary":true}],"verified":false,"stats":{"checkinsCount":1904,"usersCount":850,"tipCount":15},"url":"http:\/\/friendlys.com","hasMenu":true,"menu":{"type":"Menu","label":"Menu","anchor":"View Menu","url":"https:\/\/foursquare.com\/v\/friendlys\/4b6cbdeaf964a520d7502ce3\/menu","mobileUrl":"https:\/\/foursquare.com\/v\/4b6cbdeaf964a520d7502ce3\/device_menu"},"allowMenuUrlEdit":true,"beenHere":{"lastCheckinExpiredAt":0},"specials":{"count":0,"items":[]},"referralId":"v-1483290992","venueChains":[],"hasPerk":false},{"id":"4b02bf8ef964a520a34922e3","name":"Hot Bagels Abroad","contact":{"phone":"9733389616","formattedPhone":"(973) 338-9616"},"location":{"address":"1129 Broad St","lat":40.82953525274574,"lng":-74.1854953055369,"labeledLatLngs":[{"label":"display","lat":40.82953525274574,"lng":-74.1854953055369}],"postalCode":"07003","cc":"US","city":"Bloomfield","state":"NJ","country":"United States","formattedAddress":["1129 Broad St","Bloomfield, NJ 07003","United States"]},"categories":[{"id":"4bf58dd8d48988d179941735","name":"Bagel Shop","pluralName":"Bagel Shops","shortName":"Bagels","icon":{"prefix":"https:\/\/ss3.4sqi.net\/img\/categories_v2\/food\/bagels_","suffix":".png"},"primary":true}],"verified":false,"stats":{"checkinsCount":3329,"usersCount":662,"tipCount":19},"url":"http:\/\/hotbagelsabroad.net","allowMenuUrlEdit":true,"beenHere":{"lastCheckinExpiredAt":0},"specials":{"count":0,"items":[]},"referralId":"v-1483290992","venueChains":[],"hasPerk":false},{"id":"4c5f110054ac0f472477b221","name":"Taco Bell","contact":{"phone":"9732564008","formattedPhone":"(973) 256-4008","twitter":"tacobell"},"location":{"address":"1173 US Highway 46","lat":40.881226,"lng":-74.208981,"labeledLatLngs":[{"label":"display","lat":40.881226,"lng":-74.208981}],"postalCode":"07424","cc":"US","city":"Little Falls","state":"NJ","country":"United States","formattedAddress":["1173 US Highway 46","Little Falls, NJ 07424","United States"]},"categories":[{"id":"4bf58dd8d48988d1c1941735","name":"Mexican Restaurant","pluralName":"Mexican Restaurants","shortName":"Mexican","icon":{"prefix":"https:\/\/ss3.4sqi.net\/img\/categories_v2\/food\/mexican_","suffix":".png"},"primary":true}],"verified":true,"stats":{"checkinsCount":3229,"usersCount":1267,"tipCount":13},"url":"http:\/\/www.tacobell.com","hasMenu":true,"menu":{"type":"Menu","label":"Menu","anchor":"View Menu","url":"https:\/\/foursquare.com\/v\/taco-bell\/4c5f110054ac0f472477b221\/menu","mobileUrl":"https:\/\/foursquare.com\/v\/4c5f110054ac0f472477b221\/device_menu"},"allowMenuUrlEdit":true,"beenHere":{"lastCheckinExpiredAt":0},"specials":{"count":0,"items":[]},"storeId":"293048","referralId":"v-1483290992","venueChains":[{"id":"556f46f6bd6a007c77390fac"}],"hasPerk":false},{"id":"4b4b3923f964a520d09426e3","name":"McDonald's","contact":{"phone":"9733384641","formattedPhone":"(973) 338-4641"},"location":{"address":"Garden State Parkway","lat":40.836411420089426,"lng":-74.1811466217041,"labeledLatLngs":[{"label":"display","lat":40.836411420089426,"lng":-74.1811466217041}],"postalCode":"07003","cc":"US","city":"Bloomfield","state":"NJ","country":"United States","formattedAddress":["Garden State Parkway","Bloomfield, NJ 07003","United States"]},"categories":[{"id":"4bf58dd8d48988d16e941735","name":"Fast Food Restaurant","pluralName":"Fast Food Restaurants","shortName":"Fast Food","icon":{"prefix":"https:\/\/ss3.4sqi.net\/img\/categories_v2\/food\/fastfood_","suffix":".png"},"primary":true}],"verified":true,"stats":{"checkinsCount":2569,"usersCount":1426,"tipCount":20},"url":"http:\/\/mcdonalds.com","allowMenuUrlEdit":true,"beenHere":{"lastCheckinExpiredAt":0},"specials":{"count":0,"items":[]},"storeId":"6158","referralId":"v-1483290992","venueChains":[{"id":"556f7a12bd6a75a9903bddb2"}],"hasPerk":false},{"id":"4b0e9ae4f964a520e05823e3","name":"Dunkin' Donuts","contact":{"phone":"9734739631","formattedPhone":"(973) 473-9631","twitter":"dunkindonuts","facebook":"6979393237","facebookUsername":"DunkinDonutsUS","facebookName":"Dunkin' Donuts"},"location":{"address":"1053 Bloomfield Ave 22 Styretowne Mall","lat":40.84120527898384,"lng":-74.15902421865839,"labeledLatLngs":[{"label":"display","lat":40.84120527898384,"lng":-74.15902421865839}],"postalCode":"7011","cc":"US","city":"Clifton","state":"NJ","country":"United States","formattedAddress":["1053 Bloomfield Ave 22 Styretowne Mall","Clifton, NJ 7011","United States"]},"categories":[{"id":"4bf58dd8d48988d148941735","name":"Donut Shop","pluralName":"Donut Shops","shortName":"Donuts","icon":{"prefix":"https:\/\/ss3.4sqi.net\/img\/categories_v2\/food\/donuts_","suffix":".png"},"primary":true}],"verified":true,"stats":{"checkinsCount":2478,"usersCount":695,"tipCount":7},"url":"http:\/\/www.dunkindonuts.com","allowMenuUrlEdit":true,"beenHere":{"lastCheckinExpiredAt":0},"specials":{"count":0,"items":[]},"storeId":"310459","referralId":"v-1483290992","venueChains":[{"id":"556f676fbd6a75a99038d8f0"}],"hasPerk":false},{"id":"53fd267c498e230bc1a11a5c","name":"De Novo European Pub","contact":{},"location":{"address":"275 Bellevue Ave","lat":40.84204737832051,"lng":-74.20945763487074,"labeledLatLngs":[{"label":"display","lat":40.84204737832051,"lng":-74.20945763487074}],"postalCode":"07043","cc":"US","city":"Upper Montclair","state":"NJ","country":"United States","formattedAddress":["275 Bellevue Ave","Upper Montclair, NJ 07043","United States"]},"categories":[{"id":"4bf58dd8d48988d1c4941735","name":"Restaurant","pluralName":"Restaurants","shortName":"Restaurant","icon":{"prefix":"https:\/\/ss3.4sqi.net\/img\/categories_v2\/food\/default_","suffix":".png"},"primary":true}],"verified":false,"stats":{"checkinsCount":510,"usersCount":295,"tipCount":7},"url":"http:\/\/denovomontclair.com","allowMenuUrlEdit":true,"beenHere":{"lastCheckinExpiredAt":0},"specials":{"count":0,"items":[]},"referralId":"v-1483290992","venueChains":[],"hasPerk":false},{"id":"561b42bc498ec636c779cadd","name":"Dunkin Donuts","contact":{},"location":{"lat":40.89979038854515,"lng":-74.16088196190609,"labeledLatLngs":[{"label":"display","lat":40.89979038854515,"lng":-74.16088196190609}],"cc":"US","city":"Paterson","state":"NJ","country":"United States","formattedAddress":["Paterson, NJ","United States"]},"categories":[{"id":"4bf58dd8d48988d1e0931735","name":"Coffee Shop","pluralName":"Coffee Shops","shortName":"Coffee Shop","icon":{"prefix":"https:\/\/ss3.4sqi.net\/img\/categories_v2\/food\/coffeeshop_","suffix":".png"},"primary":true}],"verified":false,"stats":{"checkinsCount":150,"usersCount":72,"tipCount":0},"allowMenuUrlEdit":true,"beenHere":{"lastCheckinExpiredAt":0},"specials":{"count":0,"items":[]},"referralId":"v-1483290992","venueChains":[{"id":"556f676fbd6a75a99038d8f0"}],"hasPerk":false},{"id":"4b8312faf964a52001f630e3","name":"The Pie Store","contact":{"phone":"9737444424","formattedPhone":"(973) 744-4424"},"location":{"address":"100 Watchung Ave","lat":40.83083468709918,"lng":-74.20744560673455,"labeledLatLngs":[{"label":"display","lat":40.83083468709918,"lng":-74.20744560673455}],"postalCode":"07043","cc":"US","city":"Montclair","state":"NJ","country":"United States","formattedAddress":["100 Watchung Ave","Montclair, NJ 07043","United States"]},"categories":[{"id":"4bf58dd8d48988d16a941735","name":"Bakery","pluralName":"Bakeries","shortName":"Bakery","icon":{"prefix":"https:\/\/ss3.4sqi.net\/img\/categories_v2\/food\/bakery_","suffix":".png"},"primary":true}],"verified":false,"stats":{"checkinsCount":690,"usersCount":227,"tipCount":21},"url":"http:\/\/www.thepiestorenj.com","hasMenu":true,"menu":{"type":"Menu","label":"Menu","anchor":"View Menu","url":"https:\/\/foursquare.com\/v\/the-pie-store\/4b8312faf964a52001f630e3\/menu","mobileUrl":"https:\/\/foursquare.com\/v\/4b8312faf964a52001f630e3\/device_menu"},"allowMenuUrlEdit":true,"beenHere":{"lastCheckinExpiredAt":0},"specials":{"count":0,"items":[]},"referralId":"v-1483290992","venueChains":[],"hasPerk":false},{"id":"4afd70e5f964a520d42722e3","name":"Sunrise Bagels","contact":{"phone":"9737838500","formattedPhone":"(973) 783-8500"},"location":{"address":"29 Watchung Plz","lat":40.830023282867785,"lng":-74.20629914213681,"labeledLatLngs":[{"label":"display","lat":40.830023282867785,"lng":-74.20629914213681}],"postalCode":"07042","cc":"US","city":"Montclair","state":"NJ","country":"United States","formattedAddress":["29 Watchung Plz","Montclair, NJ 07042","United States"]},"categories":[{"id":"4bf58dd8d48988d179941735","name":"Bagel Shop","pluralName":"Bagel Shops","shortName":"Bagels","icon":{"prefix":"https:\/\/ss3.4sqi.net\/img\/categories_v2\/food\/bagels_","suffix":".png"},"primary":true}],"verified":false,"stats":{"checkinsCount":1572,"usersCount":439,"tipCount":10},"hasMenu":true,"menu":{"type":"Menu","label":"Menu","anchor":"View Menu","url":"https:\/\/foursquare.com\/v\/sunrise-bagels\/4afd70e5f964a520d42722e3\/menu","mobileUrl":"https:\/\/foursquare.com\/v\/4afd70e5f964a520d42722e3\/device_menu"},"allowMenuUrlEdit":true,"beenHere":{"lastCheckinExpiredAt":0},"specials":{"count":0,"items":[]},"referralId":"v-1483290992","venueChains":[],"hasPerk":false},{"id":"4c83dc6851ada1cdd1892910","name":"Dunkin' Donuts","contact":{"phone":"9737853143","formattedPhone":"(973) 785-3143","twitter":"dunkindonuts","facebook":"6979393237","facebookUsername":"DunkinDonutsUS","facebookName":"Dunkin' Donuts"},"location":{"address":"580 US Highway 46","lat":40.894503,"lng":-74.239066,"labeledLatLngs":[{"label":"display","lat":40.894503,"lng":-74.239066}],"postalCode":"07512","cc":"US","city":"Totowa","state":"NJ","country":"United States","formattedAddress":["580 US Highway 46","Totowa, NJ 07512","United States"]},"categories":[{"id":"4bf58dd8d48988d148941735","name":"Donut Shop","pluralName":"Donut Shops","shortName":"Donuts","icon":{"prefix":"https:\/\/ss3.4sqi.net\/img\/categories_v2\/food\/donuts_","suffix":".png"},"primary":true}],"verified":true,"stats":{"checkinsCount":1661,"usersCount":552,"tipCount":6},"url":"http:\/\/www.dunkindonuts.com","allowMenuUrlEdit":true,"beenHere":{"lastCheckinExpiredAt":0},"specials":{"count":0,"items":[]},"storeId":"301653","referralId":"v-1483290992","venueChains":[{"id":"556f676fbd6a75a99038d8f0"}],"hasPerk":false},{"id":"4b3146cdf964a520c20325e3","name":"Chili's Grill & Bar","contact":{"phone":"9737850005","formattedPhone":"(973) 785-0005","twitter":"chilis","facebook":"106027143213","facebookUsername":"Chilis","facebookName":"Chili's Grill & Bar"},"location":{"address":"1165 US Highway 46","crossStreet":"at Browertown Rd","lat":40.881505,"lng":-74.209546,"labeledLatLngs":[{"label":"display","lat":40.881505,"lng":-74.209546}],"postalCode":"07424","cc":"US","city":"Little Falls","state":"NJ","country":"United States","formattedAddress":["1165 US Highway 46 (at Browertown Rd)","Little Falls, NJ 07424","United States"]},"categories":[{"id":"56aa371ae4b08b9a8d5734ba","name":"Tex-Mex Restaurant","pluralName":"Tex-Mex Restaurants","shortName":"Tex-Mex","icon":{"prefix":"https:\/\/ss3.4sqi.net\/img\/categories_v2\/food\/mexican_","suffix":".png"},"primary":true}],"verified":true,"stats":{"checkinsCount":5639,"usersCount":2207,"tipCount":37},"url":"http:\/\/chilis.com","hasMenu":true,"menu":{"type":"Menu","label":"Menu","anchor":"View Menu","url":"https:\/\/foursquare.com\/v\/chilis-grill--bar\/4b3146cdf964a520c20325e3\/menu","mobileUrl":"https:\/\/foursquare.com\/v\/4b3146cdf964a520c20325e3\/device_menu","externalUrl":"http:\/\/www.listingextensions.com\/f43115baa3\/3806670300\/menu"},"allowMenuUrlEdit":true,"beenHere":{"lastCheckinExpiredAt":0},"specials":{"count":0,"items":[]},"storeId":"0010050236","referralId":"v-1483290992","venueChains":[{"id":"556df7e1a7c82e6b724d8229"}],"hasPerk":false},{"id":"4db231b15da3e9788cc01c88","name":"Joe's Crab Shack","contact":{"phone":"9737775114","formattedPhone":"(973) 777-5114","twitter":"joes_crab_shack"},"location":{"address":"405 Allwood Rd","crossStreet":"at Route 3","lat":40.83975562999422,"lng":-74.15629863739014,"labeledLatLngs":[{"label":"display","lat":40.83975562999422,"lng":-74.15629863739014}],"postalCode":"07012","cc":"US","city":"Clifton","state":"NJ","country":"United States","formattedAddress":["405 Allwood Rd (at Route 3)","Clifton, NJ 07012","United States"]},"categories":[{"id":"4bf58dd8d48988d1ce941735","name":"Seafood Restaurant","pluralName":"Seafood Restaurants","shortName":"Seafood","icon":{"prefix":"https:\/\/ss3.4sqi.net\/img\/categories_v2\/food\/seafood_","suffix":".png"},"primary":true}],"verified":true,"stats":{"checkinsCount":9539,"usersCount":5524,"tipCount":112},"url":"http:\/\/www.joes.net","allowMenuUrlEdit":true,"beenHere":{"lastCheckinExpiredAt":0},"specials":{"count":0,"items":[]},"referralId":"v-1483290993","venueChains":[{"id":"556c8d37a7c8a11a36bcc56b"}],"hasPerk":false},{"id":"4ccb016b566aa093a30118fd","name":"Yakamoz","contact":{"phone":"9732470072","formattedPhone":"(973) 247-0072"},"location":{"address":"1095 Main St","lat":40.891162,"lng":-74.156187,"labeledLatLngs":[{"label":"display","lat":40.891162,"lng":-74.156187}],"postalCode":"07503","cc":"US","city":"Paterson","state":"NJ","country":"United States","formattedAddress":["1095 Main St","Paterson, NJ 07503","United States"]},"categories":[{"id":"4f04af1f2fb6e1c99f3db0bb","name":"Turkish Restaurant","pluralName":"Turkish Restaurants","shortName":"Turkish","icon":{"prefix":"https:\/\/ss3.4sqi.net\/img\/categories_v2\/food\/turkish_","suffix":".png"},"primary":true}],"verified":false,"stats":{"checkinsCount":591,"usersCount":300,"tipCount":14},"hasMenu":true,"menu":{"type":"Menu","label":"Menu","anchor":"View Menu","url":"https:\/\/foursquare.com\/v\/yakamoz\/4ccb016b566aa093a30118fd\/menu","mobileUrl":"https:\/\/foursquare.com\/v\/4ccb016b566aa093a30118fd\/device_menu"},"allowMenuUrlEdit":true,"beenHere":{"lastCheckinExpiredAt":0},"specials":{"count":0,"items":[]},"referralId":"v-1483290993","venueChains":[],"hasPerk":false}]}}