{"meta":{"code":200,"requestId":"58693971f594df18aa72b3b2"},"response":{"venues":[{"id":"4aa44f15f964a520534620e3","name":"Cloverleaf Tavern","contact":{"phone":"9732269812","formattedPhone":"(973) 226-9812","twitter":"cloverleafinfo"},"location":{"address":"395 Bloomfield Ave","lat":40.841226547862945,"lng":-74.27858119698433,"labeledLatLngs":[{"label":"display","lat":40.841226547862945,"lng":-74.27858119698433}],"postalCode":"07006","cc":"US","city":"Caldwell","state":"NJ","country":"United States","formattedAddress":["395 Bloomfield Ave","Caldwell, NJ 07006","United States"]},"categories":[{"id":"4bf58dd8d48988d11b941735","name":"Pub","pluralName":"Pubs","shortName":"Pub","icon":{"prefix":"https:\/\/ss3.4sqi.net\/img\/categories_v2\/nightlife\/pub_","suffix":".png"},"primary":true}],"verified":true,"stats":{"checkinsCount":22878,"usersCount":3406,"tipCount":120},"url":"http:\/\/www.cloverleaftavern.com","hasMenu":true,"menu":{"type":"Menu","label":"Menu","anchor":"View Menu","url":"https:\/\/foursquare.com\/v\/cloverleaf-tavern\/4aa44f15f964a520534620e3\/menu","mobileUrl":"https:\/\/foursquare.com\/v\/4aa44f15f964a520534620e3\/device_menu"},"allowMenuUrlEdit":true,"beenHere":{"lastCheckinExpiredAt":0},"specials":{"count":0,"items":[]},"venuePage":{"id":"37982521"},"storeId":"","referralId":"v-1483290993","venueChains":[],"hasPerk":false},{"id":"4bd469e66f6495211b3f6dec","name":"Jose Tejas","contact":{"phone":"9738088201","formattedPhone":"(973) 808-8201"},"location":{"address":"647 US Highway 46","lat":40.891780179087995,"lng":-74.27019596099854,"labeledLatLngs":[{"label":"display","lat":40.891780179087995,"lng":-74.27019596099854}],"postalCode":"07004","cc":"US","city":"Fairfield","state":"NJ","country":"United States","formattedAddress":["647 US Highway 46","Fairfield, NJ 07004","United States"]},"categories":[{"id":"4bf58dd8d48988d1c1941735","name":"Mexican Restaurant","pluralName":"Mexican Restaurants","shortName":"Mexican","icon":{"prefix":"https:\/\/ss3.4sqi.net\/img\/categories_v2\/food\/mexican_","suffix":".png"},"primary":true}],"verified":false,"stats":{"checkinsCount":13230,"usersCount":4766,"tipCount":143},"url":"http:\/\/bordercafe.com","hasMenu":true,"menu":{"type":"Menu","label":"Menu","anchor":"View Menu","url":"https:\/\/foursquare.com\/v\/jose-tejas\/4bd469e66f6495211b3f6dec\/menu","mobileUrl":"https:\/\/foursquare.com\/v\/4bd469e66f6495211b3f6dec\/device_menu"},"allowMenuUrlEdit":true,"beenHere":{"lastCheckinExpiredAt":0},"specials":{"count":0,"items":[]},"referralId":"v-1483290993","venueChains":[],"hasPerk":false},{"id":"54f0dfdb498e7f1416eba8e8","name":"Starbucks","contact":{"phone":"9737850514","formattedPhone":"(973) 785-0514","twitter":"starbucks","facebook":"22092443056","facebookUsername":"Starbucks","facebookName":"Starbucks"},"location":{"address":"57 state route 23","crossStreet":"Willowbrook Blvd","lat":40.88993,"lng":-74.24935,"labeledLatLngs":[{"label":"display","lat":40.88993,"lng":-74.24935}],"postalCode":"07470","cc":"US","city":"Wayne","state":"NJ","country":"United States","formattedAddress":["57 state route 23 (Willowbrook Blvd)","Wayne, NJ 07470","United States"]},"categories":[{"id":"4bf58dd8d48988d1e0931735","name":"Coffee Shop","pluralName":"Coffee Shops","shortName":"Coffee Shop","icon":{"prefix":"https:\/\/ss3.4sqi.net\/img\/categories_v2\/food\/coffeeshop_","suffix":".png"},"primary":true}],"verified":true,"stats":{"checkinsCount":1230,"usersCount":312,"tipCount":10},"url":"http:\/\/www.starbucks.com","allowMenuUrlEdit":true,"beenHere":{"lastCheckinExpiredAt":0},"specials":{"count":0,"items":[]},"storeId":"21295","referralId":"v-1483290993","venueChains":[{"id":"556f676fbd6a75a99038d8ec"}],"hasPerk":false},{"id":"49dfc6e5f964a52011611fe3","name":"The Cheesecake Factory","contact":{"phone":"9738901400","formattedPhone":"(973) 890-1400","twitter":"cheesecake","facebook":"106628409154","facebookUsername":"thecheesecakefactory","facebookName":"The Cheesecake Factory"},"location":{"address":"1700 Willowbrook Mall","lat":40.88902257350515,"lng":-74.2582654953003,"labeledLatLngs":[{"label":"display","lat":40.88902257350515,"lng":-74.2582654953003}],"postalCode":"07470","cc":"US","city":"Wayne","state":"NJ","country":"United States","formattedAddress":["1700 Willowbrook Mall","Wayne, NJ 07470","United States"]},"categories":[{"id":"4bf58dd8d48988d14e941735","name":"American Restaurant","pluralName":"American Restaurants","shortName":"American","icon":{"prefix":"https:\/\/ss3.4sqi.net\/img\/categories_v2\/food\/default_","suffix":".png"},"primary":true}],"verified":true,"stats":{"checkinsCount":11740,"usersCount":5740,"tipCount":68},"url":"http:\/\/www.thecheesecakefactory.com\/","hasMenu":true,"menu":{"type":"Menu","label":"Menu","anchor":"View Menu","url":"https:\/\/foursquare.com\/v\/the-cheesecake-factory\/49dfc6e5f964a52011611fe3\/menu","mobileUrl":"https:\/\/foursquare.com\/v\/49dfc6e5f964a52011611fe3\/device_menu"},"allowMenuUrlEdit":true,"beenHere":{"lastCheckinExpiredAt":0},"specials":{"count":0,"items":[]},"referralId":"v-1483290993","venueChains":[{"id":"556a4b41a7c8957d73d67d96"}],"hasPerk":false},{"id":"4aedde0ff964a520bacf21e3","name":"Starbucks","contact":{"phone":"9738081849","formattedPhone":"(973) 808-1849","twitter":"starbucks","facebook":"22092443056","facebookUsername":"Starbucks","facebookName":"Starbucks"},"location":{"address":"546 Passaic Ave","crossStreet":"at West Caldwell Plaza","lat":40.848909,"lng":-74.296981,"labeledLatLngs":[{"label":"display","lat":40.848909,"lng":-74.296981}],"postalCode":"07006","cc":"US","city":"West Caldwell","state":"NJ","country":"United States","formattedAddress":["546 Passaic Ave (at West Caldwell Plaza)","West Caldwell, NJ 07006","United States"]},"categories":[{"id":"4bf58dd8d48988d1e0931735","name":"Coffee Shop","pluralName":"Coffee Shops","shortName":"Coffee Shop","icon":{"prefix":"https:\/\/ss3.4sqi.net\/img\/categories_v2\/food\/coffeeshop_","suffix":".png"},"primary":true}],"verified":true,"stats":{"checkinsCount":6318,"usersCount":1118,"tipCount":16},"url":"http:\/\/www.starbucks.com\/store\/16217\/","hasMenu":true,"menu":{"type":"Menu","label":"Menu","anchor":"View Menu","url":"http:\/\/www.starbucks.com\/menu","mobileUrl":"http:\/\/www.starbucks.com\/menu","externalUrl":"http:\/\/www.starbucks.com\/menu"},"allowMenuUrlEdit":true,"beenHere":{"lastCheckinExpiredAt":0},"specials":{"count":0,"items":[]},"storeId":"7320","referralId":"v-1483290993","venueChains":[{"id":"556f676fbd6a75a99038d8ec"}],"hasPerk":false},{"id":"4b9e8c06f964a520d0ed36e3","name":"Calandra's Italian Village","contact":{"phone":"9734611308","formattedPhone":"(973) 461-1308"},"location":{"address":"234 Bloomfield Ave","lat":40.836848014390725,"lng":-74.27363607075017,"labeledLatLngs":[{"label":"display","lat":40.836848014390725,"lng":-74.27363607075017}],"postalCode":"07006","cc":"US","city":"Caldwell","state":"NJ","country":"United States","formattedAddress":["234 Bloomfield Ave","Caldwell, NJ 07006","United States"]},"categories":[{"id":"4bf58dd8d48988d110941735","name":"Italian Restaurant","pluralName":"Italian Restaurants","shortName":"Italian","icon":{"prefix":"https:\/\/ss3.4sqi.net\/img\/categories_v2\/food\/italian_","suffix":".png"},"primary":true}],"verified":true,"stats":{"checkinsCount":3718,"usersCount":1602,"tipCount":35},"url":"http:\/\/calandrasitalianvillage.com","hasMenu":true,"menu":{"type":"Menu","label":"Menu","anchor":"View Menu","url":"https:\/\/foursquare.com\/v\/calandras-italian-village\/4b9e8c06f964a520d0ed36e3\/menu","mobileUrl":"https:\/\/foursquare.com\/v\/4b9e8c06f964a520d0ed36e3\/device_menu"},"allowMenuUrlEdit":true,"beenHere":{"lastCheckinExpiredAt":0},"specials":{"count":0,"items":[]},"venuePage":{"id":"88989745"},"referralId":"v-1483290993","venueChains":[],"hasPerk":false},{"id":"4bc630ac04e8b713cb97352d","name":"7-Eleven","contact":{"phone":"9732289411","formattedPhone":"(973) 228-9411","twitter":"7eleven","facebook":"106603712777642","facebookUsername":"7ElevenWestCaldwell11438","facebookName":"7-Eleven"},"location":{"address":"576 Bloomfield Ave","crossStreet":"Lane Ave","lat":40.84554745949929,"lng":-74.28772636476316,"labeledLatLngs":[{"label":"display","lat":40.84554745949929,"lng":-74.28772636476316}],"postalCode":"07006","cc":"US","city":"West Caldwell","state":"NJ","country":"United States","formattedAddress":["576 Bloomfield Ave (Lane Ave)","West Caldwell, NJ 07006","United States"]},"categories":[{"id":"4d954b0ea243a5684a65b473","name":"Convenience Store","pluralName":"Convenience Stores","shortName":"Convenience Store","icon":{"prefix":"https:\/\/ss3.4sqi.net\/img\/categories_v2\/shops\/conveniencestore_","suffix":".png"},"primary":true}],"verified":true,"stats":{"checkinsCount":2908,"usersCount":360,"tipCount":2},"url":"http:\/\/www.7-eleven.com","allowMenuUrlEdit":true,"beenHere":{"lastCheckinExpiredAt":0},"specials":{"count":0,"items":[]},"storeId":"11438","referralId":"v-1483290993","venueChains":[{"id":"556f676fbd6a75a99038d8e9"}],"hasPerk":false},{"id":"4bcb3c65b6c49c7427bb9191","name":"Dunkin' Donuts","contact":{"phone":"9732267772","formattedPhone":"(973) 226-7772","twitter":"dunkindonuts"},"location":{"address":"592 Passaic Ave Unit 10","crossStreet":"Passaic Ave","lat":40.85129935,"lng":-74.29473,"labeledLatLngs":[{"label":"display","lat":40.85129935,"lng":-74.29473}],"postalCode":"07006","cc":"US","city":"West Caldwell","state":"NJ","country":"United States","formattedAddress":["592 Passaic Ave Unit 10 (Passaic Ave)","West Caldwell, NJ 07006","United States"]},"categories":[{"id":"4bf58dd8d48988d148941735","name":"Donut Shop","pluralName":"Donut Shops","shortName":"Donuts","icon":{"prefix":"https:\/\/ss3.4sqi.net\/img\/categories_v2\/food\/donuts_","suffix":".png"},"primary":true}],"verified":true,"stats":{"checkinsCount":2768,"usersCount":555,"tipCount":4},"url":"http:\/\/www.dunkindonuts.com","allowMenuUrlEdit":true,"beenHere":{"lastCheckinExpiredAt":0},"specials":{"count":0,"items":[]},"storeId":"348384","referralId":"v-1483290993","venueChains":[{"id":"556f676fbd6a75a99038d8f0"}],"hasPerk":false},{"id":"4f73a73ce4b02a1c5db0d86a","name":"Verona Inn","contact":{"phone":"9732390544","formattedPhone":"(973) 239-0544"},"location":{"address":"624 Bloomfield Ave","crossStreet":"Gould St","lat":40.83280563618317,"lng":-74.24745847711152,"labeledLatLngs":[{"label":"display","lat":40.83280563618317,"lng":-74.24745847711152}],"postalCode":"07044","cc":"US","city":"Verona","state":"NJ","country":"United States","formattedAddress":["624 Bloomfield Ave (Gould St)","Verona, NJ 07044","United States"]},"categories":[{"id":"4bf58dd8d48988d116941735","name":"Bar","pluralName":"Bars","shortName":"Bar","icon":{"prefix":"https:\/\/ss3.4sqi.net\/img\/categories_v2\/nightlife\/pub_","suffix":".png"},"primary":true}],"verified":true,"stats":{"checkinsCount":3169,"usersCount":1059,"tipCount":19},"url":"http:\/\/veronainn.com","hasMenu":true,"menu":{"type":"Menu","label":"Menu","anchor":"View Menu","url":"https:\/\/foursquare.com\/v\/verona-inn\/4f73a73ce4b02a1c5db0d86a\/menu","mobileUrl":"https:\/\/foursquare.com\/v\/4f73a73ce4b02a1c5db0d86a\/device_menu"},"allowMenuUrlEdit":true,"beenHere":{"lastCheckinExpiredAt":0},"specials":{"count":0,"items":[]},"venuePage":{"id":"67045607"},"referralId":"v-1483290993","venueChains":[],"hasPerk":false},{"id":"5597081a498e6d86ecc9cdad","name":"Mother's Ale House","contact":{"phone":"9736337400","formattedPhone":"(973) 633-7400"},"location":{"address":"95 Mountainview Blvd","lat":40.91465594926542,"lng":-74.26489152146898,"labeledLatLngs":[{"label":"display","lat":40.91465594926542,"lng":-74.26489152146898}],"postalCode":"07470","cc":"US","city":"Wayne","state":"NJ","country":"United States","formattedAddress":["95 Mountainview Blvd","Wayne, NJ 07470","United States"]},"categories":[{"id":"4bf58dd8d48988d155941735","name":"Gastropub","pluralName":"Gastropubs","shortName":"Gastropub","icon":{"prefix":"https:\/\/ss3.4sqi.net\/img\/categories_v2\/food\/gastropub_","suffix":".png"},"primary":true}],"verified":true,"stats":{"checkinsCount":724,"usersCount":390,"tipCount":6},"url":"http:\/\/mothersalehouse.com","menu":{"type":"Menu","label":"Menu","anchor":"View Menu","url":"http:\/\/www.mothersalehouse.com\/menu\/","mobileUrl":"http:\/\/www.mothersalehouse.com\/menu\/","externalUrl":"http:\/\/www.mothersalehouse.com\/menu\/"},"allowMenuUrlEdit":true,"beenHere":{"lastCheckinExpiredAt":0},"specials":{"count":0,"items":[]},"venuePage":{"id":"180570159"},"referralId":"v-1483290993","venueChains":[],"hasPerk":false},{"id":"4b37bd7ef964a5205b4525e3","name":"Chipotle Mexican Grill","contact":{"phone":"9732371390","formattedPhone":"(973) 237-1390","twitter":"chipotletweets"},"location":{"address":"70 Willowbrook Blvd","crossStreet":"80 Route 23 South","lat":40.88860081193033,"lng":-74.25208568572998,"labeledLatLngs":[{"label":"display","lat":40.88860081193033,"lng":-74.25208568572998}],"postalCode":"07470","cc":"US","city":"Wayne","state":"NJ","country":"United States","formattedAddress":["70 Willowbrook Blvd (80 Route 23 South)","Wayne, NJ 07470","United States"]},"categories":[{"id":"4bf58dd8d48988d1c1941735","name":"Mexican Restaurant","pluralName":"Mexican Restaurants","shortName":"Mexican","icon":{"prefix":"https:\/\/ss3.4sqi.net\/img\/categories_v2\/food\/mexican_","suffix":".png"},"primary":true}],"verified":true,"stats":{"checkinsCount":5233,"usersCount":2188,"tipCount":28},"url":"http:\/\/www.chipotle.com","allowMenuUrlEdit":true,"beenHere":{"lastCheckinExpiredAt":0},"specials":{"count":0,"items":[]},"storeId":"747","referralId":"v-1483290993","venueChains":[{"id":"556e0f6fa7c82e6b724f8c82"}],"hasPerk":false},{"id":"4b0c7859f964a520d53d23e3","name":"The Fine Grind","contact":{"phone":"9738370199","formattedPhone":"(973) 837-0199"},"location":{"address":"101 Newark Pompton Tpke","lat":40.88454996852762,"lng":-74.24480497851623,"labeledLatLngs":[{"label":"display","lat":40.88454996852762,"lng":-74.24480497851623}],"postalCode":"07424","cc":"US","city":"Little Falls","state":"NJ","country":"United States","formattedAddress":["101 Newark Pompton Tpke","Little Falls, NJ 07424","United States"]},"categories":[{"id":"4bf58dd8d48988d1e0931735","name":"Coffee Shop","pluralName":"Coffee Shops","shortName":"Coffee Shop","icon":{"prefix":"https:\/\/ss3.4sqi.net\/img\/categories_v2\/food\/coffeeshop_","suffix":".png"},"primary":true}],"verified":true,"stats":{"checkinsCount":3750,"usersCount":1112,"tipCount":50},"url":"http:\/\/www.thefinegrindcoffeebar.com\/","hasMenu":true,"menu":{"type":"Menu","label":"Menu","anchor":"View Menu","url":"https:\/\/foursquare.com\/v\/the-fine-grind\/4b0c7859f964a520d53d23e3\/menu","mobileUrl":"https:\/\/foursquare.com\/v\/4b0c7859f964a520d53d23e3\/device_menu"},"allowMenuUrlEdit":true,"beenHere":{"lastCheckinExpiredAt":0},"specials":{"count":0,"items":[]},"venuePage":{"id":"51213882"},"storeId":"","referralId":"v-1483290993","venueChains":[],"hasPerk":false},{"id":"4be2d43d21d5a593f9631711","name":"McDonald's","contact":{"phone":"9738821251","formattedPhone":"(973) 882-1251"},"location":{"address":"460 US Highway 46","lat":40.88428151885668,"lng":-74.28472373915724,"labeledLatLngs":[{"label":"display","lat":40.88428151885668,"lng":-74.28472373915724}],"postalCode":"07004","cc":"US","city":"Fairfield","state":"NJ","country":"United States","formattedAddress":["460 US Highway 46","Fairfield, NJ 07004","United States"]},"categories":[{"id":"4bf58dd8d48988d16e941735","name":"Fast Food Restaurant","pluralName":"Fast Food Restaurants","shortName":"Fast Food","icon":{"prefix":"https:\/\/ss3.4sqi.net\/img\/categories_v2\/food\/fastfood_","suffix":".png"},"primary":true}],"verified":true,"stats":{"checkinsCount":3039,"usersCount":511,"tipCount":10},"url":"http:\/\/mcdonalds.com","hasMenu":true,"menu":{"type":"Menu","label":"Menu","anchor":"View Menu","url":"https:\/\/foursquare.com\/v\/mcdonalds\/4be2d43d21d5a593f9631711\/menu","mobileUrl":"https:\/\/foursquare.com\/v\/4be2d43d21d5a593f9631711\/device_menu"},"allowMenuUrlEdit":true,"beenHere":{"lastCheckinExpiredAt":0},"specials":{"count":0,"items":[]},"storeId":"10130","referralId":"v-1483290993","venueChains":[{"id":"556f7a12bd6a75a9903bddb2"}],"hasPerk":false},{"id":"536e6907498e6c1fe2b587c7","name":"Panera Bread","contact":{"phone":"9732565014","formattedPhone":"(973) 256-5014","twitter":"panerabread","facebook":"99044554628","facebookUsername":"panerabread","facebookName":"Panera Bread"},"location":{"address":"72 Willowbrook Blvd","lat":40.889007733576214,"lng":-74.25208911255038,"labeledLatLngs":[{"label":"display","lat":40.889007733576214,"lng":-74.25208911255038}],"postalCode":"07470","cc":"US","city":"Wayne","state":"NJ","country":"United States","formattedAddress":["72 Willowbrook Blvd","Wayne, NJ 07470","United States"]},"categories":[{"id":"4bf58dd8d48988d1c5941735","name":"Sandwich Place","pluralName":"Sandwich Places","shortName":"Sandwiches","icon":{"prefix":"https:\/\/ss3.4sqi.net\/img\/categories_v2\/food\/deli_","suffix":".png"},"primary":true}],"verified":false,"stats":{"checkinsCount":710,"usersCount":304,"tipCount":4},"url":"https:\/\/www.panerabread.com\/en-us\/home.html","hasMenu":true,"menu":{"type":"Menu","label":"Menu","anchor":"View Menu","url":"https:\/\/foursquare.com\/v\/panera-bread\/536e6907498e6c1fe2b587c7\/menu","mobileUrl":"https:\/\/foursquare.com\/v\/536e6907498e6c1fe2b587c7\/device_menu","externalUrl":"http:\/\/www.listingextensions.com\/f43115baa3\/2140876254\/menu"},"allowMenuUrlEdit":true,"beenHere":{"lastCheckinExpiredAt":0},"specials":{"count":0,"items":[]},"referralId":"v-1483290993","venueChains":[{"id":"556e0f6fa7c82e6b724f8c8a"}],"hasPerk":false},{"id":"4c79696597028cfaca05dbfe","name":"Willowbrook Mall Food Court","contact":{},"location":{"address":"1400 Willowbrook Mall","crossStreet":"Route 46 East","lat":40.88847726558913,"lng":-74.25994029333793,"labeledLatLngs":[{"label":"display","lat":40.88847726558913,"lng":-74.25994029333793}],"postalCode":"07470","cc":"US","city":"Wayne","state":"NJ","country":"United States","formattedAddress":["1400 Willowbrook Mall (Route 46 East)","Wayne, NJ 07470","United States"]},"categories":[{"id":"4bf58dd8d48988d120951735","name":"Food Court","pluralName":"Food Courts","shortName":"Food Court","icon":{"prefix":"https:\/\/ss3.4sqi.net\/img\/categories_v2\/shops\/food_foodcourt_","suffix":".png"},"primary":true}],"verified":false,"stats":{"checkinsCount":3380,"usersCount":1400,"tipCount":15},"url":"http:\/\/www.willowbrook-mall.com","allowMenuUrlEdit":true,"beenHere":{"lastCheckinExpiredAt":0},"specials":{"count":0,"items":[]},"referralId":"v-1483290993","venueChains":[],"hasPerk":false},{"id":"55ca6bdb498e7ce30aa2c771","name":"Thatcher McGhee's","contact":{},"location":{"lat":40.86713495271726,"lng":-74.28222549142524,"labeledLatLngs":[{"label":"display","lat":40.86713495271726,"lng":-74.28222549142524}],"cc":"US","city":"Fairfield","state":"NJ","country":"United States","formattedAddress":["Fairfield, NJ","United States"]},"categories":[{"id":"52e81612bcbc57f1066b7a06","name":"Irish Pub","pluralName":"Irish Pubs","shortName":"Irish","icon":{"prefix":"https:\/\/ss3.4sqi.net\/img\/categories_v2\/nightlife\/pub_","suffix":".png"},"primary":true}],"verified":false,"stats":{"checkinsCount":429,"usersCount":260,"tipCount":7},"allowMenuUrlEdit":true,"beenHere":{"lastCheckinExpiredAt":0},"specials":{"count":0,"items":[]},"referralId":"v-1483290993","venueChains":[],"hasPerk":false},{"id":"4c0acb2b340720a1761c8793","name":"APlus at Sunoco","contact":{"phone":"9738081124","formattedPhone":"(973) 808-1124","facebook":"119009551516897","facebookUsername":"GoSunoco","facebookName":"GoSunoco"},"location":{"address":"152 Passaic Ave","lat":40.87342991474778,"lng":-74.27796234728552,"labeledLatLngs":[{"label":"display","lat":40.87342991474778,"lng":-74.27796234728552}],"postalCode":"07004","cc":"US","city":"Fairfield","state":"NJ","country":"United States","formattedAddress":["152 Passaic Ave","Fairfield, NJ 07004","United States"]},"categories":[{"id":"4bf58dd8d48988d1e0931735","name":"Coffee Shop","pluralName":"Coffee Shops","shortName":"Coffee Shop","icon":{"prefix":"https:\/\/ss3.4sqi.net\/img\/categories_v2\/food\/coffeeshop_","suffix":".png"},"primary":true}],"verified":true,"stats":{"checkinsCount":2491,"usersCount":207,"tipCount":0},"url":"http:\/\/www.gosunocoaplus.com","allowMenuUrlEdit":true,"beenHere":{"lastCheckinExpiredAt":0},"specials":{"count":0,"items":[]},"storeId":"N_AA_0006939304","referralId":"v-1483290993","venueChains":[{"id":"556cff64aceaff43eb070c58"}],"hasPerk":false},{"id":"4af6ea16f964a520160422e3","name":"The Original Pancake House","contact":{"phone":"9735759161","formattedPhone":"(973) 575-9161"},"location":{"address":"817 Bloomfield Ave","crossStreet":"btwn Passaic & Bloomfield","lat":40.85110195849952,"lng":-74.2969536781311,"labeledLatLngs":[{"label":"display","lat":40.85110195849952,"lng":-74.2969536781311}],"postalCode":"07006","cc":"US","city":"West Caldwell","state":"NJ","country":"United States","formattedAddress":["817 Bloomfield Ave (btwn Passaic & Bloomfield)","West Caldwell, NJ 07006","United States"]},"categories":[{"id":"4bf58dd8d48988d143941735","name":"Breakfast Spot","pluralName":"Breakfast Spots","shortName":"Breakfast","icon":{"prefix":"https:\/\/ss3.4sqi.net\/img\/categories_v2\/food\/breakfast_","suffix":".png"},"primary":true}],"verified":true,"stats":{"checkinsCount":3659,"usersCount":1581,"tipCount":45},"url":"http:\/\/www.originalpancakehouse.com","hasMenu":true,"menu":{"type":"Menu","label":"Menu","anchor":"View Menu","url":"https:\/\/foursquare.com\/v\/the-original-pancake-house\/4af6ea16f964a520160422e3\/menu","mobileUrl":"https:\/\/foursquare.com\/v\/4af6ea16f964a520160422e3\/device_menu"},"allowMenuUrlEdit":true,"beenHere":{"lastCheckinExpiredAt":0},"specials":{"count":0,"items":[]},"referralId":"v-1483290993","venueChains":[{"id":"556e5f94bd6a82902e29da34"}],"hasPerk":false},{"id":"4b523b34f964a520717127e3","name":"Panera Bread","contact":{"phone":"9734390132","formattedPhone":"(973) 439-0132","twitter":"panerabread"},"location":{"address":"804 Bloomfield Ave","lat":40.850009060288045,"lng":-74.29555863183467,"labeledLatLngs":[{"label":"display","lat":40.850009060288045,"lng":-74.29555863183467}],"postalCode":"07006","cc":"US","city":"West Caldwell","state":"NJ","country":"United States","formattedAddress":["804 Bloomfield Ave","West Caldwell, NJ 07006","United States"]},"categories":[{"id":"4bf58dd8d48988d1c5941735","name":"Sandwich Place","pluralName":"Sandwich Places","shortName":"Sandwiches","icon":{"prefix":"https:\/\/ss3.4sqi.net\/img\/categories_v2\/food\/deli_","suffix":".png"},"primary":true}],"verified":true,"stats":{"checkinsCount":4667,"usersCount":1324,"tipCount":19},"url":"http:\/\/www.panerabread.com","hasMenu":true,"menu":{"type":"Menu","label":"Menu","anchor":"View Menu","url":"https:\/\/foursquare.com\/v\/panera-bread\/4b523b34f964a520717127e3\/menu","mobileUrl":"https:\/\/foursquare.com\/v\/4b523b34f964a520717127e3\/device_menu"},"allowMenuUrlEdit":true,"beenHere":{"lastCheckinExpiredAt":0},"specials":{"count":0,"items":[]},"storeId":"1474","referralId":"v-1483290993","venueChains":[{"id":"556e0f6fa7c82e6b724f8c8a"}],"hasPerk":false},{"id":"4baaa5dbf964a520957c3ae3","name":"Hooters","contact":{"phone":"9738371876","formattedPhone":"(973) 837-1876","twitter":"hootersnj"},"location":{"address":"25 State Route 23","lat":40.88872589998272,"lng":-74.24769345029576,"labeledLatLngs":[{"label":"display","lat":40.88872589998272,"lng":-74.24769345029576}],"postalCode":"07470","cc":"US","city":"Wayne","state":"NJ","country":"United States","formattedAddress":["25 State Route 23","Wayne, NJ 07470","United States"]},"categories":[{"id":"4bf58dd8d48988d14c941735","name":"Wings Joint","pluralName":"Wings Joints","shortName":"Wings","icon":{"prefix":"https:\/\/ss3.4sqi.net\/img\/categories_v2\/food\/wings_","suffix":".png"},"primary":true}],"verified":false,"stats":{"checkinsCount":6526,"usersCount":2697,"tipCount":45},"url":"http:\/\/hootersnj.com","hasMenu":true,"menu":{"type":"Menu","label":"Menu","anchor":"View Menu","url":"https:\/\/foursquare.com\/v\/hooters\/4baaa5dbf964a520957c3ae3\/menu","mobileUrl":"https:\/\/foursquare.com\/v\/4baaa5dbf964a520957c3ae3\/device_menu"},"allowMenuUrlEdit":true,"beenHere":{"lastCheckinExpiredAt":0},"specials":{"count":0,"items":[]},"referralId":"v-1483290993","venueChains":[{"id":"556a48c3a7c8957d73d66806"}],"hasPerk":false},{"id":"4b255639f964a520437024e3","name":"Chipotle Mexican Grill","contact":{"phone":"9732266421","formattedPhone":"(973) 226-6421","twitter":"chipotletweets"},"location":{"address":"749 Bloomfield Ave","crossStreet":"at Passaic Ave","lat":40.850200443470825,"lng":-74.2941033215812,"labeledLatLngs":[{"label":"display","lat":40.850200443470825,"lng":-74.2941033215812}],"postalCode":"07006","cc":"US","city":"West Caldwell","state":"NJ","country":"United States","formattedAddress":["749 Bloomfield Ave (at Passaic Ave)","West Caldwell, NJ 07006","United States"]},"categories":[{"id":"4bf58dd8d48988d153941735","name":"Burrito Place","pluralName":"Burrito Places","shortName":"Burritos","icon":{"prefix":"https:\/\/ss3.4sqi.net\/img\/categories_v2\/food\/burrito_","suffix":".png"},"primary":true}],"verified":true,"stats":{"checkinsCount":4178,"usersCount":1021,"tipCount":6},"url":"http:\/\/www.chipotle.com","allowMenuUrlEdit":true,"beenHere":{"lastCheckinExpiredAt":0},"specials":{"count":0,"items":[]},"storeId":"1209","referralId":"v-1483290993","venueChains":[{"id":"556e0f6fa7c82e6b724f8c82"}],"hasPerk":false},{"id":"578ff5e7cd10b0aa924d8d2d","name":"cinar restaurant west caldwell","contact":{},"location":{"lat":40.847121,"lng":-74.290297,"labeledLatLngs":[{"label":"display","lat":40.847121,"lng":-74.290297}],"postalCode":"07006","cc":"US","city":"West Caldwell","state":"NJ","country":"United States","formattedAddress":["West Caldwell, NJ 07006","United States"]},"categories":[{"id":"4f04af1f2fb6e1c99f3db0bb","name":"Turkish Restaurant","pluralName":"Turkish Restaurants","shortName":"Turkish","icon":{"prefix":"https:\/\/ss3.4sqi.net\/img\/categories_v2\/food\/turkish_","suffix":".png"},"primary":true}],"verified":false,"stats":{"checkinsCount":40,"usersCount":25,"tipCount":1},"allowMenuUrlEdit":true,"beenHere":{"lastCheckinExpiredAt":0},"specials":{"count":0,"items":[]},"referralId":"v-1483290993","venueChains":[],"hasPerk":false},{"id":"4af39c2ff964a520eaee21e3","name":"Grasshopper Too","contact":{"phone":"9736969698","formattedPhone":"(973) 696-9698","facebook":"359935132243","facebookUsername":"grasshoppertoo","facebookName":"Grasshopper Too"},"location":{"address":"26 Erie Ave","lat":40.914550242562015,"lng":-74.26748169379017,"labeledLatLngs":[{"label":"display","lat":40.914550242562015,"lng":-74.26748169379017}],"postalCode":"07470","cc":"US","city":"Wayne","state":"NJ","country":"United States","formattedAddress":["26 Erie Ave","Wayne, NJ 07470","United States"]},"categories":[{"id":"4bf58dd8d48988d116941735","name":"Bar","pluralName":"Bars","shortName":"Bar","icon":{"prefix":"https:\/\/ss3.4sqi.net\/img\/categories_v2\/nightlife\/pub_","suffix":".png"},"primary":true}],"verified":true,"stats":{"checkinsCount":2955,"usersCount":1089,"tipCount":12},"url":"http:\/\/www.grasshoppertoo.com","hasMenu":true,"menu":{"type":"Menu","label":"Menu","anchor":"View Menu","url":"https:\/\/foursquare.com\/v\/grasshopper-too\/4af39c2ff964a520eaee21e3\/menu","mobileUrl":"https:\/\/foursquare.com\/v\/4af39c2ff964a520eaee21e3\/device_menu"},"allowMenuUrlEdit":true,"beenHere":{"lastCheckinExpiredAt":0},"specials":{"count":0,"items":[]},"venuePage":{"id":"37746916"},"storeId":"","referralId":"v-1483290993","venueChains":[],"hasPerk":false},{"id":"4b9d1237f964a5200d8d36e3","name":"Houlihan's","contact":{"phone":"9738081300","formattedPhone":"(973) 808-1300","twitter":"houlihans"},"location":{"address":"645 US Highway 46","crossStreet":"2 Bridges Road","lat":40.89135843509042,"lng":-74.2713975906372,"labeledLatLngs":[{"label":"display","lat":40.89135843509042,"lng":-74.2713975906372}],"postalCode":"07004","cc":"US","city":"Fairfield","state":"NJ","country":"United States","formattedAddress":["645 US Highway 46 (2 Bridges Road)","Fairfield, NJ 07004","United States"]},"categories":[{"id":"4bf58dd8d48988d116941735","name":"Bar","pluralName":"Bars","shortName":"Bar","icon":{"prefix":"https:\/\/ss3.4sqi.net\/img\/categories_v2\/nightlife\/pub_","suffix":".png"},"primary":true}],"verified":true,"stats":{"checkinsCount":6237,"usersCount":2352,"tipCount":25},"url":"http:\/\/www.houlihans.com","hasMenu":true,"menu":{"type":"Menu","label":"Menu","anchor":"View Menu","url":"https:\/\/foursquare.com\/v\/houlihans\/4b9d1237f964a5200d8d36e3\/menu","mobileUrl":"https:\/\/foursquare.com\/v\/4b9d1237f964a5200d8d36e3\/device_menu"},"allowMenuUrlEdit":true,"beenHere":{"lastCheckinExpiredAt":0},"specials":{"count":0,"items":[]},"storeId":"","referralId":"v-1483290993","venueChains":[{"id":"556a2b49a7c8957d73d3b630"}],"hasPerk":false},{"id":"4ba9032bf964a52079033ae3","name":"Calandra's Bakery","contact":{"phone":"9732275008","formattedPhone":"(973) 227-5008"},"location":{"address":"244 US Highway 46","lat":40.87535450855642,"lng":-74.29983973503113,"labeledLatLngs":[{"label":"display","lat":40.87535450855642,"lng":-74.29983973503113}],"postalCode":"07004","cc":"US","city":"Fairfield","state":"NJ","country":"United States","formattedAddress":["244 US Highway 46","Fairfield, NJ 07004","United States"]},"categories":[{"id":"4bf58dd8d48988d16a941735","name":"Bakery","pluralName":"Bakeries","shortName":"Bakery","icon":{"prefix":"https:\/\/ss3.4sqi.net\/img\/categories_v2\/food\/bakery_","suffix":".png"},"primary":true}],"verified":false,"stats":{"checkinsCount":1959,"usersCount":904,"tipCount":18},"url":"http:\/\/calandrasbakery.com\/home.html","allowMenuUrlEdit":true,"beenHere":{"lastCheckinExpiredAt":0},"specials":{"count":0,"items":[]},"referralId":"v-1483290993","venueChains":[],"hasPerk":false},{"id":"4c0650a15753c928f8a93af1","name":"Dunkin' Donuts","contact":{"phone":"9732269556","formattedPhone":"(973) 226-9556","twitter":"dunkindonuts","facebook":"6979393237","facebookUsername":"DunkinDonutsUS","facebookName":"Dunkin' Donuts"},"location":{"address":"226 Bloomfield Ave","lat":40.83699703216553,"lng":-74.27273,"labeledLatLngs":[{"label":"display","lat":40.83699703216553,"lng":-74.27273}],"postalCode":"07006","cc":"US","city":"Caldwell","state":"NJ","country":"United States","formattedAddress":["226 Bloomfield Ave","Caldwell, NJ 07006","United States"]},"categories":[{"id":"4bf58dd8d48988d148941735","name":"Donut Shop","pluralName":"Donut Shops","shortName":"Donuts","icon":{"prefix":"https:\/\/ss3.4sqi.net\/img\/categories_v2\/food\/donuts_","suffix":".png"},"primary":true}],"verified":true,"stats":{"checkinsCount":2111,"usersCount":474,"tipCount":9},"url":"http:\/\/www.dunkindonuts.com","allowMenuUrlEdit":true,"beenHere":{"lastCheckinExpiredAt":0},"specials":{"count":0,"items":[]},"storeId":"302556","referralId":"v-1483290993","venueChains":[{"id":"556f676fbd6a75a99038d8f0"}],"hasPerk":false},{"id":"4c6abb42897b1b8d1880b217","name":"Bagelwich Bagels","contact":{"phone":"9734187505","formattedPhone":"(973) 418-7505"},"location":{"address":"652 Bloomfield Ave","crossStreet":"at Grove Ave","lat":40.832969533766295,"lng":-74.24840409906633,"labeledLatLngs":[{"label":"display","lat":40.832969533766295,"lng":-74.24840409906633}],"postalCode":"07044","cc":"US","city":"Verona","state":"NJ","country":"United States","formattedAddress":["652 Bloomfield Ave (at Grove Ave)","Verona, NJ 07044","United States"]},"categories":[{"id":"4bf58dd8d48988d179941735","name":"Bagel Shop","pluralName":"Bagel Shops","shortName":"Bagels","icon":{"prefix":"https:\/\/ss3.4sqi.net\/img\/categories_v2\/food\/bagels_","suffix":".png"},"primary":true}],"verified":false,"stats":{"checkinsCount":918,"usersCount":238,"tipCount":6},"url":"http:\/\/bagelwichverona.com","hasMenu":true,"menu":{"type":"Menu","label":"Menu","anchor":"View Menu","url":"https:\/\/foursquare.com\/v\/bagelwich-bagels\/4c6abb42897b1b8d1880b217\/menu","mobileUrl":"https:\/\/foursquare.com\/v\/4c6abb42897b1b8d1880b217\/device_menu"},"allowMenuUrlEdit":true,"beenHere":{"lastCheckinExpiredAt":0},"specials":{"count":0,"items":[]},"referralId":"v-1483290993","venueChains":[],"hasPerk":false},{"id":"5238ac7f7e4819c68c0a3036","name":"Tilted Kilt Wayne","contact":{"phone":"9738904859","formattedPhone":"(973) 890-4859","twitter":"tiltedkiltpub","facebook":"299401366792799","facebookUsername":"TiltedkiltEB","facebookName":"Tilted Kilt East Brunswick"},"location":{"address":"334 US 46","lat":40.89381992220958,"lng":-74.24538016319275,"labeledLatLngs":[{"label":"display","lat":40.89381992220958,"lng":-74.24538016319275}],"postalCode":"07470","cc":"US","city":"Wayne","state":"NJ","country":"United States","formattedAddress":["334 US 46","Wayne, NJ 07470","United States"]},"categories":[{"id":"4bf58dd8d48988d11b941735","name":"Pub","pluralName":"Pubs","shortName":"Pub","icon":{"prefix":"https:\/\/ss3.4sqi.net\/img\/categories_v2\/nightlife\/pub_","suffix":".png"},"primary":true}],"verified":true,"stats":{"checkinsCount":3102,"usersCount":1107,"tipCount":23},"url":"http:\/\/www.tiltedkilt.com","allowMenuUrlEdit":true,"beenHere":{"lastCheckinExpiredAt":0},"specials":{"count":0,"items":[]},"storeId":"","referralId":"v-1483290993","venueChains":[{"id":"556f44debd6a007c7738d669"}],"hasPerk":false},{"id":"4efa646930f894d86b12ec66","name":"Franklin Steakhouse","contact":{"phone":"9732274499","formattedPhone":"(973) 227-4499"},"location":{"address":"318 Passaic Ave","lat":40.884111583896356,"lng":-74.2717049711101,"labeledLatLngs":[{"label":"display","lat":40.884111583896356,"lng":-74.2717049711101}],"postalCode":"07004","cc":"US","city":"Fairfield","state":"NJ","country":"United States","formattedAddress":["318 Passaic Ave","Fairfield, NJ 07004","United States"]},"categories":[{"id":"4bf58dd8d48988d1cc941735","name":"Steakhouse","pluralName":"Steakhouses","shortName":"Steakhouse","icon":{"prefix":"https:\/\/ss3.4sqi.net\/img\/categories_v2\/food\/steakhouse_","suffix":".png"},"primary":true}],"verified":false,"stats":{"checkinsCount":1902,"usersCount":809,"tipCount":26},"allowMenuUrlEdit":true,"beenHere":{"lastCheckinExpiredAt":0},"specials":{"count":0,"items":[]},"referralId":"v-1483290993","venueChains":[],"hasPerk":false},{"id":"4be5ebf6d4f7c9b697242620","name":"Dunkin' Donuts","contact":{"phone":"9737853070","formattedPhone":"(973) 785-3070","twitter":"dunkindonuts","facebook":"6979393237","facebookUsername":"DunkinDonutsUS","facebookName":"Dunkin' Donuts"},"location":{"address":"510 Main St","crossStreet":"at Route 23","lat":40.885739483052326,"lng":-74.2455328318497,"labeledLatLngs":[{"label":"display","lat":40.885739483052326,"lng":-74.2455328318497}],"postalCode":"07424","cc":"US","city":"Little Falls","state":"NJ","country":"United States","formattedAddress":["510 Main St (at Route 23)","Little Falls, NJ 07424","United States"]},"categories":[{"id":"4bf58dd8d48988d148941735","name":"Donut Shop","pluralName":"Donut Shops","shortName":"Donuts","icon":{"prefix":"https:\/\/ss3.4sqi.net\/img\/categories_v2\/food\/donuts_","suffix":".png"},"primary":true}],"verified":true,"stats":{"checkinsCount":1149,"usersCount":237,"tipCount":6},"url":"http:\/\/www.dunkindonuts.com","allowMenuUrlEdit":true,"beenHere":{"lastCheckinExpiredAt":0},"specials":{"count":0,"items":[]},"storeId":"341161","referralId":"v-1483290993","venueChains":[{"id":"556f676fbd6a75a99038d8f0"}],"hasPerk":false}]}}