{"meta":{"code":200,"requestId":"5869396e1ed21945648e300a"},"response":{"venues":[{"id":"4b42a69ff964a52043d825e3","name":"Whole Foods Market","contact":{"phone":"2012261244","formattedPhone":"(201) 226-1244","twitter":"wfmparamus","facebook":"99245802947","facebookUsername":"WFMParamus","facebookName":"Whole Foods Market"},"location":{"address":"300 Bergen Town Center","crossStreet":"Route 4","lat":40.91416917842188,"lng":-74.05787552175302,"postalCode":"07652","cc":"US","city":"Paramus","state":"NJ","country":"United States","formattedAddress":["300 Bergen Town Center (Route 4)","Paramus, NJ 07652","United States"]},"categories":[{"id":"4bf58dd8d48988d118951735","name":"Grocery Store","pluralName":"Grocery Stores","shortName":"Grocery Store","icon":{"prefix":"https:\/\/ss3.4sqi.net\/img\/categories_v2\/shops\/food_grocery_","suffix":".png"},"primary":true}],"verified":true,"stats":{"checkinsCount":23997,"usersCount":6091,"tipCount":106},"url":"http:\/\/www.wholefoodsmarket.com\/stores\/paramus","allowMenuUrlEdit":true,"beenHere":{"lastCheckinExpiredAt":0},"specials":{"count":0,"items":[]},"storeId":"PAR","referralId":"v-1483290990","venueChains":[{"id":"556cdf5baceaff43eb042df6"}],"hasPerk":false},{"id":"4ae4ecb7f964a520799f21e3","name":"The Cheesecake Factory","contact":{"phone":"2014880330","formattedPhone":"(201) 488-0330","twitter":"cheesecake","facebook":"106628409154","facebookUsername":"thecheesecakefactory","facebookName":"The Cheesecake Factory"},"location":{"address":"197 Riverside Sq Mall","crossStreet":"at Hackensack Ave","lat":40.905680055784266,"lng":-74.0315700387218,"labeledLatLngs":[{"label":"display","lat":40.905680055784266,"lng":-74.0315700387218}],"postalCode":"07601","cc":"US","city":"Hackensack","state":"NJ","country":"United States","formattedAddress":["197 Riverside Sq Mall (at Hackensack Ave)","Hackensack, NJ 07601","United States"]},"categories":[{"id":"4bf58dd8d48988d14e941735","name":"American Restaurant","pluralName":"American Restaurants","shortName":"American","icon":{"prefix":"https:\/\/ss3.4sqi.net\/img\/categories_v2\/food\/default_","suffix":".png"},"primary":true}],"verified":true,"stats":{"checkinsCount":15005,"usersCount":8186,"tipCount":93},"url":"http:\/\/www.thecheesecakefactory.com\/","hasMenu":true,"menu":{"type":"Menu","label":"Menu","anchor":"View Menu","url":"https:\/\/foursquare.com\/v\/the-cheesecake-factory\/4ae4ecb7f964a520799f21e3\/menu","mobileUrl":"https:\/\/foursquare.com\/v\/4ae4ecb7f964a520799f21e3\/device_menu"},"allowMenuUrlEdit":true,"beenHere":{"lastCheckinExpiredAt":0},"specials":{"count":0,"items":[]},"referralId":"v-1483290990","venueChains":[{"id":"556a4b41a7c8957d73d67d96"}],"hasPerk":false},{"id":"4bf17cc970779521be8f3e7c","name":"Dunkin' Donuts","contact":{"phone":"2012428006","formattedPhone":"(201) 242-8006","twitter":"dunkindonuts","facebook":"6979393237","facebookUsername":"DunkinDonutsUS","facebookName":"Dunkin' Donuts"},"location":{"address":"1430 US Highway 46","crossStreet":"at Bergen Blvd.","lat":40.85024171839267,"lng":-73.98588180541992,"labeledLatLngs":[{"label":"display","lat":40.85024171839267,"lng":-73.98588180541992}],"postalCode":"07024","cc":"US","city":"Fort Lee","state":"NJ","country":"United States","formattedAddress":["1430 US Highway 46 (at Bergen Blvd.)","Fort Lee, NJ 07024","United States"]},"categories":[{"id":"4bf58dd8d48988d148941735","name":"Donut Shop","pluralName":"Donut Shops","shortName":"Donuts","icon":{"prefix":"https:\/\/ss3.4sqi.net\/img\/categories_v2\/food\/donuts_","suffix":".png"},"primary":true}],"verified":true,"stats":{"checkinsCount":5412,"usersCount":1118,"tipCount":15},"url":"http:\/\/www.dunkindonuts.com","allowMenuUrlEdit":true,"beenHere":{"lastCheckinExpiredAt":0},"specials":{"count":0,"items":[]},"storeId":"336078","referralId":"v-1483290990","venueChains":[{"id":"556f676fbd6a75a99038d8f0"}],"hasPerk":false},{"id":"4b44c5fef964a520c3fb25e3","name":"Starbucks","contact":{"phone":"2014573323","formattedPhone":"(201) 457-3323","twitter":"starbucks","facebook":"22092443056","facebookUsername":"Starbucks","facebookName":"Starbucks"},"location":{"address":"360 Essex St","crossStreet":"at Alfred N. Sanzari Medical Arts Bldg","lat":40.883847,"lng":-74.058828,"labeledLatLngs":[{"label":"display","lat":40.883847,"lng":-74.058828}],"postalCode":"07601","cc":"US","city":"Hackensack","state":"NJ","country":"United States","formattedAddress":["360 Essex St (at Alfred N. Sanzari Medical Arts Bldg)","Hackensack, NJ 07601","United States"]},"categories":[{"id":"4bf58dd8d48988d1e0931735","name":"Coffee Shop","pluralName":"Coffee Shops","shortName":"Coffee Shop","icon":{"prefix":"https:\/\/ss3.4sqi.net\/img\/categories_v2\/food\/coffeeshop_","suffix":".png"},"primary":true}],"verified":true,"stats":{"checkinsCount":7087,"usersCount":1690,"tipCount":26},"url":"http:\/\/www.starbucks.com\/store\/15307\/","hasMenu":true,"menu":{"type":"Menu","label":"Menu","anchor":"View Menu","url":"http:\/\/www.starbucks.com\/menu","mobileUrl":"http:\/\/www.starbucks.com\/menu","externalUrl":"http:\/\/www.starbucks.com\/menu"},"allowMenuUrlEdit":true,"beenHere":{"lastCheckinExpiredAt":0},"specials":{"count":0,"items":[]},"storeId":"7852","referralId":"v-1483290990","venueChains":[{"id":"556f676fbd6a75a99038d8ec"}],"hasPerk":false},{"id":"4d1bcc79763fb1f7fe7d8566","name":"Han Nam Mart","contact":{"phone":"2012240036","formattedPhone":"(201) 224-0036","twitter":"originalsoupman"},"location":{"address":"1475 Bergen Blvd","lat":40.85154907789832,"lng":-73.98672473457826,"labeledLatLngs":[{"label":"display","lat":40.85154907789832,"lng":-73.98672473457826}],"postalCode":"07024","cc":"US","city":"Fort Lee","state":"NJ","country":"United States","formattedAddress":["1475 Bergen Blvd","Fort Lee, NJ 07024","United States"]},"categories":[{"id":"4bf58dd8d48988d118951735","name":"Grocery Store","pluralName":"Grocery Stores","shortName":"Grocery Store","icon":{"prefix":"https:\/\/ss3.4sqi.net\/img\/categories_v2\/shops\/food_grocery_","suffix":".png"},"primary":true}],"verified":false,"stats":{"checkinsCount":1531,"usersCount":591,"tipCount":6},"allowMenuUrlEdit":true,"beenHere":{"lastCheckinExpiredAt":0},"specials":{"count":0,"items":[]},"referralId":"v-1483290990","venueChains":[],"hasPerk":false},{"id":"5480e64f498ebc7397d9e6da","name":"Miller\u2019s Paramus Alehouse","contact":{"phone":"2013424800","formattedPhone":"(201) 342-4800"},"location":{"address":"270 Route 4 East                                                      ","lat":40.914090107330196,"lng":-74.05006171076442,"labeledLatLngs":[{"label":"display","lat":40.914090107330196,"lng":-74.05006171076442}],"postalCode":"07652","cc":"US","city":"Paramus","state":"NJ","country":"United States","formattedAddress":["270 Route 4 East                                                      ","Paramus, NJ 07652","United States"]},"categories":[{"id":"4bf58dd8d48988d11d941735","name":"Sports Bar","pluralName":"Sports Bars","shortName":"Sports Bar","icon":{"prefix":"https:\/\/ss3.4sqi.net\/img\/categories_v2\/nightlife\/sportsbar_","suffix":".png"},"primary":true}],"verified":true,"stats":{"checkinsCount":13411,"usersCount":4585,"tipCount":97},"url":"http:\/\/www.millersalehouse.com","hasMenu":true,"menu":{"type":"Menu","label":"Menu","anchor":"View Menu","url":"https:\/\/foursquare.com\/v\/millers-paramus-alehouse\/5480e64f498ebc7397d9e6da\/menu","mobileUrl":"https:\/\/foursquare.com\/v\/5480e64f498ebc7397d9e6da\/device_menu"},"allowMenuUrlEdit":true,"beenHere":{"lastCheckinExpiredAt":0},"specials":{"count":0,"items":[]},"storeId":"","referralId":"v-1483290990","venueChains":[{"id":"556a289fa7c8957d73d366f4"}],"hasPerk":false},{"id":"51239ac8e4b05c0c2926e128","name":"QuickChek","contact":{"phone":"2019330982","formattedPhone":"(201) 933-0982","twitter":"quickchek"},"location":{"address":"720 Washington Ave","crossStreet":"Commercial Ave","lat":40.828787146553424,"lng":-74.05542585207952,"labeledLatLngs":[{"label":"display","lat":40.828787146553424,"lng":-74.05542585207952}],"postalCode":"07072","cc":"US","city":"Carlstadt","state":"NJ","country":"United States","formattedAddress":["720 Washington Ave (Commercial Ave)","Carlstadt, NJ 07072","United States"]},"categories":[{"id":"4d954b0ea243a5684a65b473","name":"Convenience Store","pluralName":"Convenience Stores","shortName":"Convenience Store","icon":{"prefix":"https:\/\/ss3.4sqi.net\/img\/categories_v2\/shops\/conveniencestore_","suffix":".png"},"primary":true}],"verified":false,"stats":{"checkinsCount":1816,"usersCount":271,"tipCount":6},"url":"http:\/\/qchek.com","allowMenuUrlEdit":true,"beenHere":{"lastCheckinExpiredAt":0},"specials":{"count":0,"items":[]},"referralId":"v-1483290990","venueChains":[{"id":"556f431fbd6a007c77388d9e"}],"hasPerk":false},{"id":"4b2ebf7cf964a5201ae624e3","name":"Maggiano's Little Italy","contact":{"phone":"2012212030","formattedPhone":"(201) 221-2030","twitter":"maggianos"},"location":{"address":"70 Riverside Sq Mall","crossStreet":"at Hackensack Ave.","lat":40.90741525115617,"lng":-74.03162956237793,"labeledLatLngs":[{"label":"display","lat":40.90741525115617,"lng":-74.03162956237793}],"postalCode":"07601","cc":"US","city":"Hackensack","state":"NJ","country":"United States","formattedAddress":["70 Riverside Sq Mall (at Hackensack Ave.)","Hackensack, NJ 07601","United States"]},"categories":[{"id":"4bf58dd8d48988d110941735","name":"Italian Restaurant","pluralName":"Italian Restaurants","shortName":"Italian","icon":{"prefix":"https:\/\/ss3.4sqi.net\/img\/categories_v2\/food\/italian_","suffix":".png"},"primary":true}],"verified":true,"stats":{"checkinsCount":7451,"usersCount":3666,"tipCount":51},"url":"http:\/\/www.maggianos.com\/locations\/","hasMenu":true,"menu":{"type":"Menu","label":"Menu","anchor":"View Menu","url":"https:\/\/foursquare.com\/v\/maggianos-little-italy\/4b2ebf7cf964a5201ae624e3\/menu","mobileUrl":"https:\/\/foursquare.com\/v\/4b2ebf7cf964a5201ae624e3\/device_menu"},"allowMenuUrlEdit":true,"beenHere":{"lastCheckinExpiredAt":0},"specials":{"count":0,"items":[]},"referralId":"v-1483290990","venueChains":[{"id":"5569fa23a7c8896abe7d3920"}],"hasPerk":false},{"id":"52f3fd3211d28dcde054eb67","name":"Istanbul Borek & Kebab","contact":{"phone":"2019453030","formattedPhone":"(201) 945-3030"},"location":{"address":"360 Lawton Ave","lat":40.827965952899135,"lng":-73.9874880246811,"labeledLatLngs":[{"label":"display","lat":40.827965952899135,"lng":-73.9874880246811}],"postalCode":"07010","cc":"US","city":"Cliffside Park","state":"NJ","country":"United States","formattedAddress":["360 Lawton Ave","Cliffside Park, NJ 07010","United States"]},"categories":[{"id":"4f04af1f2fb6e1c99f3db0bb","name":"Turkish Restaurant","pluralName":"Turkish Restaurants","shortName":"Turkish","icon":{"prefix":"https:\/\/ss3.4sqi.net\/img\/categories_v2\/food\/turkish_","suffix":".png"},"primary":true}],"verified":true,"stats":{"checkinsCount":1108,"usersCount":599,"tipCount":17},"url":"http:\/\/istanbulborek&kebab","allowMenuUrlEdit":true,"beenHere":{"lastCheckinExpiredAt":0},"specials":{"count":0,"items":[]},"venuePage":{"id":"106906291"},"storeId":"","referralId":"v-1483290990","venueChains":[],"hasPerk":false},{"id":"565232a1498e6359dab55b0a","name":"Wawa","contact":{"twitter":"wawa"},"location":{"address":"505 South River Rd","crossStreet":"Moonachie Rd","lat":40.86277129868962,"lng":-74.03618308462593,"labeledLatLngs":[{"label":"display","lat":40.86277129868962,"lng":-74.03618308462593}],"postalCode":"07601","cc":"US","city":"Hackensack","state":"NJ","country":"United States","formattedAddress":["505 South River Rd (Moonachie Rd)","Hackensack, NJ 07601","United States"]},"categories":[{"id":"4d954b0ea243a5684a65b473","name":"Convenience Store","pluralName":"Convenience Stores","shortName":"Convenience Store","icon":{"prefix":"https:\/\/ss3.4sqi.net\/img\/categories_v2\/shops\/conveniencestore_","suffix":".png"},"primary":true}],"verified":false,"stats":{"checkinsCount":528,"usersCount":155,"tipCount":6},"url":"http:\/\/wawa.com","allowMenuUrlEdit":true,"beenHere":{"lastCheckinExpiredAt":0},"specials":{"count":0,"items":[]},"referralId":"v-1483290990","venueChains":[],"hasPerk":false},{"id":"4a8ec7fcf964a5209f1220e3","name":"Houston's","contact":{"phone":"2014885667","formattedPhone":"(201) 488-5667"},"location":{"address":"181 The Shops at Riverside","lat":40.90505225738406,"lng":-74.03150692413445,"labeledLatLngs":[{"label":"display","lat":40.90505225738406,"lng":-74.03150692413445}],"postalCode":"07601","cc":"US","city":"Hackensack","state":"NJ","country":"United States","formattedAddress":["181 The Shops at Riverside","Hackensack, NJ 07601","United States"]},"categories":[{"id":"4bf58dd8d48988d14e941735","name":"American Restaurant","pluralName":"American Restaurants","shortName":"American","icon":{"prefix":"https:\/\/ss3.4sqi.net\/img\/categories_v2\/food\/default_","suffix":".png"},"primary":true}],"verified":true,"stats":{"checkinsCount":7517,"usersCount":3165,"tipCount":85},"url":"http:\/\/www.hillstone.com\/","hasMenu":true,"menu":{"type":"Menu","label":"Menu","anchor":"View Menu","url":"https:\/\/foursquare.com\/v\/houstons\/4a8ec7fcf964a5209f1220e3\/menu","mobileUrl":"https:\/\/foursquare.com\/v\/4a8ec7fcf964a5209f1220e3\/device_menu"},"allowMenuUrlEdit":true,"beenHere":{"lastCheckinExpiredAt":0},"specials":{"count":0,"items":[]},"referralId":"v-1483290990","venueChains":[],"hasPerk":false},{"id":"4b675748f964a52028492be3","name":"Starbucks","contact":{"phone":"2018713212","formattedPhone":"(201) 871-3212","twitter":"starbucks","facebook":"22092443056","facebookUsername":"Starbucks","facebookName":"Starbucks"},"location":{"address":"17 E Palisade Ave","crossStreet":"at N Dean St","lat":40.8936686053356,"lng":-73.97419601329243,"labeledLatLngs":[{"label":"display","lat":40.8936686053356,"lng":-73.97419601329243}],"postalCode":"07631","cc":"US","city":"Englewood","state":"NJ","country":"United States","formattedAddress":["17 E Palisade Ave (at N Dean St)","Englewood, NJ 07631","United States"]},"categories":[{"id":"4bf58dd8d48988d1e0931735","name":"Coffee Shop","pluralName":"Coffee Shops","shortName":"Coffee Shop","icon":{"prefix":"https:\/\/ss3.4sqi.net\/img\/categories_v2\/food\/coffeeshop_","suffix":".png"},"primary":true}],"verified":true,"stats":{"checkinsCount":7440,"usersCount":2161,"tipCount":33},"url":"http:\/\/www.starbucks.com\/store\/11691\/","hasMenu":true,"menu":{"type":"Menu","label":"Menu","anchor":"View Menu","url":"http:\/\/www.starbucks.com\/menu","mobileUrl":"http:\/\/www.starbucks.com\/menu","externalUrl":"http:\/\/www.starbucks.com\/menu"},"allowMenuUrlEdit":true,"beenHere":{"lastCheckinExpiredAt":0},"specials":{"count":0,"items":[]},"storeId":"846","referralId":"v-1483290990","venueChains":[{"id":"556f676fbd6a75a99038d8ec"}],"hasPerk":false},{"id":"58058f6238fa5dcdfcc9564c","name":"BJ's Restaurant and Brewhouse","contact":{"phone":"5513137450","formattedPhone":"(551) 313-7450"},"location":{"address":"21 Teterboro Landing Dr","crossStreet":"Industrial Ave","lat":40.860806,"lng":-74.060835,"labeledLatLngs":[{"label":"display","lat":40.860806,"lng":-74.060835}],"cc":"US","city":"Teterboro","state":"NJ","country":"United States","formattedAddress":["21 Teterboro Landing Dr (Industrial Ave)","Teterboro, NJ","United States"]},"categories":[{"id":"4bf58dd8d48988d14e941735","name":"American Restaurant","pluralName":"American Restaurants","shortName":"American","icon":{"prefix":"https:\/\/ss3.4sqi.net\/img\/categories_v2\/food\/default_","suffix":".png"},"primary":true}],"verified":false,"stats":{"checkinsCount":193,"usersCount":138,"tipCount":1},"allowMenuUrlEdit":true,"beenHere":{"lastCheckinExpiredAt":0},"specials":{"count":0,"items":[]},"referralId":"v-1483290990","venueChains":[{"id":"556a41d7a7c8957d73d5f178"}],"hasPerk":false},{"id":"5543df2c498e6af2ecdcae89","name":"Cafe Leah","contact":{},"location":{"lat":40.846331,"lng":-73.999201,"labeledLatLngs":[{"label":"display","lat":40.846331,"lng":-73.999201}],"cc":"US","city":"Palisades Park","state":"NJ","country":"United States","formattedAddress":["Palisades Park, NJ","United States"]},"categories":[{"id":"4bf58dd8d48988d16d941735","name":"Café","pluralName":"Cafés","shortName":"Café","icon":{"prefix":"https:\/\/ss3.4sqi.net\/img\/categories_v2\/food\/cafe_","suffix":".png"},"primary":true}],"verified":false,"stats":{"checkinsCount":443,"usersCount":293,"tipCount":4},"allowMenuUrlEdit":true,"beenHere":{"lastCheckinExpiredAt":0},"specials":{"count":0,"items":[]},"referralId":"v-1483290990","venueChains":[],"hasPerk":false},{"id":"4af1904ef964a52061e121e3","name":"Starbucks","contact":{"phone":"2013730139","formattedPhone":"(201) 373-0139","twitter":"starbucks","facebook":"22092443056","facebookUsername":"Starbucks","facebookName":"Starbucks"},"location":{"address":"300 Route 46 West","crossStreet":"at Liberty St","lat":40.855263,"lng":-74.043414,"labeledLatLngs":[{"label":"display","lat":40.855263,"lng":-74.043414}],"postalCode":"07643","cc":"US","city":"Little Ferry","state":"NJ","country":"United States","formattedAddress":["300 Route 46 West (at Liberty St)","Little Ferry, NJ 07643","United States"]},"categories":[{"id":"4bf58dd8d48988d1e0931735","name":"Coffee Shop","pluralName":"Coffee Shops","shortName":"Coffee Shop","icon":{"prefix":"https:\/\/ss3.4sqi.net\/img\/categories_v2\/food\/coffeeshop_","suffix":".png"},"primary":true}],"verified":true,"stats":{"checkinsCount":6600,"usersCount":1154,"tipCount":10},"url":"http:\/\/www.starbucks.com\/store\/17427\/","hasMenu":true,"menu":{"type":"Menu","label":"Menu","anchor":"View Menu","url":"http:\/\/www.starbucks.com\/menu","mobileUrl":"http:\/\/www.starbucks.com\/menu","externalUrl":"http:\/\/www.starbucks.com\/menu"},"allowMenuUrlEdit":true,"beenHere":{"lastCheckinExpiredAt":0},"specials":{"count":0,"items":[]},"storeId":"10643","referralId":"v-1483290990","venueChains":[{"id":"556f676fbd6a75a99038d8ec"}],"hasPerk":false},{"id":"4b4228a5f964a520d7cd25e3","name":"Gam Mee Ok","contact":{"phone":"2012421333","formattedPhone":"(201) 242-1333"},"location":{"address":"485 Main St","crossStreet":"Edwin Ave","lat":40.855682954729694,"lng":-73.97738724946976,"labeledLatLngs":[{"label":"display","lat":40.855682954729694,"lng":-73.97738724946976}],"postalCode":"07024","cc":"US","city":"Fort Lee","state":"NJ","country":"United States","formattedAddress":["485 Main St (Edwin Ave)","Fort Lee, NJ 07024","United States"]},"categories":[{"id":"4bf58dd8d48988d113941735","name":"Korean Restaurant","pluralName":"Korean Restaurants","shortName":"Korean","icon":{"prefix":"https:\/\/ss3.4sqi.net\/img\/categories_v2\/food\/korean_","suffix":".png"},"primary":true}],"verified":false,"stats":{"checkinsCount":2560,"usersCount":1272,"tipCount":26},"url":"http:\/\/gammeeok.com\/gammeeok\/contact.php","allowMenuUrlEdit":true,"beenHere":{"lastCheckinExpiredAt":0},"specials":{"count":0,"items":[]},"referralId":"v-1483290990","venueChains":[],"hasPerk":false},{"id":"4b4f2c9ff964a52035fc26e3","name":"Starbucks","contact":{"phone":"2015920765","formattedPhone":"(201) 592-0765","twitter":"starbucks","facebook":"22092443056","facebookUsername":"Starbucks","facebookName":"Starbucks"},"location":{"address":"2215 State Rt 4","lat":40.86380543049129,"lng":-73.97518247365952,"labeledLatLngs":[{"label":"display","lat":40.86380543049129,"lng":-73.97518247365952}],"postalCode":"07024","cc":"US","city":"Fort Lee","state":"NJ","country":"United States","formattedAddress":["2215 State Rt 4","Fort Lee, NJ 07024","United States"]},"categories":[{"id":"4bf58dd8d48988d1e0931735","name":"Coffee Shop","pluralName":"Coffee Shops","shortName":"Coffee Shop","icon":{"prefix":"https:\/\/ss3.4sqi.net\/img\/categories_v2\/food\/coffeeshop_","suffix":".png"},"primary":true}],"verified":true,"stats":{"checkinsCount":4069,"usersCount":1094,"tipCount":10},"url":"http:\/\/www.starbucks.com\/store\/10927\/","hasMenu":true,"menu":{"type":"Menu","label":"Menu","anchor":"View Menu","url":"http:\/\/www.starbucks.com\/menu","mobileUrl":"http:\/\/www.starbucks.com\/menu","externalUrl":"http:\/\/www.starbucks.com\/menu"},"allowMenuUrlEdit":true,"beenHere":{"lastCheckinExpiredAt":0},"specials":{"count":0,"items":[]},"storeId":"14296","referralId":"v-1483290990","venueChains":[{"id":"556f676fbd6a75a99038d8ec"}],"hasPerk":false},{"id":"58603386abc6d60cc3ece8e1","name":"The Dumpling House","contact":{},"location":{"lat":40.904185,"lng":-74.032044,"labeledLatLngs":[{"label":"display","lat":40.904185,"lng":-74.032044}],"cc":"US","city":"Hackensack","state":"NJ","country":"United States","formattedAddress":["Hackensack, NJ","United States"]},"categories":[{"id":"4bf58dd8d48988d108941735","name":"Dumpling Restaurant","pluralName":"Dumpling Restaurants","shortName":"Dumplings","icon":{"prefix":"https:\/\/ss3.4sqi.net\/img\/categories_v2\/food\/dumplings_","suffix":".png"},"primary":true}],"verified":false,"stats":{"checkinsCount":7,"usersCount":7,"tipCount":0},"allowMenuUrlEdit":true,"beenHere":{"lastCheckinExpiredAt":0},"specials":{"count":0,"items":[]},"referralId":"v-1483290990","venueChains":[],"hasPerk":false},{"id":"4f2312186aa3ce55794925ca","name":"QuickChek","contact":{"phone":"2013423086","formattedPhone":"(201) 342-3086","twitter":"quickchek"},"location":{"address":"720-730 Main St","lat":40.90248340451485,"lng":-74.04172547691286,"labeledLatLngs":[{"label":"display","lat":40.90248340451485,"lng":-74.04172547691286}],"postalCode":"07601","cc":"US","city":"Hackensack","state":"NJ","country":"United States","formattedAddress":["720-730 Main St","Hackensack, NJ 07601","United States"]},"categories":[{"id":"4d954b0ea243a5684a65b473","name":"Convenience Store","pluralName":"Convenience Stores","shortName":"Convenience Store","icon":{"prefix":"https:\/\/ss3.4sqi.net\/img\/categories_v2\/shops\/conveniencestore_","suffix":".png"},"primary":true}],"verified":true,"stats":{"checkinsCount":4220,"usersCount":651,"tipCount":16},"url":"https:\/\/www.facebook.com\/Quick.Chek.GetFresh.GoFast","allowMenuUrlEdit":true,"beenHere":{"lastCheckinExpiredAt":0},"specials":{"count":0,"items":[]},"storeId":"","referralId":"v-1483290990","venueChains":[{"id":"556f431fbd6a007c77388d9e"}],"hasPerk":false},{"id":"4b105f42f964a520eb6e23e3","name":"Te Min Quan Chinese Restaurant","contact":{"phone":"2015928993","formattedPhone":"(201) 592-8993"},"location":{"address":"270 Broad Ave","crossStreet":"btw Central & Brinkerhoff","lat":40.8479058905248,"lng":-73.99780649062002,"labeledLatLngs":[{"label":"display","lat":40.8479058905248,"lng":-73.99780649062002}],"postalCode":"07650","cc":"US","city":"Palisades Park","state":"NJ","country":"United States","formattedAddress":["270 Broad Ave (btw Central & Brinkerhoff)","Palisades Park, NJ 07650","United States"]},"categories":[{"id":"4bf58dd8d48988d145941735","name":"Chinese Restaurant","pluralName":"Chinese Restaurants","shortName":"Chinese","icon":{"prefix":"https:\/\/ss3.4sqi.net\/img\/categories_v2\/food\/asian_","suffix":".png"},"primary":true}],"verified":false,"stats":{"checkinsCount":873,"usersCount":474,"tipCount":6},"allowMenuUrlEdit":true,"beenHere":{"lastCheckinExpiredAt":0},"specials":{"count":0,"items":[]},"referralId":"v-1483290990","venueChains":[],"hasPerk":false},{"id":"4bc123d34cdfc9b635409421","name":"Noches de Colombia","contact":{"phone":"2015674940","formattedPhone":"(201) 567-4940"},"location":{"address":"90 W Palisade Ave","lat":40.895987650615055,"lng":-73.97850052174857,"labeledLatLngs":[{"label":"display","lat":40.895987650615055,"lng":-73.97850052174857}],"postalCode":"07631","cc":"US","city":"Englewood","state":"NJ","country":"United States","formattedAddress":["90 W Palisade Ave","Englewood, NJ 07631","United States"]},"categories":[{"id":"4bf58dd8d48988d1cd941735","name":"South American Restaurant","pluralName":"South American Restaurants","shortName":"South American","icon":{"prefix":"https:\/\/ss3.4sqi.net\/img\/categories_v2\/food\/argentinian_","suffix":".png"},"primary":true}],"verified":false,"stats":{"checkinsCount":3644,"usersCount":1494,"tipCount":63},"url":"http:\/\/colombiannights.com","hasMenu":true,"menu":{"type":"Menu","label":"Menu","anchor":"View Menu","url":"https:\/\/foursquare.com\/v\/noches-de-colombia\/4bc123d34cdfc9b635409421\/menu","mobileUrl":"https:\/\/foursquare.com\/v\/4bc123d34cdfc9b635409421\/device_menu"},"allowMenuUrlEdit":true,"beenHere":{"lastCheckinExpiredAt":0},"specials":{"count":0,"items":[]},"referralId":"v-1483290990","venueChains":[],"hasPerk":false},{"id":"4bf3d888370e76b0e672bd4a","name":"McDonald's","contact":{"phone":"2014899216","formattedPhone":"(201) 489-9216"},"location":{"address":"1118 Main St","lat":40.91244610371352,"lng":-74.03474869178378,"labeledLatLngs":[{"label":"display","lat":40.91244610371352,"lng":-74.03474869178378}],"postalCode":"07661","cc":"US","city":"River Edge","state":"NJ","country":"United States","formattedAddress":["1118 Main St","River Edge, NJ 07661","United States"]},"categories":[{"id":"4bf58dd8d48988d16e941735","name":"Fast Food Restaurant","pluralName":"Fast Food Restaurants","shortName":"Fast Food","icon":{"prefix":"https:\/\/ss3.4sqi.net\/img\/categories_v2\/food\/fastfood_","suffix":".png"},"primary":true}],"verified":true,"stats":{"checkinsCount":3030,"usersCount":723,"tipCount":15},"url":"http:\/\/mcdonalds.com","hasMenu":true,"menu":{"type":"Menu","label":"Menu","anchor":"View Menu","url":"https:\/\/foursquare.com\/v\/mcdonalds\/4bf3d888370e76b0e672bd4a\/menu","mobileUrl":"https:\/\/foursquare.com\/v\/4bf3d888370e76b0e672bd4a\/device_menu"},"allowMenuUrlEdit":true,"beenHere":{"lastCheckinExpiredAt":0},"specials":{"count":0,"items":[]},"storeId":"463","referralId":"v-1483290990","venueChains":[{"id":"556f7a12bd6a75a9903bddb2"}],"hasPerk":false},{"id":"56ad32a6498e66c887c196b8","name":"Kang Ho Dong Baekjung","contact":{},"location":{"address":"329 Bergen Blvd","lat":40.843397653810904,"lng":-73.98749376369292,"labeledLatLngs":[{"label":"display","lat":40.843397653810904,"lng":-73.98749376369292}],"postalCode":"07650","cc":"US","city":"Palisades Park","state":"NJ","country":"United States","formattedAddress":["329 Bergen Blvd","Palisades Park, NJ 07650","United States"]},"categories":[{"id":"4bf58dd8d48988d1df931735","name":"BBQ Joint","pluralName":"BBQ Joints","shortName":"BBQ","icon":{"prefix":"https:\/\/ss3.4sqi.net\/img\/categories_v2\/food\/bbqalt_","suffix":".png"},"primary":true}],"verified":false,"stats":{"checkinsCount":421,"usersCount":250,"tipCount":2},"allowMenuUrlEdit":true,"beenHere":{"lastCheckinExpiredAt":0},"specials":{"count":0,"items":[]},"referralId":"v-1483290990","venueChains":[],"hasPerk":false},{"id":"4aeb2125f964a520bdbe21e3","name":"Jerry's Gourmet","contact":{"phone":"2018717108","formattedPhone":"(201) 871-7108","twitter":"jerryshomemade"},"location":{"address":"410 S Dean St","lat":40.88125150997492,"lng":-73.98326980458762,"labeledLatLngs":[{"label":"display","lat":40.88125150997492,"lng":-73.98326980458762}],"postalCode":"07631","cc":"US","city":"Englewood","state":"NJ","country":"United States","formattedAddress":["410 S Dean St","Englewood, NJ 07631","United States"]},"categories":[{"id":"4bf58dd8d48988d110941735","name":"Italian Restaurant","pluralName":"Italian Restaurants","shortName":"Italian","icon":{"prefix":"https:\/\/ss3.4sqi.net\/img\/categories_v2\/food\/italian_","suffix":".png"},"primary":true}],"verified":false,"stats":{"checkinsCount":1346,"usersCount":549,"tipCount":18},"url":"http:\/\/jerryshomemade.com","hasMenu":true,"menu":{"type":"Menu","label":"Menu","anchor":"View Menu","url":"https:\/\/foursquare.com\/v\/jerrys-gourmet\/4aeb2125f964a520bdbe21e3\/menu","mobileUrl":"https:\/\/foursquare.com\/v\/4aeb2125f964a520bdbe21e3\/device_menu"},"allowMenuUrlEdit":true,"beenHere":{"lastCheckinExpiredAt":0},"specials":{"count":0,"items":[]},"referralId":"v-1483290990","venueChains":[],"hasPerk":false},{"id":"4b6d672ff964a5200f752ce3","name":"Arena Diner Restaurant","contact":{"phone":"2013422275","formattedPhone":"(201) 342-2275"},"location":{"address":"250 Essex Street","crossStreet":"Polifly","lat":40.881212544960576,"lng":-74.05435877295538,"labeledLatLngs":[{"label":"display","lat":40.881212544960576,"lng":-74.05435877295538}],"postalCode":"07601","cc":"US","city":"Hackensack","state":"NJ","country":"United States","formattedAddress":["250 Essex Street (Polifly)","Hackensack, NJ 07601","United States"]},"categories":[{"id":"4bf58dd8d48988d147941735","name":"Diner","pluralName":"Diners","shortName":"Diner","icon":{"prefix":"https:\/\/ss3.4sqi.net\/img\/categories_v2\/food\/diner_","suffix":".png"},"primary":true}],"verified":false,"stats":{"checkinsCount":1930,"usersCount":898,"tipCount":25},"allowMenuUrlEdit":true,"beenHere":{"lastCheckinExpiredAt":0},"specials":{"count":0,"items":[]},"referralId":"v-1483290990","venueChains":[],"hasPerk":false},{"id":"572e8c5e498e77d16b70ee75","name":"Aquarius Restaurant","contact":{},"location":{"address":"230-234 Main St","lat":40.85167130164077,"lng":-73.97171083323265,"labeledLatLngs":[{"label":"display","lat":40.85167130164077,"lng":-73.97171083323265}],"postalCode":"07024","cc":"US","city":"Fort Lee","state":"NJ","country":"United States","formattedAddress":["230-234 Main St","Fort Lee, NJ 07024","United States"]},"categories":[{"id":"4bf58dd8d48988d145941735","name":"Chinese Restaurant","pluralName":"Chinese Restaurants","shortName":"Chinese","icon":{"prefix":"https:\/\/ss3.4sqi.net\/img\/categories_v2\/food\/asian_","suffix":".png"},"primary":true}],"verified":false,"stats":{"checkinsCount":163,"usersCount":103,"tipCount":2},"allowMenuUrlEdit":true,"beenHere":{"lastCheckinExpiredAt":0},"specials":{"count":0,"items":[]},"referralId":"v-1483290990","venueChains":[],"hasPerk":false},{"id":"4b0487c7f964a520e95422e3","name":"Bobby's Burger Palace","contact":{"phone":"2013687001","formattedPhone":"(201) 368-7001","twitter":"bobbysburgerpal"},"location":{"address":"610 Bergen Town Ctr","crossStreet":"Route 4 East","lat":40.91505838191921,"lng":-74.059298266183,"labeledLatLngs":[{"label":"display","lat":40.91505838191921,"lng":-74.059298266183}],"postalCode":"07652","cc":"US","city":"Paramus","state":"NJ","country":"United States","formattedAddress":["610 Bergen Town Ctr (Route 4 East)","Paramus, NJ 07652","United States"]},"categories":[{"id":"4bf58dd8d48988d16c941735","name":"Burger Joint","pluralName":"Burger Joints","shortName":"Burgers","icon":{"prefix":"https:\/\/ss3.4sqi.net\/img\/categories_v2\/food\/burger_","suffix":".png"},"primary":true}],"verified":false,"stats":{"checkinsCount":10167,"usersCount":5399,"tipCount":145},"url":"http:\/\/bobbysburgerpalace.com","hasMenu":true,"menu":{"type":"Menu","label":"Menu","anchor":"View Menu","url":"https:\/\/foursquare.com\/v\/bobbys-burger-palace\/4b0487c7f964a520e95422e3\/menu","mobileUrl":"https:\/\/foursquare.com\/v\/4b0487c7f964a520e95422e3\/device_menu"},"allowMenuUrlEdit":true,"beenHere":{"lastCheckinExpiredAt":0},"specials":{"count":0,"items":[]},"referralId":"v-1483290990","venueChains":[],"hasPerk":false},{"id":"4bd33491a8b3a5938f59695f","name":"Donna's Pizza","contact":{"phone":"2019442158","formattedPhone":"(201) 944-2158"},"location":{"address":"404 Broad Ave","lat":40.85011914868067,"lng":-73.99610208820229,"labeledLatLngs":[{"label":"display","lat":40.85011914868067,"lng":-73.99610208820229}],"postalCode":"07650","cc":"US","city":"Palisades Park","state":"NJ","country":"United States","formattedAddress":["404 Broad Ave","Palisades Park, NJ 07650","United States"]},"categories":[{"id":"4bf58dd8d48988d1ca941735","name":"Pizza Place","pluralName":"Pizza Places","shortName":"Pizza","icon":{"prefix":"https:\/\/ss3.4sqi.net\/img\/categories_v2\/food\/pizza_","suffix":".png"},"primary":true}],"verified":false,"stats":{"checkinsCount":859,"usersCount":311,"tipCount":9},"allowMenuUrlEdit":true,"beenHere":{"lastCheckinExpiredAt":0},"specials":{"count":0,"items":[]},"referralId":"v-1483290990","venueChains":[],"hasPerk":false},{"id":"4b6e320cf964a520f0b02ce3","name":"Dunkin' Donuts","contact":{"phone":"2014885219","formattedPhone":"(201) 488-5219","twitter":"dunkindonuts","facebook":"6979393237","facebookUsername":"DunkinDonutsUS","facebookName":"Dunkin' Donuts"},"location":{"address":"25 Hackensack Ave","lat":40.89634164461421,"lng":-74.03893135109729,"labeledLatLngs":[{"label":"display","lat":40.89634164461421,"lng":-74.03893135109729}],"postalCode":"07601","cc":"US","city":"Hackensack","state":"NJ","country":"United States","formattedAddress":["25 Hackensack Ave","Hackensack, NJ 07601","United States"]},"categories":[{"id":"4bf58dd8d48988d148941735","name":"Donut Shop","pluralName":"Donut Shops","shortName":"Donuts","icon":{"prefix":"https:\/\/ss3.4sqi.net\/img\/categories_v2\/food\/donuts_","suffix":".png"},"primary":true}],"verified":true,"stats":{"checkinsCount":3502,"usersCount":874,"tipCount":17},"url":"http:\/\/www.dunkindonuts.com","allowMenuUrlEdit":true,"beenHere":{"lastCheckinExpiredAt":0},"specials":{"count":0,"items":[]},"storeId":"301776","referralId":"v-1483290990","venueChains":[{"id":"556f676fbd6a75a99038d8f0"}],"hasPerk":false},{"id":"57b5039b498e26b1e2712e76","name":"McDonald's","contact":{},"location":{"lat":40.916771,"lng":-73.997372,"labeledLatLngs":[{"label":"display","lat":40.916771,"lng":-73.997372}],"state":"New Jersey","formattedAddress":["New Jersey"]},"categories":[{"id":"4bf58dd8d48988d16e941735","name":"Fast Food Restaurant","pluralName":"Fast Food Restaurants","shortName":"Fast Food","icon":{"prefix":"https:\/\/ss3.4sqi.net\/img\/categories_v2\/food\/fastfood_","suffix":".png"},"primary":true}],"verified":false,"stats":{"checkinsCount":140,"usersCount":44,"tipCount":0},"allowMenuUrlEdit":true,"beenHere":{"lastCheckinExpiredAt":0},"specials":{"count":0,"items":[]},"referralId":"v-1483290990","venueChains":[],"hasPerk":false}]}}