{"meta":{"code":200,"requestId":"586939f01ed21945632314d0"},"response":{"venues":[{"id":"53976081498e0f88a0e7440a","name":"Buena Vida Coffee Club","contact":{"phone":"+4933187093393","formattedPhone":"+49 331 87093393","twitter":"buenavida_pdm","facebook":"148909775297314","facebookUsername":"BuenaVidaCoffeeClub","facebookName":"Buena Vida Coffee Club"},"location":{"address":"Am Bassin 7","lat":52.40070735937387,"lng":13.059188087447712,"labeledLatLngs":[{"label":"display","lat":52.40070735937387,"lng":13.059188087447712}],"postalCode":"14467","cc":"DE","city":"Potsdam","state":"Brandenburg","country":"Germany","formattedAddress":["Am Bassin 7","14467 Potsdam","Germany"]},"categories":[{"id":"4bf58dd8d48988d1e0931735","name":"Coffee Shop","pluralName":"Coffee Shops","shortName":"Coffee Shop","icon":{"prefix":"https:\/\/ss3.4sqi.net\/img\/categories_v2\/food\/coffeeshop_","suffix":".png"},"primary":true}],"verified":true,"stats":{"checkinsCount":321,"usersCount":198,"tipCount":29},"allowMenuUrlEdit":true,"beenHere":{"lastCheckinExpiredAt":0},"specials":{"count":0,"items":[]},"venuePage":{"id":"87929584"},"storeId":"","referralId":"v-1483291120","venueChains":[],"hasPerk":false},{"id":"4b4ec476f964a52031f526e3","name":"Starbucks","contact":{"phone":"+493312019631","formattedPhone":"+49 331 2019631","twitter":"starbucksde","facebook":"216331155420","facebookUsername":"StarbucksDeutschland","facebookName":"Starbucks Deutschland"},"location":{"address":"Brandenburger Str. 28A","crossStreet":"Jägerstr.","lat":52.400559873062065,"lng":13.056100357545384,"labeledLatLngs":[{"label":"display","lat":52.400559873062065,"lng":13.056100357545384}],"cc":"DE","city":"Potsdam","state":"Brandenburg","country":"Germany","formattedAddress":["Brandenburger Str. 28A (Jägerstr.)","Potsdam","Germany"]},"categories":[{"id":"4bf58dd8d48988d1e0931735","name":"Coffee Shop","pluralName":"Coffee Shops","shortName":"Coffee Shop","icon":{"prefix":"https:\/\/ss3.4sqi.net\/img\/categories_v2\/food\/coffeeshop_","suffix":".png"},"primary":true}],"verified":false,"stats":{"checkinsCount":1732,"usersCount":1091,"tipCount":10},"url":"http:\/\/www.starbucks.de","allowMenuUrlEdit":true,"beenHere":{"lastCheckinExpiredAt":0},"specials":{"count":0,"items":[]},"referralId":"v-1483291120","venueChains":[{"id":"556f676fbd6a75a99038d8ec"}],"hasPerk":false},{"id":"4b5020d2f964a520301d27e3","name":"Balzac Coffee","contact":{"phone":"+493312709837","formattedPhone":"+49 331 2709837"},"location":{"address":"Babelsberger Str. 16","lat":52.3923241133723,"lng":13.066885471343994,"labeledLatLngs":[{"label":"display","lat":52.3923241133723,"lng":13.066885471343994}],"postalCode":"14473","cc":"DE","city":"Potsdam","state":"Brandenburg","country":"Germany","formattedAddress":["Babelsberger Str. 16","14473 Potsdam","Germany"]},"categories":[{"id":"4bf58dd8d48988d1e0931735","name":"Coffee Shop","pluralName":"Coffee Shops","shortName":"Coffee Shop","icon":{"prefix":"https:\/\/ss3.4sqi.net\/img\/categories_v2\/food\/coffeeshop_","suffix":".png"},"primary":true}],"verified":false,"stats":{"checkinsCount":2273,"usersCount":438,"tipCount":11},"url":"http:\/\/www.balzaccoffee.com","allowMenuUrlEdit":true,"beenHere":{"lastCheckinExpiredAt":0},"specials":{"count":0,"items":[]},"referralId":"v-1483291120","venueChains":[{"id":"5643a830498e5a40b9b15e5f"}],"hasPerk":false},{"id":"4f9e78bde4b0e868c42be847","name":"Bistro XXL","contact":{},"location":{"lat":52.399894,"lng":13.050439,"labeledLatLngs":[{"label":"display","lat":52.399894,"lng":13.050439}],"cc":"DE","city":"Potsdam","state":"Brandenburg","country":"Germany","formattedAddress":["Potsdam","Germany"]},"categories":[{"id":"4bf58dd8d48988d10b941735","name":"Falafel Restaurant","pluralName":"Falafel Restaurants","shortName":"Falafel","icon":{"prefix":"https:\/\/ss3.4sqi.net\/img\/categories_v2\/food\/falafel_","suffix":".png"},"primary":true}],"verified":false,"stats":{"checkinsCount":155,"usersCount":103,"tipCount":1},"allowMenuUrlEdit":true,"beenHere":{"lastCheckinExpiredAt":0},"specials":{"count":0,"items":[]},"referralId":"v-1483291120","venueChains":[],"hasPerk":false},{"id":"50fc4ad9e4b0b77712f77b6c","name":"Chi keng","contact":{},"location":{"address":"Luisenplatz 3","lat":52.399817766027574,"lng":13.046986889791851,"labeledLatLngs":[{"label":"display","lat":52.399817766027574,"lng":13.046986889791851}],"postalCode":"14471","cc":"DE","city":"Potsdam","state":"Brandenburg","country":"Germany","formattedAddress":["Luisenplatz 3","14471 Potsdam","Germany"]},"categories":[{"id":"4bf58dd8d48988d1d2941735","name":"Sushi Restaurant","pluralName":"Sushi Restaurants","shortName":"Sushi","icon":{"prefix":"https:\/\/ss3.4sqi.net\/img\/categories_v2\/food\/sushi_","suffix":".png"},"primary":true}],"verified":false,"stats":{"checkinsCount":560,"usersCount":281,"tipCount":32},"url":"http:\/\/www.chikeng.de","allowMenuUrlEdit":true,"beenHere":{"lastCheckinExpiredAt":0},"specials":{"count":0,"items":[]},"referralId":"v-1483291120","venueChains":[],"hasPerk":false},{"id":"4b433369f964a520fedc25e3","name":"Café Heider","contact":{"phone":"+493312705596","formattedPhone":"+49 331 2705596"},"location":{"address":"Friedrich-Ebert-Str. 29","lat":52.40317163323693,"lng":13.058114647865295,"labeledLatLngs":[{"label":"display","lat":52.40317163323693,"lng":13.058114647865295}],"postalCode":"14467","cc":"DE","city":"Potsdam","state":"Brandenburg","country":"Germany","formattedAddress":["Friedrich-Ebert-Str. 29","14467 Potsdam","Germany"]},"categories":[{"id":"4bf58dd8d48988d16d941735","name":"Café","pluralName":"Cafés","shortName":"Café","icon":{"prefix":"https:\/\/ss3.4sqi.net\/img\/categories_v2\/food\/cafe_","suffix":".png"},"primary":true}],"verified":false,"stats":{"checkinsCount":770,"usersCount":502,"tipCount":21},"url":"http:\/\/cafeheider.de","allowMenuUrlEdit":true,"beenHere":{"lastCheckinExpiredAt":0},"specials":{"count":0,"items":[]},"referralId":"v-1483291120","venueChains":[],"hasPerk":false},{"id":"4be6c474bcef2d7f2d6c05e5","name":"Café Guam - Das Käsekuchen-Café","contact":{},"location":{"address":"Mittelstr. 39","lat":52.402862,"lng":13.058944,"labeledLatLngs":[{"label":"display","lat":52.402862,"lng":13.058944}],"postalCode":"14467","cc":"DE","city":"Potsdam","state":"Brandenburg","country":"Germany","formattedAddress":["Mittelstr. 39","14467 Potsdam","Germany"]},"categories":[{"id":"4bf58dd8d48988d16d941735","name":"Café","pluralName":"Cafés","shortName":"Café","icon":{"prefix":"https:\/\/ss3.4sqi.net\/img\/categories_v2\/food\/cafe_","suffix":".png"},"primary":true}],"verified":false,"stats":{"checkinsCount":287,"usersCount":224,"tipCount":20},"url":"http:\/\/www.cafe-guam.de\/","allowMenuUrlEdit":true,"beenHere":{"lastCheckinExpiredAt":0},"specials":{"count":0,"items":[]},"referralId":"v-1483291120","venueChains":[],"hasPerk":false},{"id":"4c0a42696071a593a034df32","name":"La Maison du Chocolat","contact":{"phone":"+493312370730","formattedPhone":"+49 331 2370730"},"location":{"address":"Benkertstr. 20","lat":52.40313,"lng":13.060499,"labeledLatLngs":[{"label":"display","lat":52.40313,"lng":13.060499}],"postalCode":"14467","cc":"DE","city":"Potsdam","state":"Brandenburg","country":"Germany","formattedAddress":["Benkertstr. 20","14467 Potsdam","Germany"]},"categories":[{"id":"4bf58dd8d48988d10c941735","name":"French Restaurant","pluralName":"French Restaurants","shortName":"French","icon":{"prefix":"https:\/\/ss3.4sqi.net\/img\/categories_v2\/food\/french_","suffix":".png"},"primary":true}],"verified":false,"stats":{"checkinsCount":376,"usersCount":305,"tipCount":24},"allowMenuUrlEdit":true,"beenHere":{"lastCheckinExpiredAt":0},"specials":{"count":0,"items":[]},"referralId":"v-1483291120","venueChains":[],"hasPerk":false},{"id":"4b598d5df964a520338c28e3","name":"Bistro Tasty","contact":{"phone":"+493317062500","formattedPhone":"+49 331 7062500"},"location":{"address":"August-Bebel-Str. 26-53","lat":52.387813096733325,"lng":13.12130646609146,"labeledLatLngs":[{"label":"display","lat":52.387813096733325,"lng":13.12130646609146}],"postalCode":"14482","cc":"DE","city":"Potsdam","state":"Brandenburg","country":"Germany","formattedAddress":["August-Bebel-Str. 26-53","14482 Potsdam","Germany"]},"categories":[{"id":"52e81612bcbc57f1066b79f1","name":"Bistro","pluralName":"Bistros","shortName":"Bistro","icon":{"prefix":"https:\/\/ss3.4sqi.net\/img\/categories_v2\/food\/default_","suffix":".png"},"primary":true}],"verified":false,"stats":{"checkinsCount":1377,"usersCount":149,"tipCount":7},"url":"http:\/\/www.tasty-babelsberg.de","allowMenuUrlEdit":true,"beenHere":{"lastCheckinExpiredAt":0},"specials":{"count":0,"items":[]},"referralId":"v-1483291120","venueChains":[],"hasPerk":false},{"id":"532add3a498e4f73bd0a0f07","name":"Erfrischungshalle","contact":{"phone":"+491727873052","formattedPhone":"+49 172 7873052"},"location":{"address":"Rudolf-Breitscheid-Str. 201","lat":52.3950476903496,"lng":13.128711414550786,"labeledLatLngs":[{"label":"display","lat":52.3950476903496,"lng":13.128711414550786}],"postalCode":"14482","cc":"DE","city":"Potsdam","state":"Brandenburg","country":"Germany","formattedAddress":["Rudolf-Breitscheid-Str. 201","14482 Potsdam","Germany"]},"categories":[{"id":"4bf58dd8d48988d16d941735","name":"Café","pluralName":"Cafés","shortName":"Café","icon":{"prefix":"https:\/\/ss3.4sqi.net\/img\/categories_v2\/food\/cafe_","suffix":".png"},"primary":true}],"verified":true,"stats":{"checkinsCount":259,"usersCount":52,"tipCount":8},"allowMenuUrlEdit":true,"beenHere":{"lastCheckinExpiredAt":0},"specials":{"count":0,"items":[]},"venuePage":{"id":"150783172"},"referralId":"v-1483291120","venueChains":[],"hasPerk":false},{"id":"4b87b911f964a520b9c831e3","name":"My Keng","contact":{},"location":{"address":"Brandenburger Str","lat":52.400345,"lng":13.054087,"labeledLatLngs":[{"label":"display","lat":52.400345,"lng":13.054087}],"cc":"DE","city":"Potsdam","state":"Brandenburg","country":"Germany","formattedAddress":["Brandenburger Str","Potsdam","Germany"]},"categories":[{"id":"4bf58dd8d48988d1d2941735","name":"Sushi Restaurant","pluralName":"Sushi Restaurants","shortName":"Sushi","icon":{"prefix":"https:\/\/ss3.4sqi.net\/img\/categories_v2\/food\/sushi_","suffix":".png"},"primary":true}],"verified":false,"stats":{"checkinsCount":425,"usersCount":238,"tipCount":21},"allowMenuUrlEdit":true,"beenHere":{"lastCheckinExpiredAt":0},"specials":{"count":0,"items":[]},"referralId":"v-1483291120","venueChains":[],"hasPerk":false},{"id":"4bb37b894019a59382fa37b8","name":"McDonald's","contact":{"twitter":"mcdonaldsdenews","facebook":"296270482587","facebookUsername":"mcd","facebookName":"McDonald's"},"location":{"address":"Fritz-Zubeil-Str. 95","lat":52.376021634605095,"lng":13.111233115196228,"labeledLatLngs":[{"label":"display","lat":52.376021634605095,"lng":13.111233115196228}],"postalCode":"14482","cc":"DE","city":"Potsdam","state":"Brandenburg","country":"Germany","formattedAddress":["Fritz-Zubeil-Str. 95","14482 Potsdam","Germany"]},"categories":[{"id":"4bf58dd8d48988d16e941735","name":"Fast Food Restaurant","pluralName":"Fast Food Restaurants","shortName":"Fast Food","icon":{"prefix":"https:\/\/ss3.4sqi.net\/img\/categories_v2\/food\/fastfood_","suffix":".png"},"primary":true}],"verified":true,"stats":{"checkinsCount":491,"usersCount":184,"tipCount":2},"url":"http:\/\/www.mcdonalds.de","allowMenuUrlEdit":true,"beenHere":{"lastCheckinExpiredAt":0},"specials":{"count":0,"items":[]},"storeId":"1155","referralId":"v-1483291120","venueChains":[{"id":"556f7a12bd6a75a9903bddb2"}],"hasPerk":false},{"id":"55f2ac4d498e02551d952e0e","name":"L'Osteria","contact":{"phone":"+4933160129800","formattedPhone":"+49 331 60129800"},"location":{"address":"Otto-Braun-Platz 1","lat":52.394307903560474,"lng":13.061691641954132,"labeledLatLngs":[{"label":"display","lat":52.394307903560474,"lng":13.061691641954132}],"postalCode":"14467","cc":"DE","city":"Potsdam","state":"Brandenburg","country":"Germany","formattedAddress":["Otto-Braun-Platz 1","14467 Potsdam","Germany"]},"categories":[{"id":"55a5a1ebe4b013909087cb7f","name":"Trattoria\/Osteria","pluralName":"Trattorias\/Osterias","shortName":"Trattoria\/Osteria","icon":{"prefix":"https:\/\/ss3.4sqi.net\/img\/categories_v2\/food\/italian_","suffix":".png"},"primary":true}],"verified":false,"stats":{"checkinsCount":153,"usersCount":99,"tipCount":7},"allowMenuUrlEdit":true,"beenHere":{"lastCheckinExpiredAt":0},"specials":{"count":0,"items":[]},"referralId":"v-1483291120","venueChains":[],"hasPerk":false},{"id":"53d39e45498e4d8e39794ba1","name":"Herr Dang","contact":{},"location":{"address":"Brandenburger Str. 16","lat":52.400112,"lng":13.052393,"labeledLatLngs":[{"label":"display","lat":52.400112,"lng":13.052393}],"postalCode":"14467","cc":"DE","city":"Potsdam","state":"Brandenburg","country":"Germany","formattedAddress":["Brandenburger Str. 16","14467 Potsdam","Germany"]},"categories":[{"id":"4bf58dd8d48988d14a941735","name":"Vietnamese Restaurant","pluralName":"Vietnamese Restaurants","shortName":"Vietnamese","icon":{"prefix":"https:\/\/ss3.4sqi.net\/img\/categories_v2\/food\/vietnamese_","suffix":".png"},"primary":true}],"verified":false,"stats":{"checkinsCount":75,"usersCount":53,"tipCount":3},"allowMenuUrlEdit":true,"beenHere":{"lastCheckinExpiredAt":0},"specials":{"count":0,"items":[]},"referralId":"v-1483291120","venueChains":[],"hasPerk":false},{"id":"4c73f9f866be6dcbf35fbc0f","name":"Eis-Manufaktur","contact":{"phone":"+493317020498","formattedPhone":"+49 331 7020498"},"location":{"address":"Brandenburger Str. 67","lat":52.399754299883966,"lng":13.049375213790444,"labeledLatLngs":[{"label":"display","lat":52.399754299883966,"lng":13.049375213790444}],"postalCode":"14467","cc":"DE","city":"Potsdam","state":"Brandenburg","country":"Germany","formattedAddress":["Brandenburger Str. 67","14467 Potsdam","Germany"]},"categories":[{"id":"4bf58dd8d48988d1c9941735","name":"Ice Cream Shop","pluralName":"Ice Cream Shops","shortName":"Ice Cream","icon":{"prefix":"https:\/\/ss3.4sqi.net\/img\/categories_v2\/food\/icecream_","suffix":".png"},"primary":true}],"verified":false,"stats":{"checkinsCount":373,"usersCount":249,"tipCount":8},"url":"http:\/\/www.potsdam-abc.de\/verzeichnis\/visitenkarte.php?mandat=17437","allowMenuUrlEdit":true,"beenHere":{"lastCheckinExpiredAt":0},"specials":{"count":0,"items":[]},"referralId":"v-1483291120","venueChains":[],"hasPerk":false},{"id":"4b24b659f964a5208e6924e3","name":"Bäckerei & Konditorei Fahland","contact":{"phone":"+49331719127","formattedPhone":"+49 331 719127"},"location":{"address":"Karl-Liebknecht-Str. 21","lat":52.39412906028548,"lng":13.09299168325823,"labeledLatLngs":[{"label":"display","lat":52.39412906028548,"lng":13.09299168325823}],"postalCode":"14482","cc":"DE","city":"Potsdam","state":"Brandenburg","country":"Germany","formattedAddress":["Karl-Liebknecht-Str. 21","14482 Potsdam","Germany"]},"categories":[{"id":"4bf58dd8d48988d16a941735","name":"Bakery","pluralName":"Bakeries","shortName":"Bakery","icon":{"prefix":"https:\/\/ss3.4sqi.net\/img\/categories_v2\/food\/bakery_","suffix":".png"},"primary":true}],"verified":false,"stats":{"checkinsCount":466,"usersCount":50,"tipCount":5},"allowMenuUrlEdit":true,"beenHere":{"lastCheckinExpiredAt":0},"specials":{"count":0,"items":[]},"referralId":"v-1483291120","venueChains":[],"hasPerk":false},{"id":"55d874b1498eed8814742e4f","name":"Café Extrablatt","contact":{},"location":{"address":"Brandenburger Straße","lat":52.400382239623546,"lng":13.055352969804959,"labeledLatLngs":[{"label":"display","lat":52.400382239623546,"lng":13.055352969804959}],"cc":"DE","city":"Potsdam","state":"Brandenburg","country":"Germany","formattedAddress":["Brandenburger Straße","Potsdam","Germany"]},"categories":[{"id":"4bf58dd8d48988d16d941735","name":"Café","pluralName":"Cafés","shortName":"Café","icon":{"prefix":"https:\/\/ss3.4sqi.net\/img\/categories_v2\/food\/cafe_","suffix":".png"},"primary":true}],"verified":false,"stats":{"checkinsCount":124,"usersCount":101,"tipCount":2},"allowMenuUrlEdit":true,"beenHere":{"lastCheckinExpiredAt":0},"specials":{"count":0,"items":[]},"referralId":"v-1483291120","venueChains":[],"hasPerk":false},{"id":"4e25cd0918388c58be2febf3","name":"Potsdamer Grillstube","contact":{},"location":{"lat":52.39496754295877,"lng":13.039429188327688,"labeledLatLngs":[{"label":"display","lat":52.39496754295877,"lng":13.039429188327688}],"cc":"DE","city":"Potsdam","state":"Brandenburg","country":"Germany","formattedAddress":["Potsdam","Germany"]},"categories":[{"id":"4bf58dd8d48988d147941735","name":"Diner","pluralName":"Diners","shortName":"Diner","icon":{"prefix":"https:\/\/ss3.4sqi.net\/img\/categories_v2\/food\/diner_","suffix":".png"},"primary":true}],"verified":false,"stats":{"checkinsCount":99,"usersCount":30,"tipCount":2},"allowMenuUrlEdit":true,"beenHere":{"lastCheckinExpiredAt":0},"specials":{"count":0,"items":[]},"referralId":"v-1483291120","venueChains":[],"hasPerk":false},{"id":"56eb06d9498e64058fbf133f","name":"Peter Pane","contact":{},"location":{"address":"Humbdtstr. 1","lat":52.39438073192803,"lng":13.061419610818659,"labeledLatLngs":[{"label":"display","lat":52.39438073192803,"lng":13.061419610818659}],"cc":"DE","city":"Potsdam","state":"Brandenburg","country":"Germany","formattedAddress":["Humbdtstr. 1","Potsdam","Germany"]},"categories":[{"id":"4bf58dd8d48988d16c941735","name":"Burger Joint","pluralName":"Burger Joints","shortName":"Burgers","icon":{"prefix":"https:\/\/ss3.4sqi.net\/img\/categories_v2\/food\/burger_","suffix":".png"},"primary":true}],"verified":false,"stats":{"checkinsCount":85,"usersCount":64,"tipCount":6},"allowMenuUrlEdit":true,"beenHere":{"lastCheckinExpiredAt":0},"specials":{"count":0,"items":[]},"referralId":"v-1483291120","venueChains":[],"hasPerk":false},{"id":"4be122c10365c9b6a1ffb238","name":"Mercure Hotel Potsdam City","contact":{"phone":"+493312722","formattedPhone":"+49 331 2722","twitter":"eventhotels","facebook":"684958214882914","facebookUsername":"mercurehotelpotsdamcity","facebookName":"Mercure Hotel Potsdam City"},"location":{"address":"Lange Brücke","lat":52.39375139867738,"lng":13.059825897216797,"labeledLatLngs":[{"label":"display","lat":52.39375139867738,"lng":13.059825897216797}],"postalCode":"14467","cc":"DE","city":"Potsdam","state":"Brandenburg","country":"Germany","formattedAddress":["Lange Brücke","14467 Potsdam","Germany"]},"categories":[{"id":"4bf58dd8d48988d1fa931735","name":"Hotel","pluralName":"Hotels","shortName":"Hotel","icon":{"prefix":"https:\/\/ss3.4sqi.net\/img\/categories_v2\/travel\/hotel_","suffix":".png"},"primary":true}],"verified":true,"stats":{"checkinsCount":691,"usersCount":273,"tipCount":7},"url":"http:\/\/www.mercure-hotel-potsdam.de","menu":{"type":"Prices","label":"Prices","anchor":"View Prices","url":"http:\/\/www.mercure-hotel-potsdam.de\/restaurant\/","mobileUrl":"http:\/\/www.mercure-hotel-potsdam.de\/restaurant\/","externalUrl":"http:\/\/www.mercure-hotel-potsdam.de\/restaurant\/"},"allowMenuUrlEdit":true,"beenHere":{"lastCheckinExpiredAt":0},"specials":{"count":0,"items":[]},"storeId":"MHPC","referralId":"v-1483291120","venueChains":[{"id":"5569f417a7c8896abe7c7698"}],"hasPerk":false},{"id":"51f42e41498e0568cf57d8a2","name":"Al Dente","contact":{"phone":"+4933197992800","formattedPhone":"+49 331 97992800","facebook":"473301326054389","facebookName":"Al Dente"},"location":{"address":"Alt Nowawes 34","lat":52.39425032012363,"lng":13.086532352906975,"labeledLatLngs":[{"label":"display","lat":52.39425032012363,"lng":13.086532352906975}],"postalCode":"14482","cc":"DE","city":"Potsdam","state":"Brandenburg","country":"Germany","formattedAddress":["Alt Nowawes 34","14482 Potsdam","Germany"]},"categories":[{"id":"55a5a1ebe4b013909087cb7f","name":"Trattoria\/Osteria","pluralName":"Trattorias\/Osterias","shortName":"Trattoria\/Osteria","icon":{"prefix":"https:\/\/ss3.4sqi.net\/img\/categories_v2\/food\/italian_","suffix":".png"},"primary":true}],"verified":false,"stats":{"checkinsCount":100,"usersCount":50,"tipCount":3},"url":"http:\/\/www.al-dente-potsdam.de","allowMenuUrlEdit":true,"beenHere":{"lastCheckinExpiredAt":0},"specials":{"count":0,"items":[]},"referralId":"v-1483291120","venueChains":[],"hasPerk":false},{"id":"4bc8c71aaf07a5933aa4812d","name":"ALEX","contact":{"phone":"+49331200900","formattedPhone":"+49 331 200900","twitter":"alexgaststaette","facebook":"278282298684","facebookUsername":"alexgastro","facebookName":"ALEX"},"location":{"address":"Platz der Einheit 14","lat":52.39925417087901,"lng":13.058596864389925,"labeledLatLngs":[{"label":"display","lat":52.39925417087901,"lng":13.058596864389925}],"postalCode":"14467","cc":"DE","city":"Potsdam","state":"Brandenburg","country":"Germany","formattedAddress":["Platz der Einheit 14","14467 Potsdam","Germany"]},"categories":[{"id":"4bf58dd8d48988d16d941735","name":"Café","pluralName":"Cafés","shortName":"Café","icon":{"prefix":"https:\/\/ss3.4sqi.net\/img\/categories_v2\/food\/cafe_","suffix":".png"},"primary":true}],"verified":false,"stats":{"checkinsCount":355,"usersCount":205,"tipCount":6},"url":"http:\/\/www.dein-alex.de","allowMenuUrlEdit":true,"beenHere":{"lastCheckinExpiredAt":0},"specials":{"count":0,"items":[]},"referralId":"v-1483291120","venueChains":[],"hasPerk":false},{"id":"4ceeb2164cd4236a710eaf63","name":"Globus Grill-Bar","contact":{},"location":{"address":"Am Kanal 52","lat":52.39764784787128,"lng":13.062308436510483,"labeledLatLngs":[{"label":"display","lat":52.39764784787128,"lng":13.062308436510483}],"postalCode":"14467","cc":"DE","city":"Potsdam","state":"Brandenburg","country":"Germany","formattedAddress":["Am Kanal 52","14467 Potsdam","Germany"]},"categories":[{"id":"4bf58dd8d48988d14c941735","name":"Wings Joint","pluralName":"Wings Joints","shortName":"Wings","icon":{"prefix":"https:\/\/ss3.4sqi.net\/img\/categories_v2\/food\/wings_","suffix":".png"},"primary":true}],"verified":false,"stats":{"checkinsCount":481,"usersCount":36,"tipCount":1},"allowMenuUrlEdit":true,"beenHere":{"lastCheckinExpiredAt":0},"specials":{"count":0,"items":[]},"referralId":"v-1483291120","venueChains":[],"hasPerk":false},{"id":"53281c51498ec68315a6c31a","name":"Bäcker Kühnbaum","contact":{},"location":{"lat":52.398168092744996,"lng":13.065188791911035,"labeledLatLngs":[{"label":"display","lat":52.398168092744996,"lng":13.065188791911035}],"cc":"DE","country":"Germany","formattedAddress":["Germany"]},"categories":[{"id":"4bf58dd8d48988d16a941735","name":"Bakery","pluralName":"Bakeries","shortName":"Bakery","icon":{"prefix":"https:\/\/ss3.4sqi.net\/img\/categories_v2\/food\/bakery_","suffix":".png"},"primary":true}],"verified":false,"stats":{"checkinsCount":28,"usersCount":6,"tipCount":0},"allowMenuUrlEdit":true,"beenHere":{"lastCheckinExpiredAt":0},"specials":{"count":0,"items":[]},"referralId":"v-1483291120","venueChains":[],"hasPerk":false},{"id":"4c59af20ec2520a122a94f12","name":"Bagels & Coffee","contact":{},"location":{"address":"Friedrich-Ebert-Str. 92","lat":52.40175962447968,"lng":13.057819,"labeledLatLngs":[{"label":"display","lat":52.40175962447968,"lng":13.057819}],"cc":"DE","city":"Potsdam","state":"Brandenburg","country":"Germany","formattedAddress":["Friedrich-Ebert-Str. 92","Potsdam","Germany"]},"categories":[{"id":"4bf58dd8d48988d179941735","name":"Bagel Shop","pluralName":"Bagel Shops","shortName":"Bagels","icon":{"prefix":"https:\/\/ss3.4sqi.net\/img\/categories_v2\/food\/bagels_","suffix":".png"},"primary":true}],"verified":false,"stats":{"checkinsCount":492,"usersCount":189,"tipCount":12},"allowMenuUrlEdit":true,"beenHere":{"lastCheckinExpiredAt":0},"specials":{"count":0,"items":[]},"referralId":"v-1483291120","venueChains":[],"hasPerk":false},{"id":"4d73747cd976236a0d1d1579","name":"Plantagenklause","contact":{},"location":{"address":"Rudolf-Breitscheid-Str 85","crossStreet":"Plantagenstr.","lat":52.39267547731298,"lng":13.103410355819733,"labeledLatLngs":[{"label":"display","lat":52.39267547731298,"lng":13.103410355819733}],"postalCode":"14482","cc":"DE","city":"Potsdam","state":"Brandenburg","country":"Germany","formattedAddress":["Rudolf-Breitscheid-Str 85 (Plantagenstr.)","14482 Potsdam","Germany"]},"categories":[{"id":"4bf58dd8d48988d10d941735","name":"German Restaurant","pluralName":"German Restaurants","shortName":"German","icon":{"prefix":"https:\/\/ss3.4sqi.net\/img\/categories_v2\/food\/german_","suffix":".png"},"primary":true}],"verified":false,"stats":{"checkinsCount":123,"usersCount":47,"tipCount":4},"url":"http:\/\/www.plantagenklause.de","allowMenuUrlEdit":true,"beenHere":{"lastCheckinExpiredAt":0},"specials":{"count":0,"items":[]},"referralId":"v-1483291120","venueChains":[],"hasPerk":false},{"id":"50366e5ee4b0cf4240da4f41","name":"Waikiki Burger","contact":{"phone":"+4933186745415","formattedPhone":"+49 331 86745415"},"location":{"address":"Dortustr. 62","lat":52.40091930932467,"lng":13.053774443688988,"labeledLatLngs":[{"label":"display","lat":52.40091930932467,"lng":13.053774443688988}],"postalCode":"14467","cc":"DE","city":"Potsdam","state":"Brandenburg","country":"Germany","formattedAddress":["Dortustr. 62","14467 Potsdam","Germany"]},"categories":[{"id":"4bf58dd8d48988d16c941735","name":"Burger Joint","pluralName":"Burger Joints","shortName":"Burgers","icon":{"prefix":"https:\/\/ss3.4sqi.net\/img\/categories_v2\/food\/burger_","suffix":".png"},"primary":true}],"verified":true,"stats":{"checkinsCount":361,"usersCount":217,"tipCount":18},"url":"http:\/\/waikiki-burger.de","allowMenuUrlEdit":true,"beenHere":{"lastCheckinExpiredAt":0},"specials":{"count":0,"items":[]},"venuePage":{"id":"89982259"},"storeId":"","referralId":"v-1483291120","venueChains":[],"hasPerk":false},{"id":"4ca7315fa6e08cfa6fd08194","name":"Die Espressonisten","contact":{"phone":"+493312316409","formattedPhone":"+49 331 2316409"},"location":{"address":"Gutenbergstr. 27","lat":52.40159779521199,"lng":13.05636,"labeledLatLngs":[{"label":"display","lat":52.40159779521199,"lng":13.05636}],"postalCode":"14467","cc":"DE","city":"Potsdam","state":"Brandenburg","country":"Germany","formattedAddress":["Gutenbergstr. 27","14467 Potsdam","Germany"]},"categories":[{"id":"4bf58dd8d48988d16d941735","name":"Café","pluralName":"Cafés","shortName":"Café","icon":{"prefix":"https:\/\/ss3.4sqi.net\/img\/categories_v2\/food\/cafe_","suffix":".png"},"primary":true}],"verified":false,"stats":{"checkinsCount":369,"usersCount":119,"tipCount":15},"url":"http:\/\/www.espressonisten.de","allowMenuUrlEdit":true,"beenHere":{"lastCheckinExpiredAt":0},"specials":{"count":0,"items":[]},"referralId":"v-1483291120","venueChains":[],"hasPerk":false},{"id":"4dd818631838b8561cf8789e","name":"Le Manège","contact":{},"location":{"address":"Am Neuen Markt","lat":52.3961369308697,"lng":13.056324874426654,"labeledLatLngs":[{"label":"display","lat":52.3961369308697,"lng":13.056324874426654}],"cc":"DE","city":"Potsdam","state":"Brandenburg","country":"Germany","formattedAddress":["Am Neuen Markt","Potsdam","Germany"]},"categories":[{"id":"4bf58dd8d48988d1c4941735","name":"Restaurant","pluralName":"Restaurants","shortName":"Restaurant","icon":{"prefix":"https:\/\/ss3.4sqi.net\/img\/categories_v2\/food\/default_","suffix":".png"},"primary":true}],"verified":false,"stats":{"checkinsCount":87,"usersCount":63,"tipCount":0},"url":"http:\/\/www.kutschstall.de\/en\/le-manege-en\/","allowMenuUrlEdit":true,"beenHere":{"lastCheckinExpiredAt":0},"specials":{"count":0,"items":[]},"referralId":"v-1483291120","venueChains":[],"hasPerk":false},{"id":"4ba143d3f964a52061a737e3","name":"Burger King","contact":{"twitter":"burgerking","facebook":"182011465154997","facebookUsername":"BurgerKing.Deutschland","facebookName":"Burger King Deutschland"},"location":{"address":"Rudolf-Moos-Str. 11","lat":52.38415234385837,"lng":13.095885515213013,"labeledLatLngs":[{"label":"display","lat":52.38415234385837,"lng":13.095885515213013}],"postalCode":"14482","cc":"DE","city":"Potsdam","state":"Brandenburg","country":"Germany","formattedAddress":["Rudolf-Moos-Str. 11","14482 Potsdam","Germany"]},"categories":[{"id":"4bf58dd8d48988d16e941735","name":"Fast Food Restaurant","pluralName":"Fast Food Restaurants","shortName":"Fast Food","icon":{"prefix":"https:\/\/ss3.4sqi.net\/img\/categories_v2\/food\/fastfood_","suffix":".png"},"primary":true}],"verified":false,"stats":{"checkinsCount":332,"usersCount":107,"tipCount":1},"url":"http:\/\/www.burgerking.de","allowMenuUrlEdit":true,"beenHere":{"lastCheckinExpiredAt":0},"specials":{"count":0,"items":[]},"referralId":"v-1483291120","venueChains":[{"id":"556d12d9aceaff43eb090cdb"}],"hasPerk":false}]}}