{"meta":{"code":200,"requestId":"586939df4434b95b0e1a8687"},"response":{"venues":[{"id":"4b6ddf8af964a52099972ce3","name":"Trattoria Cafe Tresoli","contact":{"phone":"+493064329915","formattedPhone":"+49 30 64329915"},"location":{"address":"Bölschestr. 105","lat":52.45165913442759,"lng":13.624289555963552,"labeledLatLngs":[{"label":"display","lat":52.45165913442759,"lng":13.624289555963552}],"postalCode":"12587","cc":"DE","city":"Berlin","state":"Berlin","country":"Germany","formattedAddress":["Bölschestr. 105","12587 Berlin","Germany"]},"categories":[{"id":"55a5a1ebe4b013909087cb7f","name":"Trattoria\/Osteria","pluralName":"Trattorias\/Osterias","shortName":"Trattoria\/Osteria","icon":{"prefix":"https:\/\/ss3.4sqi.net\/img\/categories_v2\/food\/italian_","suffix":".png"},"primary":true}],"verified":false,"stats":{"checkinsCount":208,"usersCount":102,"tipCount":4},"allowMenuUrlEdit":true,"beenHere":{"lastCheckinExpiredAt":0},"specials":{"count":0,"items":[]},"referralId":"v-1483291103","venueChains":[],"hasPerk":false},{"id":"4b7d80e3f964a520d6c22fe3","name":"Mauna Kea","contact":{"phone":"+493039202336","formattedPhone":"+49 30 39202336"},"location":{"address":"Bölschestr. 44","lat":52.4526270780721,"lng":13.624954187362597,"labeledLatLngs":[{"label":"display","lat":52.4526270780721,"lng":13.624954187362597}],"postalCode":"12587","cc":"DE","city":"Berlin","state":"Berlin","country":"Germany","formattedAddress":["Bölschestr. 44","12587 Berlin","Germany"]},"categories":[{"id":"4bf58dd8d48988d16d941735","name":"Café","pluralName":"Cafés","shortName":"Café","icon":{"prefix":"https:\/\/ss3.4sqi.net\/img\/categories_v2\/food\/cafe_","suffix":".png"},"primary":true}],"verified":false,"stats":{"checkinsCount":392,"usersCount":173,"tipCount":12},"url":"http:\/\/www.mauna-kea.de","allowMenuUrlEdit":true,"beenHere":{"lastCheckinExpiredAt":0},"specials":{"count":0,"items":[]},"referralId":"v-1483291103","venueChains":[],"hasPerk":false},{"id":"4d12765d1f95236a67183e06","name":"Veracruz","contact":{"phone":"+493065497394","formattedPhone":"+49 30 65497394"},"location":{"address":"Bölschestr. 66","lat":52.455813257159605,"lng":13.625385761260986,"labeledLatLngs":[{"label":"display","lat":52.455813257159605,"lng":13.625385761260986}],"postalCode":"12587","cc":"DE","city":"Berlin","state":"Berlin","country":"Germany","formattedAddress":["Bölschestr. 66","12587 Berlin","Germany"]},"categories":[{"id":"4bf58dd8d48988d1c1941735","name":"Mexican Restaurant","pluralName":"Mexican Restaurants","shortName":"Mexican","icon":{"prefix":"https:\/\/ss3.4sqi.net\/img\/categories_v2\/food\/mexican_","suffix":".png"},"primary":true}],"verified":false,"stats":{"checkinsCount":116,"usersCount":60,"tipCount":0},"url":"http:\/\/veracruz-berlin.de","menu":{"type":"Menu","label":"Menu","anchor":"View Menu","url":"http:\/\/veracruz-berlin.de\/boelschestr\/speisekarte\/suppen-vorspeisen-...\/","mobileUrl":"http:\/\/veracruz-berlin.de\/boelschestr\/speisekarte\/suppen-vorspeisen-...\/","externalUrl":"http:\/\/veracruz-berlin.de\/boelschestr\/speisekarte\/suppen-vorspeisen-...\/"},"allowMenuUrlEdit":true,"beenHere":{"lastCheckinExpiredAt":0},"specials":{"count":0,"items":[]},"referralId":"v-1483291103","venueChains":[],"hasPerk":false},{"id":"4cd53b6667adf04dd2d22b91","name":"McDonald's","contact":{"phone":"+493034354008","formattedPhone":"+49 30 34354008","twitter":"mcdonaldsdenews","facebook":"296270482587","facebookUsername":"mcd","facebookName":"McDonald's"},"location":{"address":"Wendenschloßstr. 2","lat":52.447978650030045,"lng":13.592855543189545,"labeledLatLngs":[{"label":"display","lat":52.447978650030045,"lng":13.592855543189545}],"postalCode":"12559","cc":"DE","city":"Berlin","state":"Berlin","country":"Germany","formattedAddress":["Wendenschloßstr. 2","12559 Berlin","Germany"]},"categories":[{"id":"4bf58dd8d48988d16e941735","name":"Fast Food Restaurant","pluralName":"Fast Food Restaurants","shortName":"Fast Food","icon":{"prefix":"https:\/\/ss3.4sqi.net\/img\/categories_v2\/food\/fastfood_","suffix":".png"},"primary":true}],"verified":true,"stats":{"checkinsCount":252,"usersCount":88,"tipCount":0},"url":"http:\/\/www.mcdonalds.de","allowMenuUrlEdit":true,"beenHere":{"lastCheckinExpiredAt":0},"specials":{"count":0,"items":[]},"storeId":"1564","referralId":"v-1483291103","venueChains":[{"id":"556f7a12bd6a75a9903bddb2"}],"hasPerk":false},{"id":"54902f57498e19c8c2ccb2da","name":"Ägir","contact":{},"location":{"lat":52.44574384880503,"lng":13.616781667535733,"labeledLatLngs":[{"label":"display","lat":52.44574384880503,"lng":13.616781667535733}],"cc":"DE","country":"Germany","formattedAddress":["Germany"]},"categories":[{"id":"4bf58dd8d48988d155941735","name":"Gastropub","pluralName":"Gastropubs","shortName":"Gastropub","icon":{"prefix":"https:\/\/ss3.4sqi.net\/img\/categories_v2\/food\/gastropub_","suffix":".png"},"primary":true}],"verified":false,"stats":{"checkinsCount":32,"usersCount":7,"tipCount":2},"allowMenuUrlEdit":true,"beenHere":{"lastCheckinExpiredAt":0},"specials":{"count":0,"items":[]},"referralId":"v-1483291103","venueChains":[],"hasPerk":false},{"id":"4bec0801a9900f4706751840","name":"SpreeArche","contact":{"phone":"+491723042111","formattedPhone":"+49 172 3042111"},"location":{"address":"Müggelspree","crossStreet":"Müggelschlösschenweg","lat":52.443871,"lng":13.618816,"labeledLatLngs":[{"label":"display","lat":52.443871,"lng":13.618816}],"postalCode":"15711","cc":"DE","city":"Berlin","state":"Berlin","country":"Germany","formattedAddress":["Müggelspree (Müggelschlösschenweg)","15711 Berlin","Germany"]},"categories":[{"id":"4bf58dd8d48988d1ce941735","name":"Seafood Restaurant","pluralName":"Seafood Restaurants","shortName":"Seafood","icon":{"prefix":"https:\/\/ss3.4sqi.net\/img\/categories_v2\/food\/seafood_","suffix":".png"},"primary":true}],"verified":false,"stats":{"checkinsCount":201,"usersCount":175,"tipCount":8},"url":"http:\/\/www.spreearche.de","allowMenuUrlEdit":true,"beenHere":{"lastCheckinExpiredAt":0},"specials":{"count":0,"items":[]},"referralId":"v-1483291103","venueChains":[],"hasPerk":false},{"id":"4bc819a46501c9b6c59d3f29","name":"Dresdner Feinbäckerei","contact":{"phone":"+49306452454","formattedPhone":"+49 30 6452454"},"location":{"address":"Bölschestr. 89","crossStreet":"Lindenallee","lat":52.45404080385748,"lng":13.624797291117492,"labeledLatLngs":[{"label":"display","lat":52.45404080385748,"lng":13.624797291117492}],"postalCode":"12587","cc":"DE","city":"Berlin","state":"Berlin","country":"Germany","formattedAddress":["Bölschestr. 89 (Lindenallee)","12587 Berlin","Germany"]},"categories":[{"id":"4bf58dd8d48988d16a941735","name":"Bakery","pluralName":"Bakeries","shortName":"Bakery","icon":{"prefix":"https:\/\/ss3.4sqi.net\/img\/categories_v2\/food\/bakery_","suffix":".png"},"primary":true}],"verified":false,"stats":{"checkinsCount":247,"usersCount":44,"tipCount":7},"url":"http:\/\/dresdner-feinbaeckerei.de","allowMenuUrlEdit":true,"beenHere":{"lastCheckinExpiredAt":0},"specials":{"count":0,"items":[]},"referralId":"v-1483291103","venueChains":[],"hasPerk":false},{"id":"4b39ff0df964a520146025e3","name":"Restaurant Weisse Villa","contact":{"phone":"+493064095646","formattedPhone":"+49 30 64095646"},"location":{"address":"Josef-Nawrocki-Str. 10","lat":52.445652244520204,"lng":13.625187277793884,"labeledLatLngs":[{"label":"display","lat":52.445652244520204,"lng":13.625187277793884}],"postalCode":"12587","cc":"DE","city":"Berlin","state":"Berlin","country":"Germany","formattedAddress":["Josef-Nawrocki-Str. 10","12587 Berlin","Germany"]},"categories":[{"id":"4bf58dd8d48988d143941735","name":"Breakfast Spot","pluralName":"Breakfast Spots","shortName":"Breakfast","icon":{"prefix":"https:\/\/ss3.4sqi.net\/img\/categories_v2\/food\/breakfast_","suffix":".png"},"primary":true}],"verified":false,"stats":{"checkinsCount":283,"usersCount":208,"tipCount":7},"url":"http:\/\/www.weissevilla.com","allowMenuUrlEdit":true,"beenHere":{"lastCheckinExpiredAt":0},"specials":{"count":0,"items":[]},"referralId":"v-1483291103","venueChains":[],"hasPerk":false},{"id":"4c3088077cc0c9b6d66fed9a","name":"Da Dalt","contact":{"phone":"+49306455212","formattedPhone":"+49 30 6455212"},"location":{"address":"Bölschestr. 94","lat":52.453245358576964,"lng":13.624972701072693,"labeledLatLngs":[{"label":"display","lat":52.453245358576964,"lng":13.624972701072693}],"postalCode":"12587","cc":"DE","city":"Berlin","state":"Berlin","country":"Germany","formattedAddress":["Bölschestr. 94","12587 Berlin","Germany"]},"categories":[{"id":"4bf58dd8d48988d1c9941735","name":"Ice Cream Shop","pluralName":"Ice Cream Shops","shortName":"Ice Cream","icon":{"prefix":"https:\/\/ss3.4sqi.net\/img\/categories_v2\/food\/icecream_","suffix":".png"},"primary":true}],"verified":false,"stats":{"checkinsCount":390,"usersCount":87,"tipCount":11},"allowMenuUrlEdit":true,"beenHere":{"lastCheckinExpiredAt":0},"specials":{"count":0,"items":[]},"referralId":"v-1483291103","venueChains":[],"hasPerk":false},{"id":"4adcda87f964a5202a4921e3","name":"Restaurant Bräustübl","contact":{},"location":{"address":"Müggelseedamm 164","lat":52.446806549411896,"lng":13.62388278528992,"labeledLatLngs":[{"label":"display","lat":52.446806549411896,"lng":13.62388278528992}],"postalCode":"12587","cc":"DE","city":"Berlin","state":"Berlin","country":"Germany","formattedAddress":["Müggelseedamm 164","12587 Berlin","Germany"]},"categories":[{"id":"4bf58dd8d48988d10d941735","name":"German Restaurant","pluralName":"German Restaurants","shortName":"German","icon":{"prefix":"https:\/\/ss3.4sqi.net\/img\/categories_v2\/food\/german_","suffix":".png"},"primary":true}],"verified":false,"stats":{"checkinsCount":132,"usersCount":88,"tipCount":1},"allowMenuUrlEdit":true,"beenHere":{"lastCheckinExpiredAt":0},"specials":{"count":0,"items":[]},"referralId":"v-1483291103","venueChains":[],"hasPerk":false},{"id":"4adcda73f964a5205a4521e3","name":"Rübezahl am Müggelsee","contact":{"phone":"+4930656616880","formattedPhone":"+49 30 656616880"},"location":{"address":"Müggelheimer Damm 143","lat":52.4268946137419,"lng":13.62976857210004,"labeledLatLngs":[{"label":"display","lat":52.4268946137419,"lng":13.62976857210004}],"postalCode":"12559","cc":"DE","city":"Berlin","state":"Berlin","country":"Germany","formattedAddress":["Müggelheimer Damm 143","12559 Berlin","Germany"]},"categories":[{"id":"4bf58dd8d48988d10d941735","name":"German Restaurant","pluralName":"German Restaurants","shortName":"German","icon":{"prefix":"https:\/\/ss3.4sqi.net\/img\/categories_v2\/food\/german_","suffix":".png"},"primary":true}],"verified":false,"stats":{"checkinsCount":761,"usersCount":463,"tipCount":9},"url":"http:\/\/ruebezahl-berlin.de","allowMenuUrlEdit":true,"beenHere":{"lastCheckinExpiredAt":0},"specials":{"count":0,"items":[]},"referralId":"v-1483291103","venueChains":[],"hasPerk":false},{"id":"4d15e005b15cb1f750e1aa21","name":"Gasthaus Müggelheim","contact":{},"location":{"address":"Alt-Müggelheim 22","lat":52.41205079113347,"lng":13.663278666558215,"labeledLatLngs":[{"label":"display","lat":52.41205079113347,"lng":13.663278666558215}],"postalCode":"12559","cc":"DE","city":"Berlin","state":"Berlin","country":"Germany","formattedAddress":["Alt-Müggelheim 22","12559 Berlin","Germany"]},"categories":[{"id":"4bf58dd8d48988d10d941735","name":"German Restaurant","pluralName":"German Restaurants","shortName":"German","icon":{"prefix":"https:\/\/ss3.4sqi.net\/img\/categories_v2\/food\/german_","suffix":".png"},"primary":true}],"verified":false,"stats":{"checkinsCount":70,"usersCount":35,"tipCount":2},"allowMenuUrlEdit":true,"beenHere":{"lastCheckinExpiredAt":0},"specials":{"count":0,"items":[]},"referralId":"v-1483291103","venueChains":[],"hasPerk":false},{"id":"4ed8c4df8231efe38d58724d","name":"Restaurant Sandmann","contact":{},"location":{"address":"Parrisiusstr. 19","lat":52.45672854859737,"lng":13.58083963394165,"labeledLatLngs":[{"label":"display","lat":52.45672854859737,"lng":13.58083963394165}],"postalCode":"12555","cc":"DE","city":"Berlin","state":"Berlin","country":"Germany","formattedAddress":["Parrisiusstr. 19","12555 Berlin","Germany"]},"categories":[{"id":"4bf58dd8d48988d10d941735","name":"German Restaurant","pluralName":"German Restaurants","shortName":"German","icon":{"prefix":"https:\/\/ss3.4sqi.net\/img\/categories_v2\/food\/german_","suffix":".png"},"primary":true}],"verified":false,"stats":{"checkinsCount":43,"usersCount":23,"tipCount":2},"url":"http:\/\/www.restaurant-sandmann.de\/","allowMenuUrlEdit":true,"beenHere":{"lastCheckinExpiredAt":0},"specials":{"count":0,"items":[]},"referralId":"v-1483291103","venueChains":[],"hasPerk":false},{"id":"4da86b6c04376c33688781d1","name":"Kid Creole","contact":{"phone":"+493065076680","formattedPhone":"+49 30 65076680"},"location":{"address":"Bölschestr. 10","lat":52.448006512613475,"lng":13.624807425337933,"labeledLatLngs":[{"label":"display","lat":52.448006512613475,"lng":13.624807425337933}],"postalCode":"12587","cc":"DE","city":"Berlin","state":"Berlin","country":"Germany","formattedAddress":["Bölschestr. 10","12587 Berlin","Germany"]},"categories":[{"id":"4bf58dd8d48988d17a941735","name":"Cajun \/ Creole Restaurant","pluralName":"Cajun \/ Creole Restaurants","shortName":"Cajun \/ Creole","icon":{"prefix":"https:\/\/ss3.4sqi.net\/img\/categories_v2\/food\/cajun_","suffix":".png"},"primary":true}],"verified":false,"stats":{"checkinsCount":37,"usersCount":33,"tipCount":5},"url":"http:\/\/www.kidcreole.de","allowMenuUrlEdit":true,"beenHere":{"lastCheckinExpiredAt":0},"specials":{"count":0,"items":[]},"referralId":"v-1483291103","venueChains":[],"hasPerk":false},{"id":"4da937fa1e72c1ab9bd69743","name":"Feinbäckerei Menzer","contact":{"phone":"+49306457646","formattedPhone":"+49 30 6457646"},"location":{"address":"Müggelseedamm 229","crossStreet":"Bruno-Wille-Str.","lat":52.446967411669405,"lng":13.63246574845204,"labeledLatLngs":[{"label":"display","lat":52.446967411669405,"lng":13.63246574845204}],"postalCode":"12587","cc":"DE","city":"Berlin","state":"Berlin","country":"Germany","formattedAddress":["Müggelseedamm 229 (Bruno-Wille-Str.)","12587 Berlin","Germany"]},"categories":[{"id":"4bf58dd8d48988d16a941735","name":"Bakery","pluralName":"Bakeries","shortName":"Bakery","icon":{"prefix":"https:\/\/ss3.4sqi.net\/img\/categories_v2\/food\/bakery_","suffix":".png"},"primary":true}],"verified":false,"stats":{"checkinsCount":43,"usersCount":3,"tipCount":0},"url":"http:\/\/baeckerei-menzer.beepworld.de","allowMenuUrlEdit":true,"beenHere":{"lastCheckinExpiredAt":0},"specials":{"count":0,"items":[]},"referralId":"v-1483291103","venueChains":[],"hasPerk":false}]}}