{"meta":{"code":200,"requestId":"586939da1ed2194563224ee3"},"response":{"venues":[{"id":"4adcda8ef964a520c64a21e3","name":"Rogacki","contact":{"phone":"+49303438250","formattedPhone":"+49 30 3438250","facebook":"147811625267539","facebookName":"Rogacki"},"location":{"address":"Wilmersdorfer Str.145-146","crossStreet":"Spielhagenstr.","lat":52.512891003064624,"lng":13.305221199989319,"labeledLatLngs":[{"label":"display","lat":52.512891003064624,"lng":13.305221199989319}],"postalCode":"10585","cc":"DE","city":"Berlin","state":"Berlin","country":"Germany","formattedAddress":["Wilmersdorfer Str.145-146 (Spielhagenstr.)","10585 Berlin","Germany"]},"categories":[{"id":"4bf58dd8d48988d1f5941735","name":"Gourmet Shop","pluralName":"Gourmet Shops","shortName":"Gourmet","icon":{"prefix":"https:\/\/ss3.4sqi.net\/img\/categories_v2\/shops\/food_gourmet_","suffix":".png"},"primary":true}],"verified":false,"stats":{"checkinsCount":1512,"usersCount":712,"tipCount":45},"url":"http:\/\/www.rogacki.de","menu":{"type":"Products","label":"Products","anchor":"View Products","url":"http:\/\/www.rogacki.de\/wp-content\/uploads\/2013\/08\/Schlemmerecke-2013.pdf","mobileUrl":"http:\/\/www.rogacki.de\/wp-content\/uploads\/2013\/08\/Schlemmerecke-2013.pdf","externalUrl":"http:\/\/www.rogacki.de\/wp-content\/uploads\/2013\/08\/Schlemmerecke-2013.pdf"},"allowMenuUrlEdit":true,"beenHere":{"lastCheckinExpiredAt":0},"specials":{"count":0,"items":[]},"referralId":"v-1483291098","venueChains":[],"hasPerk":false},{"id":"4baba4a6f964a5202cbc3ae3","name":"Brauhaus Lemke am Schloss","contact":{"phone":"+493030878979","formattedPhone":"+49 30 30878979","facebook":"155129104531137","facebookName":"Brauhaus Lemke"},"location":{"address":"Luisenplatz 1","lat":52.52005968446574,"lng":13.299770951271057,"labeledLatLngs":[{"label":"display","lat":52.52005968446574,"lng":13.299770951271057}],"postalCode":"10585","cc":"DE","city":"Berlin","state":"Berlin","country":"Germany","formattedAddress":["Luisenplatz 1","10585 Berlin","Germany"]},"categories":[{"id":"50327c8591d4c4b30a586d5d","name":"Brewery","pluralName":"Breweries","shortName":"Brewery","icon":{"prefix":"https:\/\/ss3.4sqi.net\/img\/categories_v2\/food\/brewery_","suffix":".png"},"primary":true}],"verified":false,"stats":{"checkinsCount":1632,"usersCount":1156,"tipCount":36},"url":"http:\/\/www.brauhaus-lemke.com","allowMenuUrlEdit":true,"beenHere":{"lastCheckinExpiredAt":0},"specials":{"count":0,"items":[]},"referralId":"v-1483291098","venueChains":[],"hasPerk":false},{"id":"4b8945cff964a5209e2732e3","name":"Block House","contact":{"phone":"+49308919355","formattedPhone":"+49 30 8919355"},"location":{"address":"Kurfürstendamm 161","crossStreet":"Adenauer Platz","lat":52.49993925013973,"lng":13.307034592746628,"labeledLatLngs":[{"label":"display","lat":52.49993925013973,"lng":13.307034592746628}],"postalCode":"10709","cc":"DE","city":"Berlin","state":"Berlin","country":"Germany","formattedAddress":["Kurfürstendamm 161 (Adenauer Platz)","10709 Berlin","Germany"]},"categories":[{"id":"4bf58dd8d48988d1cc941735","name":"Steakhouse","pluralName":"Steakhouses","shortName":"Steakhouse","icon":{"prefix":"https:\/\/ss3.4sqi.net\/img\/categories_v2\/food\/steakhouse_","suffix":".png"},"primary":true}],"verified":false,"stats":{"checkinsCount":1249,"usersCount":846,"tipCount":29},"url":"http:\/\/www.block-house.de","allowMenuUrlEdit":true,"beenHere":{"lastCheckinExpiredAt":0},"specials":{"count":0,"items":[]},"referralId":"v-1483291098","venueChains":[],"hasPerk":false},{"id":"524ea7e911d27fc1d2963d01","name":"La Femme","contact":{"phone":"+493031802621","formattedPhone":"+49 30 31802621"},"location":{"address":"Wilmersdorfer Str. 135","lat":52.511451721191406,"lng":13.305625915527344,"labeledLatLngs":[{"label":"display","lat":52.511451721191406,"lng":13.305625915527344}],"postalCode":"10627","cc":"DE","city":"Berlin","state":"Berlin","country":"Germany","formattedAddress":["Wilmersdorfer Str. 135","10627 Berlin","Germany"]},"categories":[{"id":"4bf58dd8d48988d16d941735","name":"Café","pluralName":"Cafés","shortName":"Café","icon":{"prefix":"https:\/\/ss3.4sqi.net\/img\/categories_v2\/food\/cafe_","suffix":".png"},"primary":true}],"verified":false,"stats":{"checkinsCount":689,"usersCount":407,"tipCount":13},"allowMenuUrlEdit":true,"beenHere":{"lastCheckinExpiredAt":0},"specials":{"count":0,"items":[]},"referralId":"v-1483291098","venueChains":[],"hasPerk":false},{"id":"51e192e0498e134a292caa0d","name":"La Pausa","contact":{"phone":"+493081195446","formattedPhone":"+49 30 81195446"},"location":{"address":"Wilmersdorferstr. 130","lat":52.51036117187664,"lng":13.305482289788532,"labeledLatLngs":[{"label":"display","lat":52.51036117187664,"lng":13.305482289788532}],"postalCode":"10627","cc":"DE","city":"Berlin","state":"Berlin","country":"Germany","formattedAddress":["Wilmersdorferstr. 130","10627 Berlin","Germany"]},"categories":[{"id":"4bf58dd8d48988d1ca941735","name":"Pizza Place","pluralName":"Pizza Places","shortName":"Pizza","icon":{"prefix":"https:\/\/ss3.4sqi.net\/img\/categories_v2\/food\/pizza_","suffix":".png"},"primary":true}],"verified":false,"stats":{"checkinsCount":191,"usersCount":76,"tipCount":12},"url":"http:\/\/www.lapausa.de","allowMenuUrlEdit":true,"beenHere":{"lastCheckinExpiredAt":0},"specials":{"count":0,"items":[]},"referralId":"v-1483291098","venueChains":[],"hasPerk":false},{"id":"4b9a8bfff964a520debf35e3","name":"Café au lait","contact":{"phone":"+49303245911","formattedPhone":"+49 30 3245911","facebook":"444112242284101","facebookName":"Café au Lait"},"location":{"address":"Kantstr. 110","crossStreet":"Wilmersdorfer Str.","lat":52.506537450905114,"lng":13.30565571784973,"labeledLatLngs":[{"label":"display","lat":52.506537450905114,"lng":13.30565571784973}],"postalCode":"10627","cc":"DE","city":"Berlin","state":"Berlin","country":"Germany","formattedAddress":["Kantstr. 110 (Wilmersdorfer Str.)","10627 Berlin","Germany"]},"categories":[{"id":"4bf58dd8d48988d16d941735","name":"Café","pluralName":"Cafés","shortName":"Café","icon":{"prefix":"https:\/\/ss3.4sqi.net\/img\/categories_v2\/food\/cafe_","suffix":".png"},"primary":true}],"verified":false,"stats":{"checkinsCount":559,"usersCount":340,"tipCount":17},"url":"http:\/\/www.au-lait.de","allowMenuUrlEdit":true,"beenHere":{"lastCheckinExpiredAt":0},"specials":{"count":0,"items":[]},"referralId":"v-1483291098","venueChains":[],"hasPerk":false},{"id":"4b541e8df964a520acb227e3","name":"Starbucks","contact":{"phone":"+493041474802","formattedPhone":"+49 30 41474802","twitter":"starbucksde","facebook":"216331155420","facebookUsername":"StarbucksDeutschland","facebookName":"Starbucks Deutschland"},"location":{"address":"Terminal A","crossStreet":"TXL Airport","lat":52.55376775887035,"lng":13.291801293572611,"labeledLatLngs":[{"label":"display","lat":52.55376775887035,"lng":13.291801293572611}],"postalCode":"13405","cc":"DE","city":"Berlin","state":"Berlin","country":"Germany","formattedAddress":["Terminal A (TXL Airport)","13405 Berlin","Germany"]},"categories":[{"id":"4bf58dd8d48988d1e0931735","name":"Coffee Shop","pluralName":"Coffee Shops","shortName":"Coffee Shop","icon":{"prefix":"https:\/\/ss3.4sqi.net\/img\/categories_v2\/food\/coffeeshop_","suffix":".png"},"primary":true}],"verified":false,"stats":{"checkinsCount":5814,"usersCount":3826,"tipCount":75},"url":"http:\/\/www.starbucks.de","allowMenuUrlEdit":true,"beenHere":{"lastCheckinExpiredAt":0},"specials":{"count":0,"items":[]},"referralId":"v-1483291098","venueChains":[{"id":"556f676fbd6a75a99038d8ec"}],"hasPerk":false},{"id":"4b7ff374f964a520714630e3","name":"Starbucks","contact":{"phone":"+493032301639","formattedPhone":"+49 30 32301639","twitter":"starbucksde","facebook":"216331155420","facebookUsername":"StarbucksDeutschland","facebookName":"Starbucks Deutschland"},"location":{"address":"Wilmersdorfer Str. 53-54","lat":52.508661886202134,"lng":13.306137446751205,"labeledLatLngs":[{"label":"display","lat":52.508661886202134,"lng":13.306137446751205}],"postalCode":"10627","cc":"DE","city":"Berlin","state":"Berlin","country":"Germany","formattedAddress":["Wilmersdorfer Str. 53-54","10627 Berlin","Germany"]},"categories":[{"id":"4bf58dd8d48988d1e0931735","name":"Coffee Shop","pluralName":"Coffee Shops","shortName":"Coffee Shop","icon":{"prefix":"https:\/\/ss3.4sqi.net\/img\/categories_v2\/food\/coffeeshop_","suffix":".png"},"primary":true}],"verified":false,"stats":{"checkinsCount":1760,"usersCount":975,"tipCount":13},"url":"http:\/\/www.starbucks.de","allowMenuUrlEdit":true,"beenHere":{"lastCheckinExpiredAt":0},"specials":{"count":0,"items":[]},"referralId":"v-1483291098","venueChains":[{"id":"556f676fbd6a75a99038d8ec"}],"hasPerk":false},{"id":"4b043b07f964a520595222e3","name":"McDonald's","contact":{"phone":"+493032701930","formattedPhone":"+49 30 32701930","twitter":"mcdonaldsdenews","facebook":"296270482587","facebookUsername":"mcd","facebookName":"McDonald's"},"location":{"address":"Kantstr. 111A","crossStreet":"Wilmersdorfer Str.","lat":52.50673,"lng":13.306315419999999,"labeledLatLngs":[{"label":"display","lat":52.50673,"lng":13.306315419999999}],"postalCode":"10627","cc":"DE","city":"Berlin","state":"Berlin","country":"Germany","formattedAddress":["Kantstr. 111A (Wilmersdorfer Str.)","10627 Berlin","Germany"]},"categories":[{"id":"4bf58dd8d48988d16e941735","name":"Fast Food Restaurant","pluralName":"Fast Food Restaurants","shortName":"Fast Food","icon":{"prefix":"https:\/\/ss3.4sqi.net\/img\/categories_v2\/food\/fastfood_","suffix":".png"},"primary":true}],"verified":true,"stats":{"checkinsCount":704,"usersCount":425,"tipCount":2},"url":"http:\/\/www.mcdonalds.de","allowMenuUrlEdit":true,"beenHere":{"lastCheckinExpiredAt":0},"specials":{"count":0,"items":[]},"storeId":"994","referralId":"v-1483291098","venueChains":[{"id":"556f7a12bd6a75a9903bddb2"}],"hasPerk":false},{"id":"4b097f25f964a520451823e3","name":"Saigon Today","contact":{"phone":"+493032766081","formattedPhone":"+49 30 32766081"},"location":{"address":"Wilmersdorfer Str. 69","lat":52.5045007,"lng":13.307245,"labeledLatLngs":[{"label":"display","lat":52.5045007,"lng":13.307245}],"postalCode":"10629","cc":"DE","city":"Berlin","state":"Berlin","country":"Germany","formattedAddress":["Wilmersdorfer Str. 69","10629 Berlin","Germany"]},"categories":[{"id":"4bf58dd8d48988d14a941735","name":"Vietnamese Restaurant","pluralName":"Vietnamese Restaurants","shortName":"Vietnamese","icon":{"prefix":"https:\/\/ss3.4sqi.net\/img\/categories_v2\/food\/vietnamese_","suffix":".png"},"primary":true}],"verified":false,"stats":{"checkinsCount":960,"usersCount":404,"tipCount":27},"url":"http:\/\/saigontoday.de","allowMenuUrlEdit":true,"beenHere":{"lastCheckinExpiredAt":0},"specials":{"count":0,"items":[]},"referralId":"v-1483291098","venueChains":[],"hasPerk":false},{"id":"4e21e5c6b61cdcf1ecc2c153","name":"WINDBURGER","contact":{"phone":"+493043727177","formattedPhone":"+49 30 43727177","facebook":"236024253091820","facebookName":"WINDBURGER"},"location":{"address":"Windscheidstr. 26","lat":52.506084,"lng":13.299226,"labeledLatLngs":[{"label":"display","lat":52.506084,"lng":13.299226}],"postalCode":"10627","cc":"DE","city":"Berlin","state":"Berlin","country":"Germany","formattedAddress":["Windscheidstr. 26","10627 Berlin","Germany"]},"categories":[{"id":"4bf58dd8d48988d16c941735","name":"Burger Joint","pluralName":"Burger Joints","shortName":"Burgers","icon":{"prefix":"https:\/\/ss3.4sqi.net\/img\/categories_v2\/food\/burger_","suffix":".png"},"primary":true}],"verified":false,"stats":{"checkinsCount":2053,"usersCount":694,"tipCount":63},"allowMenuUrlEdit":true,"beenHere":{"lastCheckinExpiredAt":0},"specials":{"count":0,"items":[]},"referralId":"v-1483291098","venueChains":[],"hasPerk":false},{"id":"4b6db1b8f964a52029872ce3","name":"Café Extrablatt","contact":{"phone":"+493033778339","formattedPhone":"+49 30 33778339","twitter":"cafe_extrablatt","facebook":"130060290385117","facebookName":"Cafe Extrablatt Wilmersdorfer Straße"},"location":{"address":"Wilmersdorfer Str. 46","lat":52.5093976425281,"lng":13.30544650554657,"labeledLatLngs":[{"label":"display","lat":52.5093976425281,"lng":13.30544650554657}],"postalCode":"10627","cc":"DE","city":"Berlin","state":"Berlin","country":"Germany","formattedAddress":["Wilmersdorfer Str. 46","10627 Berlin","Germany"]},"categories":[{"id":"4bf58dd8d48988d16d941735","name":"Café","pluralName":"Cafés","shortName":"Café","icon":{"prefix":"https:\/\/ss3.4sqi.net\/img\/categories_v2\/food\/cafe_","suffix":".png"},"primary":true}],"verified":false,"stats":{"checkinsCount":1209,"usersCount":620,"tipCount":19},"url":"http:\/\/www.cafe-extrablatt.com","menu":{"type":"Menu","label":"Menu","anchor":"View Menu","url":"http:\/\/www.cafe-extrablatt.com\/speisekarte","mobileUrl":"http:\/\/www.cafe-extrablatt.com\/speisekarte","externalUrl":"http:\/\/www.cafe-extrablatt.com\/speisekarte"},"allowMenuUrlEdit":true,"beenHere":{"lastCheckinExpiredAt":0},"specials":{"count":0,"items":[]},"referralId":"v-1483291098","venueChains":[],"hasPerk":false},{"id":"56d6e213498e8b6982a1830d","name":"Jim Block","contact":{},"location":{"address":"Wilmersdorfer Str. 115","lat":52.507354904026165,"lng":13.306589679723782,"labeledLatLngs":[{"label":"display","lat":52.507354904026165,"lng":13.306589679723782}],"cc":"DE","city":"Berlin","state":"Berlin","country":"Germany","formattedAddress":["Wilmersdorfer Str. 115","Berlin","Germany"]},"categories":[{"id":"4bf58dd8d48988d16c941735","name":"Burger Joint","pluralName":"Burger Joints","shortName":"Burgers","icon":{"prefix":"https:\/\/ss3.4sqi.net\/img\/categories_v2\/food\/burger_","suffix":".png"},"primary":true}],"verified":false,"stats":{"checkinsCount":131,"usersCount":94,"tipCount":5},"allowMenuUrlEdit":true,"beenHere":{"lastCheckinExpiredAt":0},"specials":{"count":0,"items":[]},"referralId":"v-1483291098","venueChains":[],"hasPerk":false},{"id":"4af60162f964a520120022e3","name":"Mommseneck - Haus der 100 Biere","contact":{"phone":"+493025296635","formattedPhone":"+49 30 25296635"},"location":{"address":"Mommsenstrasse 45","lat":52.50332258892202,"lng":13.307968147066823,"labeledLatLngs":[{"label":"display","lat":52.50332258892202,"lng":13.307968147066823}],"postalCode":"10629","cc":"DE","city":"Berlin","state":"Berlin","country":"Germany","formattedAddress":["Mommsenstrasse 45","10629 Berlin","Germany"]},"categories":[{"id":"4bf58dd8d48988d10d941735","name":"German Restaurant","pluralName":"German Restaurants","shortName":"German","icon":{"prefix":"https:\/\/ss3.4sqi.net\/img\/categories_v2\/food\/german_","suffix":".png"},"primary":true}],"verified":false,"stats":{"checkinsCount":1729,"usersCount":583,"tipCount":27},"url":"http:\/\/www.mommseneck.de","allowMenuUrlEdit":true,"beenHere":{"lastCheckinExpiredAt":0},"specials":{"count":0,"items":[]},"referralId":"v-1483291098","venueChains":[],"hasPerk":false},{"id":"4bb776933db7b7134bfb1f9a","name":"Piccolo Mondo","contact":{"phone":"+493030102030","formattedPhone":"+49 30 30102030"},"location":{"address":"Reichstr. 9","lat":52.512526,"lng":13.267655,"labeledLatLngs":[{"label":"display","lat":52.512526,"lng":13.267655}],"postalCode":"14052","cc":"DE","city":"Berlin","state":"Berlin","country":"Germany","formattedAddress":["Reichstr. 9","14052 Berlin","Germany"]},"categories":[{"id":"4bf58dd8d48988d110941735","name":"Italian Restaurant","pluralName":"Italian Restaurants","shortName":"Italian","icon":{"prefix":"https:\/\/ss3.4sqi.net\/img\/categories_v2\/food\/italian_","suffix":".png"},"primary":true}],"verified":false,"stats":{"checkinsCount":302,"usersCount":194,"tipCount":18},"allowMenuUrlEdit":true,"beenHere":{"lastCheckinExpiredAt":0},"specials":{"count":0,"items":[]},"referralId":"v-1483291098","venueChains":[],"hasPerk":false},{"id":"4bca067f511f9521a7d1aec7","name":"Ach! Niko Ach!","contact":{"phone":"+49303249779","formattedPhone":"+49 30 3249779"},"location":{"address":"Kurfürstendamm 97-98","lat":52.49844062920594,"lng":13.29832218530117,"labeledLatLngs":[{"label":"display","lat":52.49844062920594,"lng":13.29832218530117}],"postalCode":"10709","cc":"DE","city":"Berlin","state":"Berlin","country":"Germany","formattedAddress":["Kurfürstendamm 97-98","10709 Berlin","Germany"]},"categories":[{"id":"4bf58dd8d48988d10e941735","name":"Greek Restaurant","pluralName":"Greek Restaurants","shortName":"Greek","icon":{"prefix":"https:\/\/ss3.4sqi.net\/img\/categories_v2\/food\/greek_","suffix":".png"},"primary":true}],"verified":false,"stats":{"checkinsCount":1014,"usersCount":666,"tipCount":34},"url":"http:\/\/www.achnikoach.de","allowMenuUrlEdit":true,"beenHere":{"lastCheckinExpiredAt":0},"specials":{"count":0,"items":[]},"referralId":"v-1483291098","venueChains":[],"hasPerk":false},{"id":"4df362f822718759f81f828e","name":"Chenab","contact":{"phone":"+49493036434799","formattedPhone":"+49 4930 36434799"},"location":{"address":"Knobelsdorffstraße 35","crossStreet":"Danckelmannstraße","lat":52.51321448509164,"lng":13.291195990672605,"labeledLatLngs":[{"label":"display","lat":52.51321448509164,"lng":13.291195990672605}],"postalCode":"14059","cc":"DE","city":"Berlin","state":"Berlin","country":"Germany","formattedAddress":["Knobelsdorffstraße 35 (Danckelmannstraße)","14059 Berlin","Germany"]},"categories":[{"id":"4bf58dd8d48988d10f941735","name":"Indian Restaurant","pluralName":"Indian Restaurants","shortName":"Indian","icon":{"prefix":"https:\/\/ss3.4sqi.net\/img\/categories_v2\/food\/indian_","suffix":".png"},"primary":true}],"verified":false,"stats":{"checkinsCount":211,"usersCount":80,"tipCount":7},"url":"http:\/\/www.chenab-restaurant.de","allowMenuUrlEdit":true,"beenHere":{"lastCheckinExpiredAt":0},"specials":{"count":0,"items":[]},"referralId":"v-1483291098","venueChains":[],"hasPerk":false},{"id":"4f055877722e1ef4e309ec07","name":"M & M Back","contact":{},"location":{"address":"Wilmersdorfer Str. 143-144","lat":52.51253174941339,"lng":13.305078992316256,"labeledLatLngs":[{"label":"display","lat":52.51253174941339,"lng":13.305078992316256}],"postalCode":"10585","cc":"DE","city":"Berlin","state":"Berlin","country":"Germany","formattedAddress":["Wilmersdorfer Str. 143-144","10585 Berlin","Germany"]},"categories":[{"id":"4bf58dd8d48988d16a941735","name":"Bakery","pluralName":"Bakeries","shortName":"Bakery","icon":{"prefix":"https:\/\/ss3.4sqi.net\/img\/categories_v2\/food\/bakery_","suffix":".png"},"primary":true}],"verified":false,"stats":{"checkinsCount":165,"usersCount":73,"tipCount":4},"allowMenuUrlEdit":true,"beenHere":{"lastCheckinExpiredAt":0},"specials":{"count":0,"items":[]},"referralId":"v-1483291098","venueChains":[],"hasPerk":false},{"id":"5597b00a498ef8cc24720aae","name":"Einstein Kaffee","contact":{},"location":{"address":"Wilmersdorfer str. 112","crossStreet":"Wilmersdorfer str","lat":52.50682763990386,"lng":13.30665836186393,"labeledLatLngs":[{"label":"display","lat":52.50682763990386,"lng":13.30665836186393}],"postalCode":"10627","cc":"DE","city":"Berlin","state":"Berlin","country":"Germany","formattedAddress":["Wilmersdorfer str. 112 (Wilmersdorfer str)","10627 Berlin","Germany"]},"categories":[{"id":"4bf58dd8d48988d16d941735","name":"Café","pluralName":"Cafés","shortName":"Café","icon":{"prefix":"https:\/\/ss3.4sqi.net\/img\/categories_v2\/food\/cafe_","suffix":".png"},"primary":true}],"verified":false,"stats":{"checkinsCount":212,"usersCount":157,"tipCount":3},"allowMenuUrlEdit":true,"beenHere":{"lastCheckinExpiredAt":0},"specials":{"count":0,"items":[]},"referralId":"v-1483291098","venueChains":[],"hasPerk":false},{"id":"4b280a86f964a520178e24e3","name":"Haus der 100 Biere","contact":{"phone":"+493025092901","formattedPhone":"+49 30 25092901"},"location":{"address":"Kurfürstendamm 100","lat":52.49829245792364,"lng":13.297241024597811,"labeledLatLngs":[{"label":"display","lat":52.49829245792364,"lng":13.297241024597811}],"postalCode":"10709","cc":"DE","city":"Berlin","state":"Berlin","country":"Germany","formattedAddress":["Kurfürstendamm 100","10709 Berlin","Germany"]},"categories":[{"id":"4bf58dd8d48988d10d941735","name":"German Restaurant","pluralName":"German Restaurants","shortName":"German","icon":{"prefix":"https:\/\/ss3.4sqi.net\/img\/categories_v2\/food\/german_","suffix":".png"},"primary":true}],"verified":false,"stats":{"checkinsCount":493,"usersCount":397,"tipCount":13},"allowMenuUrlEdit":true,"beenHere":{"lastCheckinExpiredAt":0},"specials":{"count":0,"items":[]},"referralId":"v-1483291098","venueChains":[],"hasPerk":false},{"id":"4b6eaf64f964a5208ec62ce3","name":"Karun Bistro - Persisch Arabische Küche","contact":{"phone":"+493031519715","formattedPhone":"+49 30 31519715"},"location":{"address":"Pestalozzistr. 29","lat":52.50787879083427,"lng":13.308053165795299,"labeledLatLngs":[{"label":"display","lat":52.50787879083427,"lng":13.308053165795299}],"postalCode":"10627","cc":"DE","city":"Berlin","state":"Berlin","country":"Germany","formattedAddress":["Pestalozzistr. 29","10627 Berlin","Germany"]},"categories":[{"id":"4bf58dd8d48988d10b941735","name":"Falafel Restaurant","pluralName":"Falafel Restaurants","shortName":"Falafel","icon":{"prefix":"https:\/\/ss3.4sqi.net\/img\/categories_v2\/food\/falafel_","suffix":".png"},"primary":true}],"verified":true,"stats":{"checkinsCount":826,"usersCount":239,"tipCount":18},"url":"http:\/\/karun-bistro.de","allowMenuUrlEdit":true,"beenHere":{"lastCheckinExpiredAt":0},"specials":{"count":0,"items":[]},"referralId":"v-1483291098","venueChains":[{"id":"556e519bbd6a82902e282122"}],"hasPerk":false},{"id":"4de6754ffa764cf4bedfeb2f","name":"Sayuri","contact":{"phone":"+493089009630","formattedPhone":"+49 30 89009630"},"location":{"address":"Kurfürstendamm 137","crossStreet":"Joachim-Friedrich-Str.","lat":52.49779,"lng":13.295493,"labeledLatLngs":[{"label":"display","lat":52.49779,"lng":13.295493}],"postalCode":"10711","cc":"DE","city":"Berlin","state":"Berlin","country":"Germany","formattedAddress":["Kurfürstendamm 137 (Joachim-Friedrich-Str.)","10711 Berlin","Germany"]},"categories":[{"id":"4bf58dd8d48988d111941735","name":"Japanese Restaurant","pluralName":"Japanese Restaurants","shortName":"Japanese","icon":{"prefix":"https:\/\/ss3.4sqi.net\/img\/categories_v2\/food\/japanese_","suffix":".png"},"primary":true}],"verified":false,"stats":{"checkinsCount":320,"usersCount":95,"tipCount":11},"allowMenuUrlEdit":true,"beenHere":{"lastCheckinExpiredAt":0},"specials":{"count":0,"items":[]},"referralId":"v-1483291098","venueChains":[],"hasPerk":false},{"id":"4bd5ca986f64952139b06fec","name":"Graffiti","contact":{"phone":"+493088001764","formattedPhone":"+49 30 88001764"},"location":{"address":"Kurfürstendamm 69","crossStreet":"Adenauerpl.","lat":52.500432690914586,"lng":13.30721733903556,"labeledLatLngs":[{"label":"display","lat":52.500432690914586,"lng":13.30721733903556}],"postalCode":"10707","cc":"DE","city":"Berlin","state":"Berlin","country":"Germany","formattedAddress":["Kurfürstendamm 69 (Adenauerpl.)","10707 Berlin","Germany"]},"categories":[{"id":"4bf58dd8d48988d147941735","name":"Diner","pluralName":"Diners","shortName":"Diner","icon":{"prefix":"https:\/\/ss3.4sqi.net\/img\/categories_v2\/food\/diner_","suffix":".png"},"primary":true}],"verified":false,"stats":{"checkinsCount":1026,"usersCount":665,"tipCount":22},"allowMenuUrlEdit":true,"beenHere":{"lastCheckinExpiredAt":0},"specials":{"count":0,"items":[]},"referralId":"v-1483291098","venueChains":[],"hasPerk":false},{"id":"4adcda88f964a520624921e3","name":"Brasil Brasileiro","contact":{"phone":"+493089409889","formattedPhone":"+49 30 89409889"},"location":{"address":"Kurfuerstendamm 151","lat":52.49867863978895,"lng":13.300886818359393,"labeledLatLngs":[{"label":"display","lat":52.49867863978895,"lng":13.300886818359393}],"postalCode":"10709","cc":"DE","city":"Berlin","state":"Berlin","country":"Germany","formattedAddress":["Kurfuerstendamm 151","10709 Berlin","Germany"]},"categories":[{"id":"4bf58dd8d48988d16b941735","name":"Brazilian Restaurant","pluralName":"Brazilian Restaurants","shortName":"Brazilian","icon":{"prefix":"https:\/\/ss3.4sqi.net\/img\/categories_v2\/food\/argentinian_","suffix":".png"},"primary":true}],"verified":false,"stats":{"checkinsCount":295,"usersCount":275,"tipCount":11},"url":"http:\/\/www.brasil-brasileiro.de","allowMenuUrlEdit":true,"beenHere":{"lastCheckinExpiredAt":0},"specials":{"count":0,"items":[]},"referralId":"v-1483291098","venueChains":[],"hasPerk":false}]}}