{"meta":{"code":200,"requestId":"586939e2dd57972f39b62d26"},"response":{"venues":[{"id":"4db82521fa8c377d83b7e93b","name":"Five Elephant","contact":{"phone":"+493096081527","formattedPhone":"+49 30 96081527","twitter":"fiveelephant","facebook":"166235106745521","facebookName":"Five Elephant Coffee & Cake"},"location":{"address":"Reichenberger Str. 101","crossStreet":"Glogauer Str.","lat":52.49336267117807,"lng":13.437933189022548,"labeledLatLngs":[{"label":"display","lat":52.49336267117807,"lng":13.437933189022548}],"postalCode":"10999","cc":"DE","city":"Berlin","state":"Berlin","country":"Germany","formattedAddress":["Reichenberger Str. 101 (Glogauer Str.)","10999 Berlin","Germany"]},"categories":[{"id":"4bf58dd8d48988d1e0931735","name":"Coffee Shop","pluralName":"Coffee Shops","shortName":"Coffee Shop","icon":{"prefix":"https:\/\/ss3.4sqi.net\/img\/categories_v2\/food\/coffeeshop_","suffix":".png"},"primary":true}],"verified":false,"stats":{"checkinsCount":6949,"usersCount":2792,"tipCount":328},"url":"http:\/\/www.fiveelephant.com","allowMenuUrlEdit":true,"beenHere":{"lastCheckinExpiredAt":0},"specials":{"count":0,"items":[]},"referralId":"v-1483291106","venueChains":[],"hasPerk":false},{"id":"5618df7d498e89360d919fc6","name":"CAMON Coffee","contact":{"facebook":"900191186717850","facebookName":"CAMON"},"location":{"address":"Sonnenallee 27","lat":52.48652953874885,"lng":13.429325474064326,"labeledLatLngs":[{"label":"display","lat":52.48652953874885,"lng":13.429325474064326}],"postalCode":"12047","cc":"DE","city":"Berlin","state":"Berlin","country":"Germany","formattedAddress":["Sonnenallee 27","12047 Berlin","Germany"]},"categories":[{"id":"4bf58dd8d48988d16d941735","name":"Café","pluralName":"Cafés","shortName":"Café","icon":{"prefix":"https:\/\/ss3.4sqi.net\/img\/categories_v2\/food\/cafe_","suffix":".png"},"primary":true}],"verified":false,"stats":{"checkinsCount":713,"usersCount":275,"tipCount":43},"url":"http:\/\/www.camoncoffee.de","allowMenuUrlEdit":true,"beenHere":{"lastCheckinExpiredAt":0},"specials":{"count":0,"items":[]},"referralId":"v-1483291106","venueChains":[],"hasPerk":false},{"id":"4c4d7b739932e21e9a3940cc","name":"Azzam","contact":{"phone":"+493030131541","formattedPhone":"+49 30 30131541"},"location":{"address":"Sonnenallee 54","lat":52.48496901052926,"lng":13.432958722114561,"labeledLatLngs":[{"label":"display","lat":52.48496901052926,"lng":13.432958722114561}],"postalCode":"12045","cc":"DE","city":"Berlin","state":"Berlin","country":"Germany","formattedAddress":["Sonnenallee 54","12045 Berlin","Germany"]},"categories":[{"id":"4bf58dd8d48988d115941735","name":"Middle Eastern Restaurant","pluralName":"Middle Eastern Restaurants","shortName":"Middle Eastern","icon":{"prefix":"https:\/\/ss3.4sqi.net\/img\/categories_v2\/food\/middleeastern_","suffix":".png"},"primary":true}],"verified":false,"stats":{"checkinsCount":1712,"usersCount":682,"tipCount":84},"allowMenuUrlEdit":true,"beenHere":{"lastCheckinExpiredAt":0},"specials":{"count":0,"items":[]},"referralId":"v-1483291106","venueChains":[],"hasPerk":false},{"id":"4bddb324e75c0f47f13dc503","name":"Hamy Cafe","contact":{"phone":"+49493061625959","formattedPhone":"+49 4930 61625959"},"location":{"address":"Hasenheide 10","lat":52.487265487895804,"lng":13.421940207481384,"labeledLatLngs":[{"label":"display","lat":52.487265487895804,"lng":13.421940207481384}],"postalCode":"10967","cc":"DE","city":"Berlin","state":"Berlin","country":"Germany","formattedAddress":["Hasenheide 10","10967 Berlin","Germany"]},"categories":[{"id":"4bf58dd8d48988d14a941735","name":"Vietnamese Restaurant","pluralName":"Vietnamese Restaurants","shortName":"Vietnamese","icon":{"prefix":"https:\/\/ss3.4sqi.net\/img\/categories_v2\/food\/vietnamese_","suffix":".png"},"primary":true}],"verified":false,"stats":{"checkinsCount":4725,"usersCount":1791,"tipCount":165},"url":"http:\/\/www.hamycafe.com","allowMenuUrlEdit":true,"beenHere":{"lastCheckinExpiredAt":0},"specials":{"count":0,"items":[]},"referralId":"v-1483291106","venueChains":[],"hasPerk":false},{"id":"4b472092f964a520b22b26e3","name":"Gel Gör Inegöl Köfteci","contact":{"phone":"+493069582753","formattedPhone":"+49 30 69582753"},"location":{"address":"Kottbusser Damm 80","lat":52.49156738524584,"lng":13.422932624816895,"labeledLatLngs":[{"label":"display","lat":52.49156738524584,"lng":13.422932624816895}],"postalCode":"10967","cc":"DE","city":"Berlin","state":"Berlin","country":"Germany","formattedAddress":["Kottbusser Damm 80","10967 Berlin","Germany"]},"categories":[{"id":"5283c7b4e4b094cb91ec88db","name":"Kofte Place","pluralName":"Kofte Places","shortName":"Kofte","icon":{"prefix":"https:\/\/ss3.4sqi.net\/img\/categories_v2\/food\/turkish_","suffix":".png"},"primary":true}],"verified":false,"stats":{"checkinsCount":2963,"usersCount":1094,"tipCount":62},"allowMenuUrlEdit":true,"beenHere":{"lastCheckinExpiredAt":0},"specials":{"count":0,"items":[]},"referralId":"v-1483291106","venueChains":[],"hasPerk":false},{"id":"53491b15498e25975c66a827","name":"The Bird","contact":{"phone":"+493061656777","formattedPhone":"+49 30 61656777","facebook":"1519018568323682","facebookUsername":"thebirdxberg","facebookName":"The Bird Xberg"},"location":{"address":"Kottbusser Damm 95","crossStreet":"Schinkestr.","lat":52.49408302197014,"lng":13.421648599849668,"labeledLatLngs":[{"label":"display","lat":52.49408302197014,"lng":13.421648599849668}],"postalCode":"10967","cc":"DE","city":"Berlin","state":"Berlin","country":"Germany","formattedAddress":["Kottbusser Damm 95 (Schinkestr.)","10967 Berlin","Germany"]},"categories":[{"id":"4bf58dd8d48988d16c941735","name":"Burger Joint","pluralName":"Burger Joints","shortName":"Burgers","icon":{"prefix":"https:\/\/ss3.4sqi.net\/img\/categories_v2\/food\/burger_","suffix":".png"},"primary":true}],"verified":true,"stats":{"checkinsCount":3978,"usersCount":2159,"tipCount":193},"url":"http:\/\/thebirdinxberg.com","allowMenuUrlEdit":true,"beenHere":{"lastCheckinExpiredAt":0},"specials":{"count":0,"items":[]},"venuePage":{"id":"92294768"},"referralId":"v-1483291106","venueChains":[{"id":"5568ec71a7c8a9cf8ec3899a"}],"hasPerk":false},{"id":"4fe1c467e4b0ec3854e2afc1","name":"Café Espera","contact":{},"location":{"address":"Sonnenallee 35","crossStreet":"Pannierstr.","lat":52.486049,"lng":13.43063,"labeledLatLngs":[{"label":"display","lat":52.486049,"lng":13.43063}],"postalCode":"12045","cc":"DE","city":"Berlin","state":"Berlin","country":"Germany","formattedAddress":["Sonnenallee 35 (Pannierstr.)","12045 Berlin","Germany"]},"categories":[{"id":"4bf58dd8d48988d1e0931735","name":"Coffee Shop","pluralName":"Coffee Shops","shortName":"Coffee Shop","icon":{"prefix":"https:\/\/ss3.4sqi.net\/img\/categories_v2\/food\/coffeeshop_","suffix":".png"},"primary":true}],"verified":false,"stats":{"checkinsCount":1501,"usersCount":380,"tipCount":41},"allowMenuUrlEdit":true,"beenHere":{"lastCheckinExpiredAt":0},"specials":{"count":0,"items":[]},"referralId":"v-1483291106","venueChains":[],"hasPerk":false},{"id":"5545177a498e423462e7345d","name":"Les Papilles","contact":{"phone":"+493062900763","formattedPhone":"+49 30 62900763"},"location":{"address":"Flughafenstr. 25","lat":52.481425307247314,"lng":13.430083942991514,"labeledLatLngs":[{"label":"display","lat":52.481425307247314,"lng":13.430083942991514}],"postalCode":"12053","cc":"DE","city":"Berlin","state":"Berlin","country":"Germany","formattedAddress":["Flughafenstr. 25","12053 Berlin","Germany"]},"categories":[{"id":"4bf58dd8d48988d10c941735","name":"French Restaurant","pluralName":"French Restaurants","shortName":"French","icon":{"prefix":"https:\/\/ss3.4sqi.net\/img\/categories_v2\/food\/french_","suffix":".png"},"primary":true}],"verified":false,"stats":{"checkinsCount":746,"usersCount":418,"tipCount":68},"allowMenuUrlEdit":true,"beenHere":{"lastCheckinExpiredAt":0},"specials":{"count":0,"items":[]},"referralId":"v-1483291106","venueChains":[],"hasPerk":false},{"id":"536b6592498eafda5caef40f","name":"Rixbox","contact":{},"location":{"lat":52.478969208141855,"lng":13.437874672729155,"labeledLatLngs":[{"label":"display","lat":52.478969208141855,"lng":13.437874672729155}],"cc":"DE","city":"Berlin","state":"Berlin","country":"Germany","formattedAddress":["Berlin","Germany"]},"categories":[{"id":"4bf58dd8d48988d1e0931735","name":"Coffee Shop","pluralName":"Coffee Shops","shortName":"Coffee Shop","icon":{"prefix":"https:\/\/ss3.4sqi.net\/img\/categories_v2\/food\/coffeeshop_","suffix":".png"},"primary":true}],"verified":false,"stats":{"checkinsCount":825,"usersCount":231,"tipCount":27},"allowMenuUrlEdit":true,"beenHere":{"lastCheckinExpiredAt":0},"specials":{"count":0,"items":[]},"referralId":"v-1483291106","venueChains":[],"hasPerk":false},{"id":"4b7597e3f964a520d3162ee3","name":"Villa Rixdorf","contact":{"phone":"+493068086000","formattedPhone":"+49 30 68086000"},"location":{"address":"Richardplatz 6","lat":52.47438251276264,"lng":13.444541216966536,"labeledLatLngs":[{"label":"display","lat":52.47438251276264,"lng":13.444541216966536}],"postalCode":"12055","cc":"DE","city":"Berlin","state":"Berlin","country":"Germany","formattedAddress":["Richardplatz 6","12055 Berlin","Germany"]},"categories":[{"id":"4bf58dd8d48988d10d941735","name":"German Restaurant","pluralName":"German Restaurants","shortName":"German","icon":{"prefix":"https:\/\/ss3.4sqi.net\/img\/categories_v2\/food\/german_","suffix":".png"},"primary":true}],"verified":false,"stats":{"checkinsCount":1050,"usersCount":645,"tipCount":26},"url":"http:\/\/www.villa-rixdorf.com","allowMenuUrlEdit":true,"beenHere":{"lastCheckinExpiredAt":0},"specials":{"count":0,"items":[]},"referralId":"v-1483291106","venueChains":[],"hasPerk":false},{"id":"4d67e558f23f37048debcd33","name":"Imren","contact":{},"location":{"address":"Karl-Marx-Str. 75","lat":52.481963482069744,"lng":13.433393239974976,"labeledLatLngs":[{"label":"display","lat":52.481963482069744,"lng":13.433393239974976}],"postalCode":"12053","cc":"DE","neighborhood":"Neukölln","city":"Berlin","state":"Berlin","country":"Germany","formattedAddress":["Karl-Marx-Str. 75","12053 Berlin","Germany"]},"categories":[{"id":"4f04af1f2fb6e1c99f3db0bb","name":"Turkish Restaurant","pluralName":"Turkish Restaurants","shortName":"Turkish","icon":{"prefix":"https:\/\/ss3.4sqi.net\/img\/categories_v2\/food\/turkish_","suffix":".png"},"primary":true}],"verified":false,"stats":{"checkinsCount":1555,"usersCount":571,"tipCount":34},"allowMenuUrlEdit":true,"beenHere":{"lastCheckinExpiredAt":0},"specials":{"count":0,"items":[]},"referralId":"v-1483291106","venueChains":[],"hasPerk":false},{"id":"52da57eb11d289d9041e87ab","name":"Roamers","contact":{"facebook":"138273719634671","facebookUsername":"RoamersBerlin","facebookName":"Roamers"},"location":{"address":"Pannierstr. 64","crossStreet":"Donaustr.","lat":52.48549169016978,"lng":13.429348468780518,"labeledLatLngs":[{"label":"display","lat":52.48549169016978,"lng":13.429348468780518}],"postalCode":"12047","cc":"DE","city":"Berlin","state":"Berlin","country":"Germany","formattedAddress":["Pannierstr. 64 (Donaustr.)","12047 Berlin","Germany"]},"categories":[{"id":"4bf58dd8d48988d1e0931735","name":"Coffee Shop","pluralName":"Coffee Shops","shortName":"Coffee Shop","icon":{"prefix":"https:\/\/ss3.4sqi.net\/img\/categories_v2\/food\/coffeeshop_","suffix":".png"},"primary":true}],"verified":false,"stats":{"checkinsCount":2208,"usersCount":1197,"tipCount":204},"url":"http:\/\/roamersberlin.tumblr.com","allowMenuUrlEdit":true,"beenHere":{"lastCheckinExpiredAt":0},"specials":{"count":0,"items":[]},"referralId":"v-1483291106","venueChains":[],"hasPerk":false},{"id":"4da44c7922a5f04db7383555","name":"Al Andalos","contact":{"phone":"+4917679799898","formattedPhone":"+49 176 79799898"},"location":{"address":"Sonnenallee 40","lat":52.485698379565015,"lng":13.431312872750633,"labeledLatLngs":[{"label":"display","lat":52.485698379565015,"lng":13.431312872750633}],"postalCode":"12047","cc":"DE","city":"Berlin","state":"Berlin","country":"Germany","formattedAddress":["Sonnenallee 40","12047 Berlin","Germany"]},"categories":[{"id":"4bf58dd8d48988d10b941735","name":"Falafel Restaurant","pluralName":"Falafel Restaurants","shortName":"Falafel","icon":{"prefix":"https:\/\/ss3.4sqi.net\/img\/categories_v2\/food\/falafel_","suffix":".png"},"primary":true}],"verified":false,"stats":{"checkinsCount":1002,"usersCount":520,"tipCount":66},"allowMenuUrlEdit":true,"beenHere":{"lastCheckinExpiredAt":0},"specials":{"count":0,"items":[]},"referralId":"v-1483291106","venueChains":[],"hasPerk":false},{"id":"56c859ce498e4246a80cdaf0","name":"Populus Coffee","contact":{"phone":"+491729884176","formattedPhone":"+49 172 9884176","facebook":"1145470145469877","facebookUsername":"populuscoffee","facebookName":"Populus Coffee"},"location":{"address":"Maybachufer 20","crossStreet":"Bürknerstr.","lat":52.493810260799115,"lng":13.427250173715352,"labeledLatLngs":[{"label":"display","lat":52.493810260799115,"lng":13.427250173715352}],"postalCode":"12045","cc":"DE","city":"Berlin","state":"Berlin","country":"Germany","formattedAddress":["Maybachufer 20 (Bürknerstr.)","12045 Berlin","Germany"]},"categories":[{"id":"4bf58dd8d48988d1e0931735","name":"Coffee Shop","pluralName":"Coffee Shops","shortName":"Coffee Shop","icon":{"prefix":"https:\/\/ss3.4sqi.net\/img\/categories_v2\/food\/coffeeshop_","suffix":".png"},"primary":true}],"verified":false,"stats":{"checkinsCount":513,"usersCount":260,"tipCount":49},"url":"http:\/\/www.populuscoffee.de","allowMenuUrlEdit":true,"beenHere":{"lastCheckinExpiredAt":0},"specials":{"count":0,"items":[]},"referralId":"v-1483291106","venueChains":[],"hasPerk":false},{"id":"53484a7111d2a904ff37ee82","name":"Twinpigs","contact":{"facebook":"250543855131040","facebookName":"Twinpigs"},"location":{"address":"Boddinstr. 57a","crossStreet":"Isarstr","lat":52.480623995630594,"lng":13.431936800479889,"labeledLatLngs":[{"label":"display","lat":52.480623995630594,"lng":13.431936800479889}],"postalCode":"12057","cc":"DE","neighborhood":"Neukölln, Berlin","city":"Berlin","state":"Berlin","country":"Germany","formattedAddress":["Boddinstr. 57a (Isarstr)","12057 Berlin","Germany"]},"categories":[{"id":"4bf58dd8d48988d11e941735","name":"Cocktail Bar","pluralName":"Cocktail Bars","shortName":"Cocktail","icon":{"prefix":"https:\/\/ss3.4sqi.net\/img\/categories_v2\/nightlife\/cocktails_","suffix":".png"},"primary":true}],"verified":true,"stats":{"checkinsCount":1195,"usersCount":708,"tipCount":59},"allowMenuUrlEdit":true,"beenHere":{"lastCheckinExpiredAt":0},"specials":{"count":0,"items":[]},"venuePage":{"id":"126342569"},"referralId":"v-1483291106","venueChains":[],"hasPerk":false},{"id":"4dd276db6365cd4836e36195","name":"Katie's Blue Cat","contact":{"phone":"+493062903380","formattedPhone":"+49 30 62903380","twitter":"katiesbluecat","facebook":"177161835665911","facebookUsername":"katiesbluecat","facebookName":"Katies Blue Cat"},"location":{"address":"Friedelstr. 31","lat":52.49300615678012,"lng":13.428146839141844,"labeledLatLngs":[{"label":"display","lat":52.49300615678012,"lng":13.428146839141844}],"postalCode":"12047","cc":"DE","city":"Berlin","state":"Berlin","country":"Germany","formattedAddress":["Friedelstr. 31","12047 Berlin","Germany"]},"categories":[{"id":"4bf58dd8d48988d1e0931735","name":"Coffee Shop","pluralName":"Coffee Shops","shortName":"Coffee Shop","icon":{"prefix":"https:\/\/ss3.4sqi.net\/img\/categories_v2\/food\/coffeeshop_","suffix":".png"},"primary":true}],"verified":false,"stats":{"checkinsCount":4677,"usersCount":1546,"tipCount":180},"url":"http:\/\/www.katiesbluecat.de","allowMenuUrlEdit":true,"beenHere":{"lastCheckinExpiredAt":0},"specials":{"count":0,"items":[]},"referralId":"v-1483291106","venueChains":[],"hasPerk":false},{"id":"4e184e9714957dc705d59a21","name":"KaffeeBar","contact":{"facebook":"234575506566411","facebookUsername":"kaffeebar","facebookName":"KaffeeBar Jenseits des Kanals"},"location":{"address":"Graefestr. 8","lat":52.49425613093274,"lng":13.418726109687107,"labeledLatLngs":[{"label":"display","lat":52.49425613093274,"lng":13.418726109687107}],"postalCode":"10967","cc":"DE","neighborhood":"Kreuzberg, Berlin","city":"Berlin","state":"Berlin","country":"Germany","formattedAddress":["Graefestr. 8","10967 Berlin","Germany"]},"categories":[{"id":"4bf58dd8d48988d16d941735","name":"Café","pluralName":"Cafés","shortName":"Café","icon":{"prefix":"https:\/\/ss3.4sqi.net\/img\/categories_v2\/food\/cafe_","suffix":".png"},"primary":true}],"verified":false,"stats":{"checkinsCount":3111,"usersCount":1077,"tipCount":95},"url":"http:\/\/www.kaffeebar-berlin.com","allowMenuUrlEdit":true,"beenHere":{"lastCheckinExpiredAt":0},"specials":{"count":0,"items":[]},"referralId":"v-1483291106","venueChains":[],"hasPerk":false},{"id":"579c577a498e2db2e1537e08","name":"Isla Coffee Berlin","contact":{"facebook":"1737605803159815","facebookName":"Isla Coffee Berlin"},"location":{"address":"Hermannstr. 37","lat":52.480461,"lng":13.424888,"labeledLatLngs":[{"label":"display","lat":52.480461,"lng":13.424888}],"postalCode":"12049","cc":"DE","city":"Berlin","state":"Berlin","country":"Germany","formattedAddress":["Hermannstr. 37","12049 Berlin","Germany"]},"categories":[{"id":"4bf58dd8d48988d16d941735","name":"Café","pluralName":"Cafés","shortName":"Café","icon":{"prefix":"https:\/\/ss3.4sqi.net\/img\/categories_v2\/food\/cafe_","suffix":".png"},"primary":true}],"verified":false,"stats":{"checkinsCount":91,"usersCount":58,"tipCount":8},"allowMenuUrlEdit":true,"beenHere":{"lastCheckinExpiredAt":0},"specials":{"count":0,"items":[]},"referralId":"v-1483291106","venueChains":[],"hasPerk":false},{"id":"52fdfc0e11d28d69387af1bc","name":"Le Bon","contact":{"phone":"+493063420794","formattedPhone":"+49 30 63420794","facebook":"596147327146697","facebookUsername":"lebonberlin","facebookName":"Le Bon"},"location":{"address":"Boppstr. 1","lat":52.491177905180066,"lng":13.420519317415158,"labeledLatLngs":[{"label":"display","lat":52.491177905180066,"lng":13.420519317415158}],"postalCode":"10967","cc":"DE","city":"Berlin","state":"Berlin","country":"Germany","formattedAddress":["Boppstr. 1","10967 Berlin","Germany"]},"categories":[{"id":"4bf58dd8d48988d157941735","name":"New American Restaurant","pluralName":"New American Restaurants","shortName":"New American","icon":{"prefix":"https:\/\/ss3.4sqi.net\/img\/categories_v2\/food\/newamerican_","suffix":".png"},"primary":true}],"verified":false,"stats":{"checkinsCount":1478,"usersCount":736,"tipCount":73},"url":"http:\/\/www.lebon-berlin.com","menu":{"type":"Menu","label":"Menu","anchor":"View Menu","url":"http:\/\/lebon-berlin.com\/LeBon_Speisen.pdf","mobileUrl":"http:\/\/lebon-berlin.com\/LeBon_Speisen.pdf","externalUrl":"http:\/\/lebon-berlin.com\/LeBon_Speisen.pdf"},"allowMenuUrlEdit":true,"beenHere":{"lastCheckinExpiredAt":0},"specials":{"count":0,"items":[]},"referralId":"v-1483291106","venueChains":[],"hasPerk":false},{"id":"4bb252412397b7135ddb36b3","name":"Masaniello","contact":{"phone":"+49306926657","formattedPhone":"+49 30 6926657"},"location":{"address":"Hasenheide 20","crossStreet":"Jahnstr.","lat":52.487729,"lng":13.4192955493927,"labeledLatLngs":[{"label":"display","lat":52.487729,"lng":13.4192955493927}],"postalCode":"10967","cc":"DE","city":"Berlin","state":"Berlin","country":"Germany","formattedAddress":["Hasenheide 20 (Jahnstr.)","10967 Berlin","Germany"]},"categories":[{"id":"4bf58dd8d48988d1ca941735","name":"Pizza Place","pluralName":"Pizza Places","shortName":"Pizza","icon":{"prefix":"https:\/\/ss3.4sqi.net\/img\/categories_v2\/food\/pizza_","suffix":".png"},"primary":true}],"verified":false,"stats":{"checkinsCount":2809,"usersCount":1353,"tipCount":176},"url":"http:\/\/www.masaniello.de","allowMenuUrlEdit":true,"beenHere":{"lastCheckinExpiredAt":0},"specials":{"count":0,"items":[]},"referralId":"v-1483291106","venueChains":[],"hasPerk":false},{"id":"4c3df96cb8b4be9a3f7ccbef","name":"Berlin Burger International","contact":{"phone":"+491785407409","formattedPhone":"+49 178 5407409"},"location":{"address":"Pannierstr. 5","lat":52.48653568238927,"lng":13.430586338042792,"labeledLatLngs":[{"label":"display","lat":52.48653568238927,"lng":13.430586338042792}],"postalCode":"12047","cc":"DE","city":"Berlin","state":"Berlin","country":"Germany","formattedAddress":["Pannierstr. 5","12047 Berlin","Germany"]},"categories":[{"id":"4bf58dd8d48988d16c941735","name":"Burger Joint","pluralName":"Burger Joints","shortName":"Burgers","icon":{"prefix":"https:\/\/ss3.4sqi.net\/img\/categories_v2\/food\/burger_","suffix":".png"},"primary":true}],"verified":false,"stats":{"checkinsCount":5157,"usersCount":2940,"tipCount":307},"url":"http:\/\/www.berlinburgerinternational.com","allowMenuUrlEdit":true,"beenHere":{"lastCheckinExpiredAt":0},"specials":{"count":0,"items":[]},"referralId":"v-1483291106","venueChains":[],"hasPerk":false},{"id":"4c332f30213c2d7fee7a365d","name":"La Femme","contact":{"phone":"+493053604057","formattedPhone":"+49 30 53604057","facebook":"161814803900462","facebookUsername":"lafemmebreakfastlunch","facebookName":"La Femme Kreuzberg"},"location":{"address":"Kottbusser Damm 77","crossStreet":"Pflügerstr.","lat":52.491005581993285,"lng":13.423683643341064,"labeledLatLngs":[{"label":"display","lat":52.491005581993285,"lng":13.423683643341064}],"postalCode":"10967","cc":"DE","city":"Berlin","state":"Berlin","country":"Germany","formattedAddress":["Kottbusser Damm 77 (Pflügerstr.)","10967 Berlin","Germany"]},"categories":[{"id":"4bf58dd8d48988d16d941735","name":"Café","pluralName":"Cafés","shortName":"Café","icon":{"prefix":"https:\/\/ss3.4sqi.net\/img\/categories_v2\/food\/cafe_","suffix":".png"},"primary":true}],"verified":false,"stats":{"checkinsCount":1830,"usersCount":1014,"tipCount":44},"url":"http:\/\/www.lafemme-breakfast.de","allowMenuUrlEdit":true,"beenHere":{"lastCheckinExpiredAt":0},"specials":{"count":0,"items":[]},"referralId":"v-1483291106","venueChains":[],"hasPerk":false},{"id":"4d039544a26854810d9fb2bd","name":"Geschwister Nothaft Coffee","contact":{"phone":"+491637745767","formattedPhone":"+49 163 7745767","facebook":"155979777769508","facebookUsername":"cafe.nothaft","facebookName":"Geschwister Nothaft Cafe"},"location":{"address":"Schwarzastr. 9","lat":52.472842239642716,"lng":13.455037919928408,"labeledLatLngs":[{"label":"display","lat":52.472842239642716,"lng":13.455037919928408}],"postalCode":"12055","cc":"DE","city":"Berlin","state":"Berlin","country":"Germany","formattedAddress":["Schwarzastr. 9","12055 Berlin","Germany"]},"categories":[{"id":"4bf58dd8d48988d1e0931735","name":"Coffee Shop","pluralName":"Coffee Shops","shortName":"Coffee Shop","icon":{"prefix":"https:\/\/ss3.4sqi.net\/img\/categories_v2\/food\/coffeeshop_","suffix":".png"},"primary":true}],"verified":false,"stats":{"checkinsCount":1288,"usersCount":372,"tipCount":43},"allowMenuUrlEdit":true,"beenHere":{"lastCheckinExpiredAt":0},"specials":{"count":0,"items":[]},"referralId":"v-1483291106","venueChains":[],"hasPerk":false},{"id":"532c7376498e942032524b68","name":"MEN MEN","contact":{"phone":"+493074786199","formattedPhone":"+49 30 74786199","facebook":"495565967232397","facebookUsername":"menmennoodle","facebookName":"Men Men"},"location":{"address":"Weserstr. 16","lat":52.48736628063027,"lng":13.43144304761208,"labeledLatLngs":[{"label":"display","lat":52.48736628063027,"lng":13.43144304761208}],"postalCode":"12047","cc":"DE","city":"Berlin","state":"Berlin","country":"Germany","formattedAddress":["Weserstr. 16","12047 Berlin","Germany"]},"categories":[{"id":"55a59bace4b013909087cb24","name":"Ramen Restaurant","pluralName":"Ramen Restaurants","shortName":"Ramen","icon":{"prefix":"https:\/\/ss3.4sqi.net\/img\/categories_v2\/food\/ramen_","suffix":".png"},"primary":true}],"verified":false,"stats":{"checkinsCount":1210,"usersCount":759,"tipCount":83},"url":"http:\/\/www.menmen-ramen.de","allowMenuUrlEdit":true,"beenHere":{"lastCheckinExpiredAt":0},"specials":{"count":0,"items":[]},"referralId":"v-1483291106","venueChains":[],"hasPerk":false},{"id":"4fb6591ee4b00ae0529a30c9","name":"Villa Neukölln","contact":{},"location":{"address":"Hermannstr. 233","crossStreet":"Biebricherstr.","lat":52.482028888980096,"lng":13.424822709632169,"labeledLatLngs":[{"label":"display","lat":52.482028888980096,"lng":13.424822709632169}],"postalCode":"12049","cc":"DE","city":"Berlin","state":"Berlin","country":"Germany","formattedAddress":["Hermannstr. 233 (Biebricherstr.)","12049 Berlin","Germany"]},"categories":[{"id":"4bf58dd8d48988d16d941735","name":"Café","pluralName":"Cafés","shortName":"Café","icon":{"prefix":"https:\/\/ss3.4sqi.net\/img\/categories_v2\/food\/cafe_","suffix":".png"},"primary":true}],"verified":false,"stats":{"checkinsCount":1106,"usersCount":644,"tipCount":14},"allowMenuUrlEdit":true,"beenHere":{"lastCheckinExpiredAt":0},"specials":{"count":0,"items":[]},"referralId":"v-1483291106","venueChains":[],"hasPerk":false},{"id":"526b9c4e11d2ef13bf80f997","name":"Prachtwerk","contact":{"phone":"+4917661474750","formattedPhone":"+49 176 61474750","twitter":"pwberlin"},"location":{"address":"Ganghoferstr. 2","lat":52.47916318915233,"lng":13.43857278313865,"labeledLatLngs":[{"label":"display","lat":52.47916318915233,"lng":13.43857278313865}],"postalCode":"12043","cc":"DE","city":"Berlin","state":"Berlin","country":"Germany","formattedAddress":["Ganghoferstr. 2","12043 Berlin","Germany"]},"categories":[{"id":"4bf58dd8d48988d16d941735","name":"Café","pluralName":"Cafés","shortName":"Café","icon":{"prefix":"https:\/\/ss3.4sqi.net\/img\/categories_v2\/food\/cafe_","suffix":".png"},"primary":true}],"verified":false,"stats":{"checkinsCount":1202,"usersCount":627,"tipCount":55},"url":"http:\/\/prachtwerkberlin.com","allowMenuUrlEdit":true,"beenHere":{"lastCheckinExpiredAt":0},"specials":{"count":0,"items":[]},"referralId":"v-1483291106","venueChains":[],"hasPerk":false},{"id":"4c0cedd9d64c0f47a3dd255d","name":"Tung Long","contact":{"phone":"+493062900908","formattedPhone":"+49 30 62900908"},"location":{"address":"Karl-Marx-Str. 59","lat":52.482732,"lng":13.432219,"labeledLatLngs":[{"label":"display","lat":52.482732,"lng":13.432219}],"postalCode":"12043","cc":"DE","city":"Berlin","state":"Berlin","country":"Germany","formattedAddress":["Karl-Marx-Str. 59","12043 Berlin","Germany"]},"categories":[{"id":"4bf58dd8d48988d14a941735","name":"Vietnamese Restaurant","pluralName":"Vietnamese Restaurants","shortName":"Vietnamese","icon":{"prefix":"https:\/\/ss3.4sqi.net\/img\/categories_v2\/food\/vietnamese_","suffix":".png"},"primary":true}],"verified":false,"stats":{"checkinsCount":1902,"usersCount":700,"tipCount":50},"allowMenuUrlEdit":true,"beenHere":{"lastCheckinExpiredAt":0},"specials":{"count":0,"items":[]},"referralId":"v-1483291106","venueChains":[],"hasPerk":false},{"id":"4bd89e6d11dcc9287f11f733","name":"Tabibito","contact":{"phone":"+49306241345","formattedPhone":"+49 30 6241345"},"location":{"address":"Karl-Marx-Str. 56","lat":52.48283249292248,"lng":13.43151569366455,"labeledLatLngs":[{"label":"display","lat":52.48283249292248,"lng":13.43151569366455}],"postalCode":"12043","cc":"DE","city":"Berlin","state":"Berlin","country":"Germany","formattedAddress":["Karl-Marx-Str. 56","12043 Berlin","Germany"]},"categories":[{"id":"4bf58dd8d48988d1d2941735","name":"Sushi Restaurant","pluralName":"Sushi Restaurants","shortName":"Sushi","icon":{"prefix":"https:\/\/ss3.4sqi.net\/img\/categories_v2\/food\/sushi_","suffix":".png"},"primary":true}],"verified":false,"stats":{"checkinsCount":1398,"usersCount":606,"tipCount":60},"allowMenuUrlEdit":true,"beenHere":{"lastCheckinExpiredAt":0},"specials":{"count":0,"items":[]},"referralId":"v-1483291106","venueChains":[],"hasPerk":false},{"id":"54947dfe498e91fedc33ed21","name":"Beuster Bar","contact":{"phone":"+493041959780","formattedPhone":"+49 30 41959780","facebook":"321524508041637","facebookUsername":"beusterbar","facebookName":"Beuster"},"location":{"address":"Weserstrasse 32","crossStreet":"Weichselstrasse","lat":52.485993130112625,"lng":13.435383439064024,"labeledLatLngs":[{"label":"display","lat":52.485993130112625,"lng":13.435383439064024}],"postalCode":"12045","cc":"DE","city":"Berlin","state":"Berlin","country":"Germany","formattedAddress":["Weserstrasse 32 (Weichselstrasse)","12045 Berlin","Germany"]},"categories":[{"id":"4bf58dd8d48988d11e941735","name":"Cocktail Bar","pluralName":"Cocktail Bars","shortName":"Cocktail","icon":{"prefix":"https:\/\/ss3.4sqi.net\/img\/categories_v2\/nightlife\/cocktails_","suffix":".png"},"primary":true}],"verified":false,"stats":{"checkinsCount":646,"usersCount":428,"tipCount":25},"url":"http:\/\/www.beusterbar.com","allowMenuUrlEdit":true,"beenHere":{"lastCheckinExpiredAt":0},"specials":{"count":0,"items":[]},"referralId":"v-1483291106","venueChains":[],"hasPerk":false},{"id":"4e99a92129c274e1f93b247c","name":"Gözleme Restaurant","contact":{"phone":"+49306134134","formattedPhone":"+49 30 6134134"},"location":{"address":"Karl-Marx-Straße 35","lat":52.48414109363167,"lng":13.429210005051841,"labeledLatLngs":[{"label":"display","lat":52.48414109363167,"lng":13.429210005051841}],"cc":"DE","city":"Berlin","state":"Berlin","country":"Germany","formattedAddress":["Karl-Marx-Straße 35","Berlin","Germany"]},"categories":[{"id":"4f04af1f2fb6e1c99f3db0bb","name":"Turkish Restaurant","pluralName":"Turkish Restaurants","shortName":"Turkish","icon":{"prefix":"https:\/\/ss3.4sqi.net\/img\/categories_v2\/food\/turkish_","suffix":".png"},"primary":true}],"verified":false,"stats":{"checkinsCount":360,"usersCount":241,"tipCount":22},"allowMenuUrlEdit":true,"beenHere":{"lastCheckinExpiredAt":0},"specials":{"count":0,"items":[]},"referralId":"v-1483291106","venueChains":[],"hasPerk":false}]}}