{"meta":{"code":200,"requestId":"586939e34c1f676cb4cbc60c"},"response":{"venues":[{"id":"4af5697df964a52014f921e3","name":"Mustafas Gemüse Kebap","contact":{"facebook":"99281434765","facebookUsername":"mustafasgemuesekebap","facebookName":"The Real Mustafa's Gemüse Kebap"},"location":{"address":"Mehringdamm 32-34","lat":52.49381779259905,"lng":13.388020992279053,"labeledLatLngs":[{"label":"display","lat":52.49381779259905,"lng":13.388020992279053}],"postalCode":"10961","cc":"DE","city":"Berlin","state":"Berlin","country":"Germany","formattedAddress":["Mehringdamm 32-34","10961 Berlin","Germany"]},"categories":[{"id":"5283c7b4e4b094cb91ec88d8","name":"Doner Restaurant","pluralName":"Doner Restaurants","shortName":"Doner","icon":{"prefix":"https:\/\/ss3.4sqi.net\/img\/categories_v2\/food\/turkish_","suffix":".png"},"primary":true}],"verified":false,"stats":{"checkinsCount":9101,"usersCount":6507,"tipCount":441},"url":"http:\/\/www.mustafas.de","allowMenuUrlEdit":true,"beenHere":{"lastCheckinExpiredAt":0},"specials":{"count":0,"items":[]},"referralId":"v-1483291107","venueChains":[],"hasPerk":false},{"id":"4adcda91f964a520744b21e3","name":"Marheineke Markthalle","contact":{"phone":"+493061286146","formattedPhone":"+49 30 61286146"},"location":{"address":"Marheinekeplatz","lat":52.489252,"lng":13.394498,"labeledLatLngs":[{"label":"display","lat":52.489252,"lng":13.394498}],"postalCode":"10961","cc":"DE","city":"Berlin","state":"Berlin","country":"Germany","formattedAddress":["Marheinekeplatz","10961 Berlin","Germany"]},"categories":[{"id":"50be8ee891d4fa8dcc7199a7","name":"Market","pluralName":"Markets","shortName":"Market","icon":{"prefix":"https:\/\/ss3.4sqi.net\/img\/categories_v2\/shops\/market_","suffix":".png"},"primary":true}],"verified":false,"stats":{"checkinsCount":8080,"usersCount":2420,"tipCount":69},"url":"http:\/\/www.meine-markthalle.de","allowMenuUrlEdit":true,"beenHere":{"lastCheckinExpiredAt":0},"specials":{"count":0,"items":[]},"referralId":"v-1483291107","venueChains":[],"hasPerk":false},{"id":"4adf6065f964a520097a21e3","name":"Curry 36","contact":{"phone":"+49302517368","formattedPhone":"+49 30 2517368"},"location":{"address":"Mehringdamm 36","lat":52.49338993011078,"lng":13.387742042541502,"labeledLatLngs":[{"label":"display","lat":52.49338993011078,"lng":13.387742042541502}],"postalCode":"10961","cc":"DE","city":"Berlin","state":"Berlin","country":"Germany","formattedAddress":["Mehringdamm 36","10961 Berlin","Germany"]},"categories":[{"id":"56aa371ce4b08b9a8d57358b","name":"Currywurst Joint","pluralName":"Currywurst Joints","shortName":"Currywurst","icon":{"prefix":"https:\/\/ss3.4sqi.net\/img\/categories_v2\/food\/bbqalt_","suffix":".png"},"primary":true}],"verified":true,"stats":{"checkinsCount":8227,"usersCount":5386,"tipCount":238},"url":"http:\/\/curry36.de","allowMenuUrlEdit":true,"beenHere":{"lastCheckinExpiredAt":0},"specials":{"count":0,"items":[]},"referralId":"v-1483291107","venueChains":[{"id":"5568ed3ca7c8a9cf8ec3a187"}],"hasPerk":false},{"id":"56f146ae498e0070cc29e1d8","name":"UMAMI","contact":{"phone":"+493068325085","formattedPhone":"+49 30 68325085"},"location":{"address":"Bergmannstr. 97","lat":52.489559720436844,"lng":13.390985860706293,"labeledLatLngs":[{"label":"display","lat":52.489559720436844,"lng":13.390985860706293}],"postalCode":"10961","cc":"DE","city":"Berlin","state":"Berlin","country":"Germany","formattedAddress":["Bergmannstr. 97","10961 Berlin","Germany"]},"categories":[{"id":"4bf58dd8d48988d14a941735","name":"Vietnamese Restaurant","pluralName":"Vietnamese Restaurants","shortName":"Vietnamese","icon":{"prefix":"https:\/\/ss3.4sqi.net\/img\/categories_v2\/food\/vietnamese_","suffix":".png"},"primary":true}],"verified":false,"stats":{"checkinsCount":680,"usersCount":407,"tipCount":44},"url":"http:\/\/xberg.umami-restaurant.de","menu":{"type":"Menu","label":"Menu","anchor":"View Menu","url":"http:\/\/xberg.umami-restaurant.de\/UMAMI_Speisekarte-Speisen.pdf","mobileUrl":"http:\/\/xberg.umami-restaurant.de\/UMAMI_Speisekarte-Speisen.pdf","externalUrl":"http:\/\/xberg.umami-restaurant.de\/UMAMI_Speisekarte-Speisen.pdf"},"allowMenuUrlEdit":true,"beenHere":{"lastCheckinExpiredAt":0},"specials":{"count":0,"items":[]},"referralId":"v-1483291107","venueChains":[],"hasPerk":false},{"id":"4b506d57f964a520fe2227e3","name":"DoubleEye","contact":{"phone":"+491794566960","formattedPhone":"+49 179 4566960","facebook":"160103304009300","facebookName":"DoubleEye"},"location":{"address":"Akazienstr. 22","lat":52.48808539600374,"lng":13.354010581970215,"labeledLatLngs":[{"label":"display","lat":52.48808539600374,"lng":13.354010581970215}],"postalCode":"10823","cc":"DE","city":"Berlin","state":"Berlin","country":"Germany","formattedAddress":["Akazienstr. 22","10823 Berlin","Germany"]},"categories":[{"id":"4bf58dd8d48988d1e0931735","name":"Coffee Shop","pluralName":"Coffee Shops","shortName":"Coffee Shop","icon":{"prefix":"https:\/\/ss3.4sqi.net\/img\/categories_v2\/food\/coffeeshop_","suffix":".png"},"primary":true}],"verified":false,"stats":{"checkinsCount":4167,"usersCount":861,"tipCount":104},"url":"http:\/\/doubleeye.de","allowMenuUrlEdit":true,"beenHere":{"lastCheckinExpiredAt":0},"specials":{"count":0,"items":[]},"referralId":"v-1483291107","venueChains":[],"hasPerk":false},{"id":"5057650de4b0d070fdec8fe0","name":"Amici Amici","contact":{"phone":"+493074684121","formattedPhone":"+49 30 74684121","facebook":"165377943486341","facebookName":"Amici Amici"},"location":{"address":"Mehringdamm 40","lat":52.49268367070118,"lng":13.387420657617888,"labeledLatLngs":[{"label":"display","lat":52.49268367070118,"lng":13.387420657617888}],"postalCode":"10961","cc":"DE","city":"Berlin","state":"Berlin","country":"Germany","formattedAddress":["Mehringdamm 40","10961 Berlin","Germany"]},"categories":[{"id":"55a5a1ebe4b013909087cb7f","name":"Trattoria\/Osteria","pluralName":"Trattorias\/Osterias","shortName":"Trattoria\/Osteria","icon":{"prefix":"https:\/\/ss3.4sqi.net\/img\/categories_v2\/food\/italian_","suffix":".png"},"primary":true}],"verified":false,"stats":{"checkinsCount":2511,"usersCount":1101,"tipCount":72},"url":"http:\/\/www.amici-amici.de","allowMenuUrlEdit":true,"beenHere":{"lastCheckinExpiredAt":0},"specials":{"count":0,"items":[]},"referralId":"v-1483291107","venueChains":[],"hasPerk":false},{"id":"5604326e498e3a95f6711614","name":"Dolden Mädel","contact":{"phone":"+493077326213","formattedPhone":"+49 30 77326213","facebook":"685964101505415","facebookName":"Dolden Mädel Braugasthaus"},"location":{"address":"Mehringdamm 80","lat":52.48958938461144,"lng":13.38621026781668,"labeledLatLngs":[{"label":"display","lat":52.48958938461144,"lng":13.38621026781668}],"postalCode":"10965","cc":"DE","city":"Berlin","state":"Berlin","country":"Germany","formattedAddress":["Mehringdamm 80","10965 Berlin","Germany"]},"categories":[{"id":"50327c8591d4c4b30a586d5d","name":"Brewery","pluralName":"Breweries","shortName":"Brewery","icon":{"prefix":"https:\/\/ss3.4sqi.net\/img\/categories_v2\/food\/brewery_","suffix":".png"},"primary":true}],"verified":false,"stats":{"checkinsCount":1011,"usersCount":679,"tipCount":32},"url":"http:\/\/www.doldenmaedel.de","allowMenuUrlEdit":true,"beenHere":{"lastCheckinExpiredAt":0},"specials":{"count":0,"items":[]},"referralId":"v-1483291107","venueChains":[],"hasPerk":false},{"id":"4eea5e33a17ce863c4d4c3d3","name":"Chapter One","contact":{"phone":"+493025922799","formattedPhone":"+49 30 25922799","facebook":"238497122875204","facebookName":"Chapter One Coffee Berlin"},"location":{"address":"Mittenwalder Str. 30","lat":52.4897447648475,"lng":13.39581549167633,"labeledLatLngs":[{"label":"display","lat":52.4897447648475,"lng":13.39581549167633}],"postalCode":"10961","cc":"DE","city":"Berlin","state":"Berlin","country":"Germany","formattedAddress":["Mittenwalder Str. 30","10961 Berlin","Germany"]},"categories":[{"id":"4bf58dd8d48988d1e0931735","name":"Coffee Shop","pluralName":"Coffee Shops","shortName":"Coffee Shop","icon":{"prefix":"https:\/\/ss3.4sqi.net\/img\/categories_v2\/food\/coffeeshop_","suffix":".png"},"primary":true}],"verified":false,"stats":{"checkinsCount":3530,"usersCount":1141,"tipCount":125},"url":"http:\/\/www.chapter-one-coffee.com","allowMenuUrlEdit":true,"beenHere":{"lastCheckinExpiredAt":0},"specials":{"count":0,"items":[]},"referralId":"v-1483291107","venueChains":[],"hasPerk":false},{"id":"53caabfe498e2b622e243cc9","name":"Stone Brewing World Bistro & Gardens","contact":{"phone":"+493076809315","formattedPhone":"+49 30 76809315","twitter":"stoneberlin","facebook":"1399756180348033","facebookUsername":"StoneBrewingBerlin","facebookName":"Stone Brewing Berlin"},"location":{"address":"Im Marienpark 23","crossStreet":"Altes Gaswerk Mariendorf","lat":52.438013595324904,"lng":13.368312120437622,"labeledLatLngs":[{"label":"display","lat":52.438013595324904,"lng":13.368312120437622}],"postalCode":"12107","cc":"DE","neighborhood":"Mariendorf","city":"Berlin","state":"Berlin","country":"Germany","formattedAddress":["Im Marienpark 23 (Altes Gaswerk Mariendorf)","12107 Berlin","Germany"]},"categories":[{"id":"50327c8591d4c4b30a586d5d","name":"Brewery","pluralName":"Breweries","shortName":"Brewery","icon":{"prefix":"https:\/\/ss3.4sqi.net\/img\/categories_v2\/food\/brewery_","suffix":".png"},"primary":true}],"verified":false,"stats":{"checkinsCount":506,"usersCount":357,"tipCount":27},"url":"http:\/\/www.stonebrewing.eu","hasMenu":true,"menu":{"type":"Menu","label":"Menu","anchor":"View Menu","url":"https:\/\/foursquare.com\/v\/stone-brewing-world-bistro--gardens\/53caabfe498e2b622e243cc9\/menu","mobileUrl":"https:\/\/foursquare.com\/v\/53caabfe498e2b622e243cc9\/device_menu"},"allowMenuUrlEdit":true,"beenHere":{"lastCheckinExpiredAt":0},"specials":{"count":0,"items":[]},"referralId":"v-1483291107","venueChains":[],"hasPerk":false},{"id":"4f66fff4e4b0fb96f80b246a","name":"Alsancak Simit Sarayı","contact":{},"location":{"address":"Gneisenaustr. 3","lat":52.49245510296444,"lng":13.388448649333005,"labeledLatLngs":[{"label":"display","lat":52.49245510296444,"lng":13.388448649333005}],"postalCode":"10961","cc":"DE","city":"Berlin","state":"Berlin","country":"Germany","formattedAddress":["Gneisenaustr. 3","10961 Berlin","Germany"]},"categories":[{"id":"4f04af1f2fb6e1c99f3db0bb","name":"Turkish Restaurant","pluralName":"Turkish Restaurants","shortName":"Turkish","icon":{"prefix":"https:\/\/ss3.4sqi.net\/img\/categories_v2\/food\/turkish_","suffix":".png"},"primary":true}],"verified":false,"stats":{"checkinsCount":1281,"usersCount":789,"tipCount":29},"allowMenuUrlEdit":true,"beenHere":{"lastCheckinExpiredAt":0},"specials":{"count":0,"items":[]},"referralId":"v-1483291107","venueChains":[],"hasPerk":false},{"id":"5019097de4b00b74aae82f54","name":"Rüya Gemüse Kebap","contact":{},"location":{"address":"Hauptstr. 133","lat":52.48466193334423,"lng":13.35411787033081,"labeledLatLngs":[{"label":"display","lat":52.48466193334423,"lng":13.35411787033081}],"postalCode":"10825","cc":"DE","city":"Berlin","state":"Berlin","country":"Germany","formattedAddress":["Hauptstr. 133","10825 Berlin","Germany"]},"categories":[{"id":"5283c7b4e4b094cb91ec88d8","name":"Doner Restaurant","pluralName":"Doner Restaurants","shortName":"Doner","icon":{"prefix":"https:\/\/ss3.4sqi.net\/img\/categories_v2\/food\/turkish_","suffix":".png"},"primary":true}],"verified":false,"stats":{"checkinsCount":751,"usersCount":322,"tipCount":56},"allowMenuUrlEdit":true,"beenHere":{"lastCheckinExpiredAt":0},"specials":{"count":0,"items":[]},"referralId":"v-1483291107","venueChains":[],"hasPerk":false},{"id":"4b51d2e2f964a520de5627e3","name":"Mokkabar","contact":{"phone":"+49306948868","formattedPhone":"+49 30 6948868"},"location":{"address":"Gneisenaustr. 93","lat":52.49197893423695,"lng":13.39383602142334,"labeledLatLngs":[{"label":"display","lat":52.49197893423695,"lng":13.39383602142334}],"postalCode":"10961","cc":"DE","city":"Berlin","state":"Berlin","country":"Germany","formattedAddress":["Gneisenaustr. 93","10961 Berlin","Germany"]},"categories":[{"id":"4bf58dd8d48988d16d941735","name":"Café","pluralName":"Cafés","shortName":"Café","icon":{"prefix":"https:\/\/ss3.4sqi.net\/img\/categories_v2\/food\/cafe_","suffix":".png"},"primary":true}],"verified":false,"stats":{"checkinsCount":1914,"usersCount":828,"tipCount":57},"url":"http:\/\/www.mokkabar.net\/","allowMenuUrlEdit":true,"beenHere":{"lastCheckinExpiredAt":0},"specials":{"count":0,"items":[]},"referralId":"v-1483291107","venueChains":[],"hasPerk":false},{"id":"4c31c55216adc928a50cc19c","name":"Einstein Kaffee","contact":{},"location":{"address":"Bergmannstr. 105","lat":52.48992,"lng":13.388592,"labeledLatLngs":[{"label":"display","lat":52.48992,"lng":13.388592}],"postalCode":"10963","cc":"DE","city":"Berlin","state":"Berlin","country":"Germany","formattedAddress":["Bergmannstr. 105","10963 Berlin","Germany"]},"categories":[{"id":"4bf58dd8d48988d16d941735","name":"Café","pluralName":"Cafés","shortName":"Café","icon":{"prefix":"https:\/\/ss3.4sqi.net\/img\/categories_v2\/food\/cafe_","suffix":".png"},"primary":true}],"verified":false,"stats":{"checkinsCount":741,"usersCount":416,"tipCount":15},"url":"http:\/\/www.einstein-kaffee.de","allowMenuUrlEdit":true,"beenHere":{"lastCheckinExpiredAt":0},"specials":{"count":0,"items":[]},"referralId":"v-1483291107","venueChains":[],"hasPerk":false},{"id":"56b48ff238fac4ce2bcf50d1","name":"la fiamma","contact":{},"location":{"address":"Potsdamer Straße","lat":52.49475314951304,"lng":13.361150420842778,"labeledLatLngs":[{"label":"display","lat":52.49475314951304,"lng":13.361150420842778}],"postalCode":"10783","cc":"DE","city":"Berlin","state":"Berlin","country":"Germany","formattedAddress":["Potsdamer Straße","10783 Berlin","Germany"]},"categories":[{"id":"4f04af1f2fb6e1c99f3db0bb","name":"Turkish Restaurant","pluralName":"Turkish Restaurants","shortName":"Turkish","icon":{"prefix":"https:\/\/ss3.4sqi.net\/img\/categories_v2\/food\/turkish_","suffix":".png"},"primary":true}],"verified":false,"stats":{"checkinsCount":198,"usersCount":131,"tipCount":3},"allowMenuUrlEdit":true,"beenHere":{"lastCheckinExpiredAt":0},"specials":{"count":0,"items":[]},"referralId":"v-1483291107","venueChains":[],"hasPerk":false},{"id":"503a4134e4b05a7a71c12b8e","name":"Café Peri","contact":{"phone":"+493040399332","formattedPhone":"+49 30 40399332"},"location":{"address":"Potsdamer Str. 203","crossStreet":"Großgörschenstr.","lat":52.49121226243403,"lng":13.360880561590017,"labeledLatLngs":[{"label":"display","lat":52.49121226243403,"lng":13.360880561590017}],"postalCode":"10783","cc":"DE","city":"Berlin","state":"Berlin","country":"Germany","formattedAddress":["Potsdamer Str. 203 (Großgörschenstr.)","10783 Berlin","Germany"]},"categories":[{"id":"4bf58dd8d48988d16d941735","name":"Café","pluralName":"Cafés","shortName":"Café","icon":{"prefix":"https:\/\/ss3.4sqi.net\/img\/categories_v2\/food\/cafe_","suffix":".png"},"primary":true}],"verified":false,"stats":{"checkinsCount":870,"usersCount":508,"tipCount":28},"url":"http:\/\/cafe-peri.de","allowMenuUrlEdit":true,"beenHere":{"lastCheckinExpiredAt":0},"specials":{"count":0,"items":[]},"referralId":"v-1483291107","venueChains":[],"hasPerk":false},{"id":"4adf5c28f964a520dd7921e3","name":"Cuccuma Espresso & Focaccia","contact":{"phone":"+493061625360","formattedPhone":"+49 30 61625360"},"location":{"address":"Zossener Straße 34","crossStreet":"Riemannstraße","lat":52.49062451460056,"lng":13.394140687877947,"labeledLatLngs":[{"label":"display","lat":52.49062451460056,"lng":13.394140687877947}],"postalCode":"12629","cc":"DE","city":"Berlin","state":"Berlin","country":"Germany","formattedAddress":["Zossener Straße 34 (Riemannstraße)","12629 Berlin","Germany"]},"categories":[{"id":"4bf58dd8d48988d1e0931735","name":"Coffee Shop","pluralName":"Coffee Shops","shortName":"Coffee Shop","icon":{"prefix":"https:\/\/ss3.4sqi.net\/img\/categories_v2\/food\/coffeeshop_","suffix":".png"},"primary":true}],"verified":false,"stats":{"checkinsCount":3046,"usersCount":936,"tipCount":63},"url":"http:\/\/cuccuma.de\/","allowMenuUrlEdit":true,"beenHere":{"lastCheckinExpiredAt":0},"specials":{"count":0,"items":[]},"referralId":"v-1483291107","venueChains":[],"hasPerk":false},{"id":"4b40892df964a520d1b825e3","name":"McDonald's","contact":{"phone":"+493076008712","formattedPhone":"+49 30 76008712","twitter":"mcdonaldsdenews","facebook":"296270482587","facebookUsername":"mcd","facebookName":"McDonald's"},"location":{"address":"Alboinstr. 4","lat":52.46969095489388,"lng":13.371294736862183,"labeledLatLngs":[{"label":"display","lat":52.46969095489388,"lng":13.371294736862183}],"postalCode":"12103","cc":"DE","city":"Berlin","state":"Berlin","country":"Germany","formattedAddress":["Alboinstr. 4","12103 Berlin","Germany"]},"categories":[{"id":"4bf58dd8d48988d16e941735","name":"Fast Food Restaurant","pluralName":"Fast Food Restaurants","shortName":"Fast Food","icon":{"prefix":"https:\/\/ss3.4sqi.net\/img\/categories_v2\/food\/fastfood_","suffix":".png"},"primary":true}],"verified":true,"stats":{"checkinsCount":1132,"usersCount":508,"tipCount":4},"url":"http:\/\/www.mcdonalds.de","allowMenuUrlEdit":true,"beenHere":{"lastCheckinExpiredAt":0},"specials":{"count":0,"items":[]},"storeId":"1061","referralId":"v-1483291107","venueChains":[{"id":"556f7a12bd6a75a9903bddb2"}],"hasPerk":false},{"id":"4adcda79f964a520cd4621e3","name":"Clash","contact":{"phone":"+493032526387","formattedPhone":"+49 30 32526387"},"location":{"address":"Gneisenaustr. 2a","lat":52.492019,"lng":13.38826,"labeledLatLngs":[{"label":"display","lat":52.492019,"lng":13.38826}],"postalCode":"10961","cc":"DE","city":"Berlin","state":"Berlin","country":"Germany","formattedAddress":["Gneisenaustr. 2a","10961 Berlin","Germany"]},"categories":[{"id":"4bf58dd8d48988d116941735","name":"Bar","pluralName":"Bars","shortName":"Bar","icon":{"prefix":"https:\/\/ss3.4sqi.net\/img\/categories_v2\/nightlife\/pub_","suffix":".png"},"primary":true}],"verified":false,"stats":{"checkinsCount":2047,"usersCount":1155,"tipCount":37},"url":"http:\/\/www.clash-berlin.de","allowMenuUrlEdit":true,"beenHere":{"lastCheckinExpiredAt":0},"specials":{"count":0,"items":[]},"referralId":"v-1483291107","venueChains":[],"hasPerk":false},{"id":"4b09797ef964a520da1723e3","name":"Café BilderBuch","contact":{"phone":"+493078706057","formattedPhone":"+49 30 78706057"},"location":{"address":"Akazienstr. 28","lat":52.48665268898134,"lng":13.355082785395119,"labeledLatLngs":[{"label":"display","lat":52.48665268898134,"lng":13.355082785395119}],"postalCode":"10823","cc":"DE","city":"Berlin","state":"Berlin","country":"Germany","formattedAddress":["Akazienstr. 28","10823 Berlin","Germany"]},"categories":[{"id":"4bf58dd8d48988d155941735","name":"Gastropub","pluralName":"Gastropubs","shortName":"Gastropub","icon":{"prefix":"https:\/\/ss3.4sqi.net\/img\/categories_v2\/food\/gastropub_","suffix":".png"},"primary":true}],"verified":false,"stats":{"checkinsCount":1640,"usersCount":1061,"tipCount":68},"url":"http:\/\/www.cafe-bilderbuch.de","allowMenuUrlEdit":true,"beenHere":{"lastCheckinExpiredAt":0},"specials":{"count":0,"items":[]},"referralId":"v-1483291107","venueChains":[],"hasPerk":false},{"id":"51fbde77498e9a3969af6b3e","name":"Da Jia Le","contact":{"phone":"+493021459745","formattedPhone":"+49 30 21459745"},"location":{"address":"Goebenstr. 23","lat":52.4939308869413,"lng":13.36374261854486,"labeledLatLngs":[{"label":"display","lat":52.4939308869413,"lng":13.36374261854486}],"postalCode":"10783","cc":"DE","city":"Berlin","state":"Berlin","country":"Germany","formattedAddress":["Goebenstr. 23","10783 Berlin","Germany"]},"categories":[{"id":"4bf58dd8d48988d145941735","name":"Chinese Restaurant","pluralName":"Chinese Restaurants","shortName":"Chinese","icon":{"prefix":"https:\/\/ss3.4sqi.net\/img\/categories_v2\/food\/asian_","suffix":".png"},"primary":true}],"verified":false,"stats":{"checkinsCount":526,"usersCount":354,"tipCount":45},"url":"http:\/\/www.dajiale-berlin.de","allowMenuUrlEdit":true,"beenHere":{"lastCheckinExpiredAt":0},"specials":{"count":0,"items":[]},"referralId":"v-1483291107","venueChains":[],"hasPerk":false},{"id":"4dda3e241838b8561d2aeaf3","name":"bagel, coffee & culture","contact":{"phone":"+493065218825","formattedPhone":"+49 30 65218825"},"location":{"address":"Mehringdamm 66","lat":52.49062418084924,"lng":13.386651700561247,"labeledLatLngs":[{"label":"display","lat":52.49062418084924,"lng":13.386651700561247}],"postalCode":"10961","cc":"DE","city":"Berlin","state":"Berlin","country":"Germany","formattedAddress":["Mehringdamm 66","10961 Berlin","Germany"]},"categories":[{"id":"4bf58dd8d48988d179941735","name":"Bagel Shop","pluralName":"Bagel Shops","shortName":"Bagels","icon":{"prefix":"https:\/\/ss3.4sqi.net\/img\/categories_v2\/food\/bagels_","suffix":".png"},"primary":true}],"verified":false,"stats":{"checkinsCount":755,"usersCount":465,"tipCount":53},"url":"http:\/\/www.bagelcoffeeculture.com","allowMenuUrlEdit":true,"beenHere":{"lastCheckinExpiredAt":0},"specials":{"count":0,"items":[]},"referralId":"v-1483291107","venueChains":[],"hasPerk":false},{"id":"553ab59e498e755112ee0426","name":"Que Pasa","contact":{"phone":"+493069537951","formattedPhone":"+49 30 69537951","facebook":"933805213308705","facebookUsername":"quepasa.zossenerstrasse","facebookName":"Que Pasa I Zossener Strasse"},"location":{"address":"Zossener Str. 27","lat":52.489299782802995,"lng":13.393583053478359,"labeledLatLngs":[{"label":"display","lat":52.489299782802995,"lng":13.393583053478359}],"postalCode":"10961","cc":"DE","city":"Berlin","state":"Berlin","country":"Germany","formattedAddress":["Zossener Str. 27","10961 Berlin","Germany"]},"categories":[{"id":"4bf58dd8d48988d1c1941735","name":"Mexican Restaurant","pluralName":"Mexican Restaurants","shortName":"Mexican","icon":{"prefix":"https:\/\/ss3.4sqi.net\/img\/categories_v2\/food\/mexican_","suffix":".png"},"primary":true}],"verified":false,"stats":{"checkinsCount":371,"usersCount":246,"tipCount":14},"url":"http:\/\/www.quepasa-berlin.de","allowMenuUrlEdit":true,"beenHere":{"lastCheckinExpiredAt":0},"specials":{"count":0,"items":[]},"referralId":"v-1483291107","venueChains":[],"hasPerk":false},{"id":"4bbb1a777421a593fd67c440","name":"HISAR FRESH FOOD","contact":{"phone":"+49302165125","formattedPhone":"+49 30 2165125","facebook":"182643382397","facebookUsername":"hisarfreshfood","facebookName":"HISAR FRESH FOOD"},"location":{"address":"Yorckstr. 49","lat":52.492932667887914,"lng":13.368805646896362,"labeledLatLngs":[{"label":"display","lat":52.492932667887914,"lng":13.368805646896362}],"postalCode":"10965","cc":"DE","city":"Berlin","state":"Berlin","country":"Germany","formattedAddress":["Yorckstr. 49","10965 Berlin","Germany"]},"categories":[{"id":"5283c7b4e4b094cb91ec88d8","name":"Doner Restaurant","pluralName":"Doner Restaurants","shortName":"Doner","icon":{"prefix":"https:\/\/ss3.4sqi.net\/img\/categories_v2\/food\/turkish_","suffix":".png"},"primary":true}],"verified":true,"stats":{"checkinsCount":921,"usersCount":481,"tipCount":35},"url":"http:\/\/www.hisarfreshfood.de","allowMenuUrlEdit":true,"beenHere":{"lastCheckinExpiredAt":0},"specials":{"count":0,"items":[]},"venuePage":{"id":"149459894"},"referralId":"v-1483291107","venueChains":[],"hasPerk":false},{"id":"4b1cf22bf964a520a40a24e3","name":"Molinari & Ko","contact":{"phone":"+49306913903","formattedPhone":"+49 30 6913903"},"location":{"address":"Riemannstr. 13","crossStreet":"Solmstr.","lat":52.49042305648384,"lng":13.392325620937507,"labeledLatLngs":[{"label":"display","lat":52.49042305648384,"lng":13.392325620937507}],"postalCode":"10961","cc":"DE","city":"Berlin","state":"Berlin","country":"Germany","formattedAddress":["Riemannstr. 13 (Solmstr.)","10961 Berlin","Germany"]},"categories":[{"id":"4bf58dd8d48988d110941735","name":"Italian Restaurant","pluralName":"Italian Restaurants","shortName":"Italian","icon":{"prefix":"https:\/\/ss3.4sqi.net\/img\/categories_v2\/food\/italian_","suffix":".png"},"primary":true}],"verified":false,"stats":{"checkinsCount":1954,"usersCount":842,"tipCount":55},"url":"http:\/\/www.molinari-ko.de","allowMenuUrlEdit":true,"beenHere":{"lastCheckinExpiredAt":0},"specials":{"count":0,"items":[]},"referralId":"v-1483291107","venueChains":[],"hasPerk":false},{"id":"4deb2c81d22da22d4ee81b28","name":"Lentz","contact":{"phone":"+493053047188","formattedPhone":"+49 30 53047188"},"location":{"address":"Grossbeerenstr. 27a","crossStreet":"Yorkstr.","lat":52.493764,"lng":13.3834975,"labeledLatLngs":[{"label":"display","lat":52.493764,"lng":13.3834975}],"postalCode":"10965","cc":"DE","city":"Berlin","state":"Berlin","country":"Germany","formattedAddress":["Grossbeerenstr. 27a (Yorkstr.)","10965 Berlin","Germany"]},"categories":[{"id":"4bf58dd8d48988d1c4941735","name":"Restaurant","pluralName":"Restaurants","shortName":"Restaurant","icon":{"prefix":"https:\/\/ss3.4sqi.net\/img\/categories_v2\/food\/default_","suffix":".png"},"primary":true}],"verified":false,"stats":{"checkinsCount":436,"usersCount":294,"tipCount":10},"allowMenuUrlEdit":true,"beenHere":{"lastCheckinExpiredAt":0},"specials":{"count":0,"items":[]},"referralId":"v-1483291107","venueChains":[],"hasPerk":false},{"id":"4bbdc6e6a8cf76b0891eb2fd","name":"BioBackHaus","contact":{"phone":"+49308734765","formattedPhone":"+49 30 8734765"},"location":{"address":"Nassauische Str. 16a","lat":52.4909807195761,"lng":13.326480902251069,"labeledLatLngs":[{"label":"display","lat":52.4909807195761,"lng":13.326480902251069}],"postalCode":"10717","cc":"DE","city":"Berlin","state":"Berlin","country":"Germany","formattedAddress":["Nassauische Str. 16a","10717 Berlin","Germany"]},"categories":[{"id":"4bf58dd8d48988d16a941735","name":"Bakery","pluralName":"Bakeries","shortName":"Bakery","icon":{"prefix":"https:\/\/ss3.4sqi.net\/img\/categories_v2\/food\/bakery_","suffix":".png"},"primary":true}],"verified":false,"stats":{"checkinsCount":396,"usersCount":95,"tipCount":5},"url":"http:\/\/das-biobackhaus.de","allowMenuUrlEdit":true,"beenHere":{"lastCheckinExpiredAt":0},"specials":{"count":0,"items":[]},"referralId":"v-1483291107","venueChains":[],"hasPerk":false},{"id":"4b601d40f964a52042d629e3","name":"Sen Viet","contact":{"phone":"+4915224835555","formattedPhone":"+49 1522 4835555"},"location":{"address":"Zossener Str. 24","lat":52.489691,"lng":13.394109606742859,"labeledLatLngs":[{"label":"display","lat":52.489691,"lng":13.394109606742859}],"postalCode":"10961","cc":"DE","city":"Berlin","state":"Berlin","country":"Germany","formattedAddress":["Zossener Str. 24","10961 Berlin","Germany"]},"categories":[{"id":"4bf58dd8d48988d14a941735","name":"Vietnamese Restaurant","pluralName":"Vietnamese Restaurants","shortName":"Vietnamese","icon":{"prefix":"https:\/\/ss3.4sqi.net\/img\/categories_v2\/food\/vietnamese_","suffix":".png"},"primary":true}],"verified":false,"stats":{"checkinsCount":1132,"usersCount":435,"tipCount":17},"url":"http:\/\/www.senviet.de","allowMenuUrlEdit":true,"beenHere":{"lastCheckinExpiredAt":0},"specials":{"count":0,"items":[]},"referralId":"v-1483291107","venueChains":[],"hasPerk":false},{"id":"4b40e0aaf964a520a2bc25e3","name":"Cube Sushi","contact":{"phone":"+493081797969","formattedPhone":"+49 30 81797969"},"location":{"address":"Zossener Str. 18","lat":52.490777457584755,"lng":13.394256120425133,"labeledLatLngs":[{"label":"display","lat":52.490777457584755,"lng":13.394256120425133}],"postalCode":"10961","cc":"DE","city":"Berlin","state":"Berlin","country":"Germany","formattedAddress":["Zossener Str. 18","10961 Berlin","Germany"]},"categories":[{"id":"4bf58dd8d48988d1d2941735","name":"Sushi Restaurant","pluralName":"Sushi Restaurants","shortName":"Sushi","icon":{"prefix":"https:\/\/ss3.4sqi.net\/img\/categories_v2\/food\/sushi_","suffix":".png"},"primary":true}],"verified":false,"stats":{"checkinsCount":1129,"usersCount":554,"tipCount":42},"allowMenuUrlEdit":true,"beenHere":{"lastCheckinExpiredAt":0},"specials":{"count":0,"items":[]},"referralId":"v-1483291107","venueChains":[],"hasPerk":false},{"id":"4c53ed765b839521ac7bba31","name":"Coffee Cult","contact":{"facebook":"231717846841846","facebookName":"Coffee Cult"},"location":{"address":"Bergmannstr. 89","lat":52.48930030735758,"lng":13.393409354828652,"labeledLatLngs":[{"label":"display","lat":52.48930030735758,"lng":13.393409354828652}],"postalCode":"10961","cc":"DE","city":"Berlin","state":"Berlin","country":"Germany","formattedAddress":["Bergmannstr. 89","10961 Berlin","Germany"]},"categories":[{"id":"4bf58dd8d48988d1e0931735","name":"Coffee Shop","pluralName":"Coffee Shops","shortName":"Coffee Shop","icon":{"prefix":"https:\/\/ss3.4sqi.net\/img\/categories_v2\/food\/coffeeshop_","suffix":".png"},"primary":true}],"verified":false,"stats":{"checkinsCount":2418,"usersCount":463,"tipCount":25},"allowMenuUrlEdit":true,"beenHere":{"lastCheckinExpiredAt":0},"specials":{"count":0,"items":[]},"referralId":"v-1483291107","venueChains":[],"hasPerk":false},{"id":"4eed15f9775b3c580d182959","name":"Imren Grill & Restaurant","contact":{},"location":{"address":"Hauptstr. 156","lat":52.48944053212863,"lng":13.35925451335434,"labeledLatLngs":[{"label":"display","lat":52.48944053212863,"lng":13.35925451335434}],"postalCode":"10827","cc":"DE","city":"Berlin","state":"Berlin","country":"Germany","formattedAddress":["Hauptstr. 156","10827 Berlin","Germany"]},"categories":[{"id":"4bf58dd8d48988d115941735","name":"Middle Eastern Restaurant","pluralName":"Middle Eastern Restaurants","shortName":"Middle Eastern","icon":{"prefix":"https:\/\/ss3.4sqi.net\/img\/categories_v2\/food\/middleeastern_","suffix":".png"},"primary":true}],"verified":false,"stats":{"checkinsCount":449,"usersCount":185,"tipCount":11},"url":"http:\/\/www.imren-grill.de","allowMenuUrlEdit":true,"beenHere":{"lastCheckinExpiredAt":0},"specials":{"count":0,"items":[]},"referralId":"v-1483291107","venueChains":[],"hasPerk":false}]}}