{"meta":{"code":200,"requestId":"586939d84c1f676ccfb8df84"},"response":{"venues":[{"id":"4adf77c3f964a520df7a21e3","name":"Starbucks","contact":{"phone":"+493020629540","formattedPhone":"+49 30 20629540","twitter":"starbucksde","facebook":"216331155420","facebookUsername":"StarbucksDeutschland","facebookName":"Starbucks Deutschland"},"location":{"address":"Friedrichstr. 96","lat":52.51958011300408,"lng":13.388397667116019,"labeledLatLngs":[{"label":"display","lat":52.51958011300408,"lng":13.388397667116019}],"postalCode":"10117","cc":"DE","city":"Berlin","state":"Berlin","country":"Germany","formattedAddress":["Friedrichstr. 96","10117 Berlin","Germany"]},"categories":[{"id":"4bf58dd8d48988d1e0931735","name":"Coffee Shop","pluralName":"Coffee Shops","shortName":"Coffee Shop","icon":{"prefix":"https:\/\/ss3.4sqi.net\/img\/categories_v2\/food\/coffeeshop_","suffix":".png"},"primary":true}],"verified":false,"stats":{"checkinsCount":8891,"usersCount":5638,"tipCount":42},"url":"http:\/\/www.starbucks.de","menu":{"type":"Menu","label":"Menu","anchor":"View Menu","url":"http:\/\/www.starbucks.de\/menu-list","mobileUrl":"http:\/\/www.starbucks.de\/menu-list","externalUrl":"http:\/\/www.starbucks.de\/menu-list"},"allowMenuUrlEdit":true,"beenHere":{"lastCheckinExpiredAt":0},"specials":{"count":0,"items":[]},"referralId":"v-1483291097","venueChains":[{"id":"556f676fbd6a75a99038d8ec"}],"hasPerk":false},{"id":"4b742a06f964a520bbca2de3","name":"Rausch Schokoladenhaus","contact":{"phone":"+498000301918","formattedPhone":"+49 800 0301918","twitter":"rauschberlin","facebook":"109364772491952","facebookUsername":"rauschberlin","facebookName":"Rausch Schokoladenhaus Berlin"},"location":{"address":"Charlottenstr.  60","crossStreet":"Mohrenstr.","lat":52.51224950279729,"lng":13.3913801208568,"labeledLatLngs":[{"label":"display","lat":52.51224950279729,"lng":13.3913801208568}],"postalCode":"10117","cc":"DE","city":"Berlin","state":"Berlin","country":"Germany","formattedAddress":["Charlottenstr.  60 (Mohrenstr.)","10117 Berlin","Germany"]},"categories":[{"id":"52f2ab2ebcbc57f1066b8b31","name":"Chocolate Shop","pluralName":"Chocolate Shops","shortName":"Chocolate Shop","icon":{"prefix":"https:\/\/ss3.4sqi.net\/img\/categories_v2\/shops\/candystore_","suffix":".png"},"primary":true}],"verified":true,"stats":{"checkinsCount":4766,"usersCount":3907,"tipCount":142},"url":"http:\/\/www.rausch.de","allowMenuUrlEdit":true,"beenHere":{"lastCheckinExpiredAt":0},"specials":{"count":0,"items":[]},"venuePage":{"id":"133640121"},"storeId":"","referralId":"v-1483291097","venueChains":[],"hasPerk":false},{"id":"4afa6086f964a520c91722e3","name":"Café Einstein","contact":{"phone":"+49302043","formattedPhone":"+49 30 2043"},"location":{"address":"Unter den Linden 42","lat":52.51700538433862,"lng":13.385784627006817,"labeledLatLngs":[{"label":"display","lat":52.51700538433862,"lng":13.385784627006817}],"postalCode":"10117","cc":"DE","city":"Berlin","state":"Berlin","country":"Germany","formattedAddress":["Unter den Linden 42","10117 Berlin","Germany"]},"categories":[{"id":"4bf58dd8d48988d16d941735","name":"Café","pluralName":"Cafés","shortName":"Café","icon":{"prefix":"https:\/\/ss3.4sqi.net\/img\/categories_v2\/food\/cafe_","suffix":".png"},"primary":true}],"verified":false,"stats":{"checkinsCount":6324,"usersCount":4753,"tipCount":148},"url":"http:\/\/www.einsteinudl.com","allowMenuUrlEdit":true,"beenHere":{"lastCheckinExpiredAt":0},"specials":{"count":0,"items":[]},"referralId":"v-1483291097","venueChains":[],"hasPerk":false},{"id":"4fd0f671e4b0044b25a40009","name":"Oslo Kaffebar","contact":{"phone":"+4915785206625","formattedPhone":"+49 1578 5206625","twitter":"coffeeberlin","facebook":"391694090872640","facebookUsername":"OsloKaffebar","facebookName":"Oslo Kaffebar"},"location":{"address":"Eichendorffstr. 13","crossStreet":"Invalidenstr.","lat":52.53080398695847,"lng":13.38707685470581,"labeledLatLngs":[{"label":"display","lat":52.53080398695847,"lng":13.38707685470581}],"postalCode":"10115","cc":"DE","city":"Berlin","state":"Berlin","country":"Germany","formattedAddress":["Eichendorffstr. 13 (Invalidenstr.)","10115 Berlin","Germany"]},"categories":[{"id":"4bf58dd8d48988d16d941735","name":"Café","pluralName":"Cafés","shortName":"Café","icon":{"prefix":"https:\/\/ss3.4sqi.net\/img\/categories_v2\/food\/cafe_","suffix":".png"},"primary":true}],"verified":false,"stats":{"checkinsCount":8583,"usersCount":1935,"tipCount":210},"url":"http:\/\/www.oslokaffebar.com","allowMenuUrlEdit":true,"beenHere":{"lastCheckinExpiredAt":0},"specials":{"count":0,"items":[]},"referralId":"v-1483291097","venueChains":[],"hasPerk":false},{"id":"4bc57a696936952133238488","name":"Hard Rock Cafe Berlin","contact":{"phone":"+4930884620","formattedPhone":"+49 30 884620","twitter":"hardrockberlin","facebook":"227394447561","facebookName":"Hard Rock Cafe Berlin"},"location":{"address":"Kurfürstendamm 224","crossStreet":"Meinekestr.","lat":52.50310236292835,"lng":13.329473733901978,"labeledLatLngs":[{"label":"display","lat":52.50310236292835,"lng":13.329473733901978}],"postalCode":"10719","cc":"DE","city":"Berlin","state":"Berlin","country":"Germany","formattedAddress":["Kurfürstendamm 224 (Meinekestr.)","10719 Berlin","Germany"]},"categories":[{"id":"4bf58dd8d48988d14e941735","name":"American Restaurant","pluralName":"American Restaurants","shortName":"American","icon":{"prefix":"https:\/\/ss3.4sqi.net\/img\/categories_v2\/food\/default_","suffix":".png"},"primary":true}],"verified":true,"stats":{"checkinsCount":17090,"usersCount":13872,"tipCount":236},"url":"http:\/\/www.facebook.com\/hardrock","menu":{"type":"Menu","label":"Menu","anchor":"View Menu","url":"http:\/\/www.hardrock.com\/cafes\/berlin\/menu.aspx","mobileUrl":"http:\/\/www.hardrock.com\/cafes\/berlin\/menu.aspx","externalUrl":"http:\/\/www.hardrock.com\/cafes\/berlin\/menu.aspx"},"allowMenuUrlEdit":true,"beenHere":{"lastCheckinExpiredAt":0},"specials":{"count":0,"items":[]},"storeId":"","referralId":"v-1483291097","venueChains":[{"id":"556a337ba7c8957d73d4b6b4"}],"hasPerk":false},{"id":"528a4e3411d24e4d2d087a64","name":"Tommi's Burger Joint","contact":{"twitter":"burgerjointde","facebook":"577579718968883","facebookUsername":"tommisburgerjointgermany","facebookName":"Tommi's Burger Joint"},"location":{"address":"Invalidenstr. 160","lat":52.53242258479098,"lng":13.397730588912962,"labeledLatLngs":[{"label":"display","lat":52.53242258479098,"lng":13.397730588912962}],"postalCode":"10115","cc":"DE","city":"Berlin","state":"Berlin","country":"Germany","formattedAddress":["Invalidenstr. 160","10115 Berlin","Germany"]},"categories":[{"id":"4bf58dd8d48988d16c941735","name":"Burger Joint","pluralName":"Burger Joints","shortName":"Burgers","icon":{"prefix":"https:\/\/ss3.4sqi.net\/img\/categories_v2\/food\/burger_","suffix":".png"},"primary":true}],"verified":false,"stats":{"checkinsCount":5551,"usersCount":1987,"tipCount":223},"url":"http:\/\/burgerjoint.de","allowMenuUrlEdit":true,"beenHere":{"lastCheckinExpiredAt":0},"specials":{"count":0,"items":[]},"referralId":"v-1483291097","venueChains":[],"hasPerk":false},{"id":"4c2344c213c00f47f2b388de","name":"The Barn","contact":{"phone":"+4915124105136","formattedPhone":"+49 1512 4105136","twitter":"thebarnberlin","facebook":"120381017975163","facebookUsername":"THEBARNBERLIN","facebookName":"THE BARN"},"location":{"address":"Auguststr. 58","crossStreet":"Koppenplatz","lat":52.52733523088492,"lng":13.39797848911107,"labeledLatLngs":[{"label":"display","lat":52.52733523088492,"lng":13.39797848911107}],"postalCode":"10115","cc":"DE","city":"Berlin","state":"Berlin","country":"Germany","formattedAddress":["Auguststr. 58 (Koppenplatz)","10115 Berlin","Germany"]},"categories":[{"id":"4bf58dd8d48988d1e0931735","name":"Coffee Shop","pluralName":"Coffee Shops","shortName":"Coffee Shop","icon":{"prefix":"https:\/\/ss3.4sqi.net\/img\/categories_v2\/food\/coffeeshop_","suffix":".png"},"primary":true}],"verified":true,"stats":{"checkinsCount":11661,"usersCount":4757,"tipCount":366},"url":"https:\/\/www.thebarn.de\/pages\/the-barn-cafe","allowMenuUrlEdit":true,"beenHere":{"lastCheckinExpiredAt":0},"specials":{"count":0,"items":[]},"referralId":"v-1483291097","venueChains":[],"hasPerk":false},{"id":"50813986e4b0ba1a30a13d60","name":"westberlin","contact":{"phone":"+493025922745","formattedPhone":"+49 30 25922745"},"location":{"address":"Friedrichstr. 215","lat":52.505730800223624,"lng":13.39064007895999,"labeledLatLngs":[{"label":"display","lat":52.505730800223624,"lng":13.39064007895999}],"postalCode":"10969","cc":"DE","city":"Berlin","state":"Berlin","country":"Germany","formattedAddress":["Friedrichstr. 215","10969 Berlin","Germany"]},"categories":[{"id":"4bf58dd8d48988d1e0931735","name":"Coffee Shop","pluralName":"Coffee Shops","shortName":"Coffee Shop","icon":{"prefix":"https:\/\/ss3.4sqi.net\/img\/categories_v2\/food\/coffeeshop_","suffix":".png"},"primary":true}],"verified":true,"stats":{"checkinsCount":4770,"usersCount":2594,"tipCount":229},"url":"http:\/\/www.westberlin-bar-shop.de","allowMenuUrlEdit":true,"beenHere":{"lastCheckinExpiredAt":0},"specials":{"count":0,"items":[]},"venuePage":{"id":"50177224"},"storeId":"","referralId":"v-1483291097","venueChains":[],"hasPerk":false},{"id":"4be303d0d27a20a116ff905b","name":"Augustiner am Gendarmenmarkt","contact":{"phone":"+493020454020","formattedPhone":"+49 30 20454020","facebook":"184958934903401","facebookUsername":"augustiner.gendarmenmarkt.berlin","facebookName":"Augustiner am Gendarmenmarkt"},"location":{"address":"Charlottenstr. 55","lat":52.51397577847675,"lng":13.391084168003829,"labeledLatLngs":[{"label":"display","lat":52.51397577847675,"lng":13.391084168003829}],"postalCode":"10117","cc":"DE","city":"Berlin","state":"Berlin","country":"Germany","formattedAddress":["Charlottenstr. 55","10117 Berlin","Germany"]},"categories":[{"id":"4bf58dd8d48988d10d941735","name":"German Restaurant","pluralName":"German Restaurants","shortName":"German","icon":{"prefix":"https:\/\/ss3.4sqi.net\/img\/categories_v2\/food\/german_","suffix":".png"},"primary":true}],"verified":false,"stats":{"checkinsCount":6386,"usersCount":4803,"tipCount":188},"url":"http:\/\/www.augustiner-braeu-berlin.de\/","menu":{"type":"Menu","label":"Menu","anchor":"View Menu","url":"http:\/\/www.augustiner-braeu-berlin.de\/speisen.html","mobileUrl":"http:\/\/www.augustiner-braeu-berlin.de\/speisen.html","externalUrl":"http:\/\/www.augustiner-braeu-berlin.de\/speisen.html"},"allowMenuUrlEdit":true,"beenHere":{"lastCheckinExpiredAt":0},"specials":{"count":0,"items":[]},"referralId":"v-1483291097","venueChains":[],"hasPerk":false},{"id":"4af586f8f964a52098f921e3","name":"Starbucks","contact":{"phone":"+493088001790","formattedPhone":"+49 30 88001790","twitter":"starbucksde","facebook":"216331155420","facebookUsername":"StarbucksDeutschland","facebookName":"Starbucks Deutschland"},"location":{"address":"Kurfürstendamm 26a","crossStreet":"Fasanenstr.","lat":52.50324604118854,"lng":13.327724933624268,"labeledLatLngs":[{"label":"display","lat":52.50324604118854,"lng":13.327724933624268}],"postalCode":"10719","cc":"DE","city":"Berlin","state":"Berlin","country":"Germany","formattedAddress":["Kurfürstendamm 26a (Fasanenstr.)","10719 Berlin","Germany"]},"categories":[{"id":"4bf58dd8d48988d1e0931735","name":"Coffee Shop","pluralName":"Coffee Shops","shortName":"Coffee Shop","icon":{"prefix":"https:\/\/ss3.4sqi.net\/img\/categories_v2\/food\/coffeeshop_","suffix":".png"},"primary":true}],"verified":false,"stats":{"checkinsCount":9799,"usersCount":5694,"tipCount":96},"url":"http:\/\/www.starbucks.de","allowMenuUrlEdit":true,"beenHere":{"lastCheckinExpiredAt":0},"specials":{"count":0,"items":[]},"referralId":"v-1483291097","venueChains":[{"id":"556f676fbd6a75a99038d8ec"}],"hasPerk":false},{"id":"5465e5e4498e7f14d7a21fcb","name":"Vapiano","contact":{"phone":"+493023005060","formattedPhone":"+49 30 23005060","twitter":"vapiano","facebook":"159376907417789","facebookUsername":"Vapiano","facebookName":"Vapiano"},"location":{"address":"Tauentzienstr. 9-12","lat":52.504378840149116,"lng":13.336675142371899,"labeledLatLngs":[{"label":"display","lat":52.504378840149116,"lng":13.336675142371899}],"postalCode":"10789","cc":"DE","city":"Berlin","state":"Berlin","country":"Germany","formattedAddress":["Tauentzienstr. 9-12","10789 Berlin","Germany"]},"categories":[{"id":"4bf58dd8d48988d110941735","name":"Italian Restaurant","pluralName":"Italian Restaurants","shortName":"Italian","icon":{"prefix":"https:\/\/ss3.4sqi.net\/img\/categories_v2\/food\/italian_","suffix":".png"},"primary":true}],"verified":false,"stats":{"checkinsCount":1640,"usersCount":1392,"tipCount":18},"url":"http:\/\/de.vapiano.com","allowMenuUrlEdit":true,"beenHere":{"lastCheckinExpiredAt":0},"specials":{"count":0,"items":[]},"referralId":"v-1483291097","venueChains":[{"id":"5569febda7c8896abe7dc844"}],"hasPerk":false},{"id":"4f08754ee4b0540ca21a6e46","name":"Café Hermann Eicke","contact":{"phone":"+493088538222","formattedPhone":"+49 30 88538222","facebook":"170042996429938","facebookName":"Hermann Eicke"},"location":{"address":"Brunnenstr. 45","lat":52.537318233084804,"lng":13.396745188523838,"labeledLatLngs":[{"label":"display","lat":52.537318233084804,"lng":13.396745188523838}],"postalCode":"10115","cc":"DE","city":"Berlin","state":"Berlin","country":"Germany","formattedAddress":["Brunnenstr. 45","10115 Berlin","Germany"]},"categories":[{"id":"4bf58dd8d48988d16d941735","name":"Café","pluralName":"Cafés","shortName":"Café","icon":{"prefix":"https:\/\/ss3.4sqi.net\/img\/categories_v2\/food\/cafe_","suffix":".png"},"primary":true}],"verified":false,"stats":{"checkinsCount":2370,"usersCount":703,"tipCount":56},"url":"http:\/\/hermanneicke.de","allowMenuUrlEdit":true,"beenHere":{"lastCheckinExpiredAt":0},"specials":{"count":0,"items":[]},"referralId":"v-1483291097","venueChains":[],"hasPerk":false},{"id":"4adf768af964a520d47a21e3","name":"Starbucks","contact":{"phone":"+4930206086711","formattedPhone":"+49 30 206086711","twitter":"starbucksde","facebook":"216331155420","facebookUsername":"StarbucksDeutschland","facebookName":"Starbucks Deutschland"},"location":{"address":"Friedrichstr. 61","crossStreet":"Kronenstr.","lat":52.511192277034546,"lng":13.389739892233063,"labeledLatLngs":[{"label":"display","lat":52.511192277034546,"lng":13.389739892233063}],"postalCode":"10117","cc":"DE","city":"Berlin","state":"Berlin","country":"Germany","formattedAddress":["Friedrichstr. 61 (Kronenstr.)","10117 Berlin","Germany"]},"categories":[{"id":"4bf58dd8d48988d1e0931735","name":"Coffee Shop","pluralName":"Coffee Shops","shortName":"Coffee Shop","icon":{"prefix":"https:\/\/ss3.4sqi.net\/img\/categories_v2\/food\/coffeeshop_","suffix":".png"},"primary":true}],"verified":false,"stats":{"checkinsCount":7601,"usersCount":5092,"tipCount":78},"url":"http:\/\/www.starbucks.de","allowMenuUrlEdit":true,"beenHere":{"lastCheckinExpiredAt":0},"specials":{"count":0,"items":[]},"referralId":"v-1483291097","venueChains":[{"id":"556f676fbd6a75a99038d8ec"}],"hasPerk":false},{"id":"4af1e1b6f964a52011e421e3","name":"Papà Pane di Sorrento","contact":{"phone":"+493028092701","formattedPhone":"+49 30 28092701","facebook":"92612008513","facebookUsername":"papapanemitte","facebookName":"Papapane"},"location":{"address":"Ackerstr. 23","crossStreet":"Invalidenstr.","lat":52.53197,"lng":13.396191019999998,"labeledLatLngs":[{"label":"display","lat":52.53197,"lng":13.396191019999998}],"postalCode":"10115","cc":"DE","city":"Berlin","state":"Berlin","country":"Germany","formattedAddress":["Ackerstr. 23 (Invalidenstr.)","10115 Berlin","Germany"]},"categories":[{"id":"4bf58dd8d48988d110941735","name":"Italian Restaurant","pluralName":"Italian Restaurants","shortName":"Italian","icon":{"prefix":"https:\/\/ss3.4sqi.net\/img\/categories_v2\/food\/italian_","suffix":".png"},"primary":true}],"verified":false,"stats":{"checkinsCount":6186,"usersCount":2341,"tipCount":169},"url":"http:\/\/www.papapane.de","allowMenuUrlEdit":true,"beenHere":{"lastCheckinExpiredAt":0},"specials":{"count":0,"items":[]},"referralId":"v-1483291097","venueChains":[],"hasPerk":false},{"id":"56e6f680498e5021b8c11ee8","name":"Peter Pane","contact":{"phone":"+493020679063","formattedPhone":"+49 30 20679063","facebook":"1395827947333082","facebookUsername":"peter.pane.burgergrill.bar.friedrichstrasse","facebookName":"Peter Pane - Friedrichstrasse Berlin Burger Grill & Bar"},"location":{"address":"Friedrichstr. 101","lat":52.52077126570719,"lng":13.3883535861969,"labeledLatLngs":[{"label":"display","lat":52.52077126570719,"lng":13.3883535861969}],"postalCode":"10117","cc":"DE","city":"Berlin","state":"Berlin","country":"Germany","formattedAddress":["Friedrichstr. 101","10117 Berlin","Germany"]},"categories":[{"id":"4bf58dd8d48988d16c941735","name":"Burger Joint","pluralName":"Burger Joints","shortName":"Burgers","icon":{"prefix":"https:\/\/ss3.4sqi.net\/img\/categories_v2\/food\/burger_","suffix":".png"},"primary":true}],"verified":false,"stats":{"checkinsCount":987,"usersCount":778,"tipCount":29},"url":"http:\/\/www.peterpane.de\/restaurants\/berlin-friedrichstrasse\/","allowMenuUrlEdit":true,"beenHere":{"lastCheckinExpiredAt":0},"specials":{"count":0,"items":[]},"referralId":"v-1483291097","venueChains":[],"hasPerk":false},{"id":"54565343498ecdd6e47a577b","name":"distrikt coffee","contact":{"facebook":"686296231412746","facebookUsername":"distriktcoffee","facebookName":"Distrikt Coffee"},"location":{"address":"Bergstr. 68","lat":52.531627662873845,"lng":13.394239716308773,"labeledLatLngs":[{"label":"display","lat":52.531627662873845,"lng":13.394239716308773}],"postalCode":"10115","cc":"DE","city":"Berlin","state":"Berlin","country":"Germany","formattedAddress":["Bergstr. 68","10115 Berlin","Germany"]},"categories":[{"id":"4bf58dd8d48988d1e0931735","name":"Coffee Shop","pluralName":"Coffee Shops","shortName":"Coffee Shop","icon":{"prefix":"https:\/\/ss3.4sqi.net\/img\/categories_v2\/food\/coffeeshop_","suffix":".png"},"primary":true}],"verified":false,"stats":{"checkinsCount":2999,"usersCount":1836,"tipCount":211},"url":"http:\/\/distriktcoffee.de","allowMenuUrlEdit":true,"beenHere":{"lastCheckinExpiredAt":0},"specials":{"count":0,"items":[]},"referralId":"v-1483291097","venueChains":[],"hasPerk":false},{"id":"51c9d87e2fc6872f7cfe43b9","name":"The Digital Eatery","contact":{"phone":"+4930390970","formattedPhone":"+49 30 390970"},"location":{"address":"Unter den Linden 17","crossStreet":"Charlottenstr.","lat":52.51692709320103,"lng":13.390542911120544,"labeledLatLngs":[{"label":"display","lat":52.51692709320103,"lng":13.390542911120544}],"postalCode":"10117","cc":"DE","city":"Berlin","state":"Berlin","country":"Germany","formattedAddress":["Unter den Linden 17 (Charlottenstr.)","10117 Berlin","Germany"]},"categories":[{"id":"4bf58dd8d48988d1e0931735","name":"Coffee Shop","pluralName":"Coffee Shops","shortName":"Coffee Shop","icon":{"prefix":"https:\/\/ss3.4sqi.net\/img\/categories_v2\/food\/coffeeshop_","suffix":".png"},"primary":true}],"verified":true,"stats":{"checkinsCount":2635,"usersCount":1571,"tipCount":73},"url":"http:\/\/www.digitaleatery.de","menu":{"type":"Menu","label":"Menu","anchor":"View Menu","url":"http:\/\/www.microsoft.com\/de-de\/berlin\/the-digital-eatery\/speisekarte.aspx","mobileUrl":"http:\/\/www.microsoft.com\/de-de\/berlin\/the-digital-eatery\/speisekarte.aspx","externalUrl":"http:\/\/www.microsoft.com\/de-de\/berlin\/the-digital-eatery\/speisekarte.aspx"},"allowMenuUrlEdit":true,"beenHere":{"lastCheckinExpiredAt":0},"specials":{"count":0,"items":[]},"storeId":"","referralId":"v-1483291097","venueChains":[],"hasPerk":false},{"id":"51a9da4f498ec8aca72360f1","name":"Shiso Burger","contact":{"phone":"+493088944687","formattedPhone":"+49 30 88944687","facebook":"502846083114538","facebookUsername":"ShisoBurger","facebookName":"Shiso Burger"},"location":{"address":"Auguststr. 29c","lat":52.52732923358377,"lng":13.39877013018433,"labeledLatLngs":[{"label":"display","lat":52.52732923358377,"lng":13.39877013018433}],"postalCode":"10119","cc":"DE","city":"Berlin","state":"Berlin","country":"Germany","formattedAddress":["Auguststr. 29c","10119 Berlin","Germany"]},"categories":[{"id":"4bf58dd8d48988d16c941735","name":"Burger Joint","pluralName":"Burger Joints","shortName":"Burgers","icon":{"prefix":"https:\/\/ss3.4sqi.net\/img\/categories_v2\/food\/burger_","suffix":".png"},"primary":true}],"verified":false,"stats":{"checkinsCount":7508,"usersCount":4440,"tipCount":524},"url":"http:\/\/www.shisoburger.de","allowMenuUrlEdit":true,"beenHere":{"lastCheckinExpiredAt":0},"specials":{"count":0,"items":[]},"referralId":"v-1483291097","venueChains":[],"hasPerk":false},{"id":"4b3a42a0f964a5202a6325e3","name":"Vapiano","contact":{"phone":"+493023005005","formattedPhone":"+49 30 23005005","twitter":"vapiano","facebook":"159376907417789","facebookUsername":"Vapiano","facebookName":"Vapiano"},"location":{"address":"Potsdamer Platz 5","lat":52.510246522030236,"lng":13.376315832138062,"labeledLatLngs":[{"label":"display","lat":52.510246522030236,"lng":13.376315832138062}],"postalCode":"10785","cc":"DE","city":"Berlin","state":"Berlin","country":"Germany","formattedAddress":["Potsdamer Platz 5","10785 Berlin","Germany"]},"categories":[{"id":"4bf58dd8d48988d110941735","name":"Italian Restaurant","pluralName":"Italian Restaurants","shortName":"Italian","icon":{"prefix":"https:\/\/ss3.4sqi.net\/img\/categories_v2\/food\/italian_","suffix":".png"},"primary":true}],"verified":true,"stats":{"checkinsCount":6798,"usersCount":4925,"tipCount":127},"url":"http:\/\/www.vapiano.com","allowMenuUrlEdit":true,"beenHere":{"lastCheckinExpiredAt":0},"specials":{"count":0,"items":[]},"referralId":"v-1483291097","venueChains":[{"id":"5569febda7c8896abe7dc844"}],"hasPerk":false},{"id":"55014bbe498ecb9c69787391","name":"Hallesches Haus General Store","contact":{"facebook":"1522912614613629","facebookUsername":"HalleschesHaus","facebookName":"Hallesches Haus"},"location":{"address":"Tempelhofer Ufer 1","lat":52.49724768444783,"lng":13.390482154268089,"labeledLatLngs":[{"label":"display","lat":52.49724768444783,"lng":13.390482154268089}],"postalCode":"10961","cc":"DE","city":"Berlin","state":"Berlin","country":"Germany","formattedAddress":["Tempelhofer Ufer 1","10961 Berlin","Germany"]},"categories":[{"id":"4bf58dd8d48988d1e0931735","name":"Coffee Shop","pluralName":"Coffee Shops","shortName":"Coffee Shop","icon":{"prefix":"https:\/\/ss3.4sqi.net\/img\/categories_v2\/food\/coffeeshop_","suffix":".png"},"primary":true}],"verified":false,"stats":{"checkinsCount":1069,"usersCount":599,"tipCount":39},"url":"http:\/\/www.hallescheshaus.com","allowMenuUrlEdit":true,"beenHere":{"lastCheckinExpiredAt":0},"specials":{"count":0,"items":[]},"referralId":"v-1483291097","venueChains":[],"hasPerk":false},{"id":"4bd2ebc477b29c74dd888f82","name":"Starbucks","contact":{"phone":"+493088726624","formattedPhone":"+49 30 88726624","twitter":"starbucksde","facebook":"216331155420","facebookUsername":"StarbucksDeutschland","facebookName":"Starbucks Deutschland"},"location":{"address":"Kurfürstendamm 231","lat":52.50423678141724,"lng":13.333174651536687,"labeledLatLngs":[{"label":"display","lat":52.50423678141724,"lng":13.333174651536687}],"postalCode":"10719","cc":"DE","city":"Berlin","state":"Berlin","country":"Germany","formattedAddress":["Kurfürstendamm 231","10719 Berlin","Germany"]},"categories":[{"id":"4bf58dd8d48988d1e0931735","name":"Coffee Shop","pluralName":"Coffee Shops","shortName":"Coffee Shop","icon":{"prefix":"https:\/\/ss3.4sqi.net\/img\/categories_v2\/food\/coffeeshop_","suffix":".png"},"primary":true}],"verified":false,"stats":{"checkinsCount":4458,"usersCount":3379,"tipCount":22},"url":"http:\/\/www.starbucks.de","allowMenuUrlEdit":true,"beenHere":{"lastCheckinExpiredAt":0},"specials":{"count":0,"items":[]},"referralId":"v-1483291097","venueChains":[{"id":"556f676fbd6a75a99038d8ec"}],"hasPerk":false},{"id":"4dfb789e45dd0d640c67d376","name":"Röststätte Berlin","contact":{"phone":"+493040501650","formattedPhone":"+49 30 40501650","twitter":"roeststaette","facebook":"183195448376385","facebookName":"Röststätte Berlin"},"location":{"address":"Ackerstr. 173","crossStreet":"Linienstr.","lat":52.529113,"lng":13.397711,"labeledLatLngs":[{"label":"display","lat":52.529113,"lng":13.397711}],"postalCode":"10115","cc":"DE","city":"Berlin","state":"Berlin","country":"Germany","formattedAddress":["Ackerstr. 173 (Linienstr.)","10115 Berlin","Germany"]},"categories":[{"id":"4bf58dd8d48988d1e0931735","name":"Coffee Shop","pluralName":"Coffee Shops","shortName":"Coffee Shop","icon":{"prefix":"https:\/\/ss3.4sqi.net\/img\/categories_v2\/food\/coffeeshop_","suffix":".png"},"primary":true}],"verified":false,"stats":{"checkinsCount":2580,"usersCount":727,"tipCount":46},"url":"http:\/\/www.röststätte.de\/","allowMenuUrlEdit":true,"beenHere":{"lastCheckinExpiredAt":0},"specials":{"count":0,"items":[]},"referralId":"v-1483291097","venueChains":[],"hasPerk":false},{"id":"4b61c1fff964a520e1202ae3","name":"Starbucks","contact":{"phone":"+493081825787","formattedPhone":"+49 30 81825787","twitter":"starbucksde","facebook":"216331155420","facebookUsername":"StarbucksDeutschland","facebookName":"Starbucks Deutschland"},"location":{"address":"Kurfürstendamm 61","lat":52.50072043364134,"lng":13.313100663524843,"labeledLatLngs":[{"label":"display","lat":52.50072043364134,"lng":13.313100663524843}],"postalCode":"10707","cc":"DE","city":"Berlin","state":"Berlin","country":"Germany","formattedAddress":["Kurfürstendamm 61","10707 Berlin","Germany"]},"categories":[{"id":"4bf58dd8d48988d1e0931735","name":"Coffee Shop","pluralName":"Coffee Shops","shortName":"Coffee Shop","icon":{"prefix":"https:\/\/ss3.4sqi.net\/img\/categories_v2\/food\/coffeeshop_","suffix":".png"},"primary":true}],"verified":false,"stats":{"checkinsCount":4341,"usersCount":1996,"tipCount":30},"url":"http:\/\/www.starbucks.de","allowMenuUrlEdit":true,"beenHere":{"lastCheckinExpiredAt":0},"specials":{"count":0,"items":[]},"referralId":"v-1483291097","venueChains":[{"id":"556f676fbd6a75a99038d8ec"}],"hasPerk":false},{"id":"4adcda8df964a520414a21e3","name":"Clärchens Ballhaus","contact":{"phone":"+49302829295","formattedPhone":"+49 30 2829295","facebook":"274015852659504","facebookUsername":"claerchens.ballhaus","facebookName":"Clärchens Ballhaus"},"location":{"address":"Auguststr. 24","lat":52.526839070700454,"lng":13.39684787478525,"labeledLatLngs":[{"label":"display","lat":52.526839070700454,"lng":13.39684787478525}],"postalCode":"10117","cc":"DE","city":"Berlin","state":"Berlin","country":"Germany","formattedAddress":["Auguststr. 24","10117 Berlin","Germany"]},"categories":[{"id":"4bf58dd8d48988d11f941735","name":"Nightclub","pluralName":"Nightclubs","shortName":"Nightclub","icon":{"prefix":"https:\/\/ss3.4sqi.net\/img\/categories_v2\/nightlife\/nightclub_","suffix":".png"},"primary":true}],"verified":false,"stats":{"checkinsCount":5749,"usersCount":4021,"tipCount":127},"url":"http:\/\/www.ballhaus.de","allowMenuUrlEdit":true,"beenHere":{"lastCheckinExpiredAt":0},"specials":{"count":0,"items":[]},"referralId":"v-1483291097","venueChains":[],"hasPerk":false},{"id":"4adf602ff964a520047a21e3","name":"DUDU","contact":{"phone":"+493051736854","formattedPhone":"+49 30 51736854"},"location":{"address":"Torstr. 134","lat":52.52935176675936,"lng":13.399865627288817,"labeledLatLngs":[{"label":"display","lat":52.52935176675936,"lng":13.399865627288817}],"postalCode":"10119","cc":"DE","city":"Berlin","state":"Berlin","country":"Germany","formattedAddress":["Torstr. 134","10119 Berlin","Germany"]},"categories":[{"id":"4bf58dd8d48988d14a941735","name":"Vietnamese Restaurant","pluralName":"Vietnamese Restaurants","shortName":"Vietnamese","icon":{"prefix":"https:\/\/ss3.4sqi.net\/img\/categories_v2\/food\/vietnamese_","suffix":".png"},"primary":true}],"verified":false,"stats":{"checkinsCount":7263,"usersCount":3760,"tipCount":280},"url":"http:\/\/www.dudu-berlin.de","allowMenuUrlEdit":true,"beenHere":{"lastCheckinExpiredAt":0},"specials":{"count":0,"items":[]},"referralId":"v-1483291097","venueChains":[],"hasPerk":false},{"id":"4b5099f3f964a520f82827e3","name":"Ritter Sport Bunte Schokowelt","contact":{"phone":"+4930200950830","formattedPhone":"+49 30 200950830","twitter":"Ritter_Sport","facebook":"136684793051581","facebookUsername":"RitterSportDeutschland","facebookName":"Ritter Sport Deutschland"},"location":{"address":"Französische Str. 24","lat":52.51496666046718,"lng":13.39062251962172,"labeledLatLngs":[{"label":"display","lat":52.51496666046718,"lng":13.39062251962172}],"postalCode":"10117","cc":"DE","city":"Berlin","state":"Berlin","country":"Germany","formattedAddress":["Französische Str. 24","10117 Berlin","Germany"]},"categories":[{"id":"52f2ab2ebcbc57f1066b8b31","name":"Chocolate Shop","pluralName":"Chocolate Shops","shortName":"Chocolate Shop","icon":{"prefix":"https:\/\/ss3.4sqi.net\/img\/categories_v2\/shops\/candystore_","suffix":".png"},"primary":true}],"verified":false,"stats":{"checkinsCount":5065,"usersCount":4110,"tipCount":133},"url":"http:\/\/www.ritter-sport.de","allowMenuUrlEdit":true,"beenHere":{"lastCheckinExpiredAt":0},"specials":{"count":0,"items":[]},"referralId":"v-1483291097","venueChains":[],"hasPerk":false},{"id":"4b61d534f964a520d0252ae3","name":"Maximilians","contact":{"phone":"+493020450559","formattedPhone":"+49 30 20450559","facebook":"150219385001984","facebookUsername":"maximiliansberlin","facebookName":"Maximilians"},"location":{"address":"Friedrichstr. 185-190","crossStreet":"Kronenstr.","lat":52.51123618871374,"lng":13.389326809778762,"labeledLatLngs":[{"label":"display","lat":52.51123618871374,"lng":13.389326809778762}],"postalCode":"10117","cc":"DE","city":"Berlin","state":"Berlin","country":"Germany","formattedAddress":["Friedrichstr. 185-190 (Kronenstr.)","10117 Berlin","Germany"]},"categories":[{"id":"56aa371ce4b08b9a8d573572","name":"Bavarian Restaurant","pluralName":"Bavarian Restaurants","shortName":"Bavarian","icon":{"prefix":"https:\/\/ss3.4sqi.net\/img\/categories_v2\/food\/german_","suffix":".png"},"primary":true}],"verified":false,"stats":{"checkinsCount":3708,"usersCount":2506,"tipCount":66},"url":"http:\/\/www.maximilians-berlin.de","allowMenuUrlEdit":true,"beenHere":{"lastCheckinExpiredAt":0},"specials":{"count":0,"items":[]},"referralId":"v-1483291097","venueChains":[],"hasPerk":false},{"id":"546498ef498e2e01c5fb11ba","name":"House of Small Wonder","contact":{"phone":"+493027582877","formattedPhone":"+49 30 27582877","facebook":"771415376264809","facebookUsername":"houseofsmallwonderberlin","facebookName":"House of Small Wonder"},"location":{"address":"Johannisstr. 20A","lat":52.52445482143469,"lng":13.389041457009016,"labeledLatLngs":[{"label":"display","lat":52.52445482143469,"lng":13.389041457009016}],"postalCode":"10117","cc":"DE","city":"Berlin","state":"Berlin","country":"Germany","formattedAddress":["Johannisstr. 20A","10117 Berlin","Germany"]},"categories":[{"id":"4bf58dd8d48988d111941735","name":"Japanese Restaurant","pluralName":"Japanese Restaurants","shortName":"Japanese","icon":{"prefix":"https:\/\/ss3.4sqi.net\/img\/categories_v2\/food\/japanese_","suffix":".png"},"primary":true}],"verified":false,"stats":{"checkinsCount":1611,"usersCount":1141,"tipCount":96},"url":"http:\/\/www.houseofsmallwonder.de","menu":{"type":"Menu","label":"Menu","anchor":"View Menu","url":"http:\/\/www.houseofsmallwonder.de\/menu\/","mobileUrl":"http:\/\/www.houseofsmallwonder.de\/menu\/","externalUrl":"http:\/\/www.houseofsmallwonder.de\/menu\/"},"allowMenuUrlEdit":true,"beenHere":{"lastCheckinExpiredAt":0},"specials":{"count":0,"items":[]},"referralId":"v-1483291097","venueChains":[],"hasPerk":false},{"id":"5730a59b498eb4ab509d7d74","name":"KIRSONS Charlotte","contact":{"phone":"+493023396708","formattedPhone":"+49 30 23396708","twitter":"kirsonsb","facebook":"246607935703572","facebookUsername":"KIRSONS","facebookName":"Kirsons Berlin"},"location":{"address":"Charlottenstr. 13","crossStreet":"Rudi-Dutschke-Str.","lat":52.50681061815412,"lng":13.392497885153833,"labeledLatLngs":[{"label":"display","lat":52.50681061815412,"lng":13.392497885153833}],"postalCode":"10969","cc":"DE","city":"Berlin","state":"Berlin","country":"Germany","formattedAddress":["Charlottenstr. 13 (Rudi-Dutschke-Str.)","10969 Berlin","Germany"]},"categories":[{"id":"4bf58dd8d48988d109941735","name":"Eastern European Restaurant","pluralName":"Eastern European Restaurants","shortName":"Eastern European","icon":{"prefix":"https:\/\/ss3.4sqi.net\/img\/categories_v2\/food\/default_","suffix":".png"},"primary":true}],"verified":true,"stats":{"checkinsCount":337,"usersCount":154,"tipCount":13},"url":"http:\/\/kirsons.de","menu":{"type":"Menu","label":"Menu","anchor":"View Menu","url":"http:\/\/kirsons.de\/menu","mobileUrl":"http:\/\/kirsons.de\/menu","externalUrl":"http:\/\/kirsons.de\/menu"},"allowMenuUrlEdit":true,"beenHere":{"lastCheckinExpiredAt":0},"specials":{"count":0,"items":[]},"referralId":"v-1483291097","venueChains":[],"hasPerk":false},{"id":"4f345269e4b0c78d28d2bd81","name":"Mogg","contact":{"phone":"+4917664961344","formattedPhone":"+49 176 64961344","facebook":"304763999603123","facebookName":"Mogg"},"location":{"address":"Auguststr. 11-13","lat":52.52644065492324,"lng":13.394291996955872,"labeledLatLngs":[{"label":"display","lat":52.52644065492324,"lng":13.394291996955872}],"postalCode":"10117","cc":"DE","city":"Berlin","state":"Berlin","country":"Germany","formattedAddress":["Auguststr. 11-13","10117 Berlin","Germany"]},"categories":[{"id":"4bf58dd8d48988d1c5941735","name":"Sandwich Place","pluralName":"Sandwich Places","shortName":"Sandwiches","icon":{"prefix":"https:\/\/ss3.4sqi.net\/img\/categories_v2\/food\/deli_","suffix":".png"},"primary":true}],"verified":false,"stats":{"checkinsCount":2911,"usersCount":2025,"tipCount":232},"url":"http:\/\/www.moggmogg.com","menu":{"type":"Menu","label":"Menu","anchor":"View Menu","url":"http:\/\/www.moggmogg.com\/wp-content\/uploads\/2014\/09\/Menu-Website.pdf","mobileUrl":"http:\/\/www.moggmogg.com\/wp-content\/uploads\/2014\/09\/Menu-Website.pdf","externalUrl":"http:\/\/www.moggmogg.com\/wp-content\/uploads\/2014\/09\/Menu-Website.pdf"},"allowMenuUrlEdit":true,"beenHere":{"lastCheckinExpiredAt":0},"specials":{"count":0,"items":[]},"referralId":"v-1483291097","venueChains":[],"hasPerk":false}]}}