{"meta":{"code":200,"requestId":"586939dbdd57972f39b5ef9b"},"response":{"venues":[{"id":"4c514d529d642d7fadb14ddd","name":"Satt und Selig","contact":{},"location":{"address":"Carl-Schurz-Straße 47","lat":52.538167769836285,"lng":13.204542478855556,"labeledLatLngs":[{"label":"display","lat":52.538167769836285,"lng":13.204542478855556}],"postalCode":"13597","cc":"DE","city":"Berlin","state":"Berlin","country":"Germany","formattedAddress":["Carl-Schurz-Straße 47","13597 Berlin","Germany"]},"categories":[{"id":"4bf58dd8d48988d1c4941735","name":"Restaurant","pluralName":"Restaurants","shortName":"Restaurant","icon":{"prefix":"https:\/\/ss3.4sqi.net\/img\/categories_v2\/food\/default_","suffix":".png"},"primary":true}],"verified":false,"stats":{"checkinsCount":203,"usersCount":179,"tipCount":7},"allowMenuUrlEdit":true,"beenHere":{"lastCheckinExpiredAt":0},"specials":{"count":0,"items":[]},"referralId":"v-1483291099","venueChains":[],"hasPerk":false},{"id":"512e0145e4b0421735624ece","name":"Diyar Simit Evi Spandau","contact":{},"location":{"lat":52.53876788567509,"lng":13.206266376883528,"labeledLatLngs":[{"label":"display","lat":52.53876788567509,"lng":13.206266376883528}],"cc":"DE","country":"Germany","formattedAddress":["Germany"]},"categories":[{"id":"4bf58dd8d48988d10d941735","name":"German Restaurant","pluralName":"German Restaurants","shortName":"German","icon":{"prefix":"https:\/\/ss3.4sqi.net\/img\/categories_v2\/food\/german_","suffix":".png"},"primary":true}],"verified":false,"stats":{"checkinsCount":104,"usersCount":58,"tipCount":1},"allowMenuUrlEdit":true,"beenHere":{"lastCheckinExpiredAt":0},"specials":{"count":0,"items":[]},"referralId":"v-1483291099","venueChains":[],"hasPerk":false},{"id":"4b0d74ccf964a520b94823e3","name":"Hasir Restaurant","contact":{"phone":"+493035304792","formattedPhone":"+49 30 35304792"},"location":{"address":"Breite Str. 43","lat":52.5382863478707,"lng":13.206973066011447,"labeledLatLngs":[{"label":"display","lat":52.5382863478707,"lng":13.206973066011447}],"postalCode":"13597","cc":"DE","city":"Berlin","state":"Berlin","country":"Germany","formattedAddress":["Breite Str. 43","13597 Berlin","Germany"]},"categories":[{"id":"4f04af1f2fb6e1c99f3db0bb","name":"Turkish Restaurant","pluralName":"Turkish Restaurants","shortName":"Turkish","icon":{"prefix":"https:\/\/ss3.4sqi.net\/img\/categories_v2\/food\/turkish_","suffix":".png"},"primary":true}],"verified":false,"stats":{"checkinsCount":719,"usersCount":239,"tipCount":12},"url":"http:\/\/www.hasir.de\/","allowMenuUrlEdit":true,"beenHere":{"lastCheckinExpiredAt":0},"specials":{"count":0,"items":[]},"referralId":"v-1483291099","venueChains":[],"hasPerk":false},{"id":"505db116e4b0d4448471f7f8","name":"Sultan Sofrasi","contact":{},"location":{"address":"Falkenseer Chaussee 277","lat":52.54633304236596,"lng":13.190500685948928,"labeledLatLngs":[{"label":"display","lat":52.54633304236596,"lng":13.190500685948928}],"postalCode":"13583","cc":"DE","city":"Berlin","state":"Berlin","country":"Germany","formattedAddress":["Falkenseer Chaussee 277","13583 Berlin","Germany"]},"categories":[{"id":"4f04af1f2fb6e1c99f3db0bb","name":"Turkish Restaurant","pluralName":"Turkish Restaurants","shortName":"Turkish","icon":{"prefix":"https:\/\/ss3.4sqi.net\/img\/categories_v2\/food\/turkish_","suffix":".png"},"primary":true}],"verified":false,"stats":{"checkinsCount":129,"usersCount":16,"tipCount":2},"allowMenuUrlEdit":true,"beenHere":{"lastCheckinExpiredAt":0},"specials":{"count":0,"items":[]},"referralId":"v-1483291099","venueChains":[],"hasPerk":false},{"id":"4adcda73f964a520654521e3","name":"Brauhaus Spandau","contact":{"phone":"+49303539070","formattedPhone":"+49 30 3539070"},"location":{"address":"Neuendorfer Str. 1","lat":52.54071714686581,"lng":13.206662999648241,"labeledLatLngs":[{"label":"display","lat":52.54071714686581,"lng":13.206662999648241}],"postalCode":"13585","cc":"DE","city":"Berlin","state":"Berlin","country":"Germany","formattedAddress":["Neuendorfer Str. 1","13585 Berlin","Germany"]},"categories":[{"id":"50327c8591d4c4b30a586d5d","name":"Brewery","pluralName":"Breweries","shortName":"Brewery","icon":{"prefix":"https:\/\/ss3.4sqi.net\/img\/categories_v2\/food\/brewery_","suffix":".png"},"primary":true}],"verified":false,"stats":{"checkinsCount":1362,"usersCount":754,"tipCount":38},"url":"http:\/\/www.brauhaus-spandau.de","allowMenuUrlEdit":true,"beenHere":{"lastCheckinExpiredAt":0},"specials":{"count":0,"items":[]},"referralId":"v-1483291099","venueChains":[],"hasPerk":false},{"id":"4c443ce52d3ec9b654872eae","name":"Charlotte","contact":{"phone":"+49303331000","formattedPhone":"+49 30 3331000","facebook":"189664934408050","facebookName":"Café-Bar-Bistro CHARLOTTE"},"location":{"address":"Charlottenstr. 14a","lat":52.537150767797065,"lng":13.202492594718933,"labeledLatLngs":[{"label":"display","lat":52.537150767797065,"lng":13.202492594718933}],"postalCode":"13597","cc":"DE","city":"Berlin","state":"Berlin","country":"Germany","formattedAddress":["Charlottenstr. 14a","13597 Berlin","Germany"]},"categories":[{"id":"52e81612bcbc57f1066b79f1","name":"Bistro","pluralName":"Bistros","shortName":"Bistro","icon":{"prefix":"https:\/\/ss3.4sqi.net\/img\/categories_v2\/food\/default_","suffix":".png"},"primary":true}],"verified":false,"stats":{"checkinsCount":1292,"usersCount":379,"tipCount":19},"url":"http:\/\/cbb-charlotte.de","menu":{"type":"Menu","label":"Menu","anchor":"View Menu","url":"http:\/\/cbb-charlotte.de\/karte\/","mobileUrl":"http:\/\/cbb-charlotte.de\/karte\/","externalUrl":"http:\/\/cbb-charlotte.de\/karte\/"},"allowMenuUrlEdit":true,"beenHere":{"lastCheckinExpiredAt":0},"specials":{"count":0,"items":[]},"referralId":"v-1483291099","venueChains":[],"hasPerk":false},{"id":"54ce3055498e0e083b290e46","name":"Sofra Simit Evi","contact":{"phone":"+493033096099","formattedPhone":"+49 30 33096099"},"location":{"address":"Klosterstr.6-7","lat":52.53221496214469,"lng":13.197468804309285,"labeledLatLngs":[{"label":"display","lat":52.53221496214469,"lng":13.197468804309285}],"postalCode":"13581","cc":"DE","city":"Berlin","state":"Berlin","country":"Germany","formattedAddress":["Klosterstr.6-7","13581 Berlin","Germany"]},"categories":[{"id":"4bf58dd8d48988d143941735","name":"Breakfast Spot","pluralName":"Breakfast Spots","shortName":"Breakfast","icon":{"prefix":"https:\/\/ss3.4sqi.net\/img\/categories_v2\/food\/breakfast_","suffix":".png"},"primary":true}],"verified":true,"stats":{"checkinsCount":107,"usersCount":37,"tipCount":2},"allowMenuUrlEdit":true,"beenHere":{"lastCheckinExpiredAt":0},"specials":{"count":0,"items":[]},"referralId":"v-1483291099","venueChains":[],"hasPerk":false},{"id":"57502192498e851d7cb9bebb","name":"Altstadt Burger","contact":{},"location":{"address":"Havelstrasse 21","lat":52.538364,"lng":13.206672,"labeledLatLngs":[{"label":"display","lat":52.538364,"lng":13.206672}],"postalCode":"13597","cc":"DE","city":"Berlin","state":"Berlin","country":"Germany","formattedAddress":["Havelstrasse 21","13597 Berlin","Germany"]},"categories":[{"id":"4bf58dd8d48988d16c941735","name":"Burger Joint","pluralName":"Burger Joints","shortName":"Burgers","icon":{"prefix":"https:\/\/ss3.4sqi.net\/img\/categories_v2\/food\/burger_","suffix":".png"},"primary":true}],"verified":false,"stats":{"checkinsCount":78,"usersCount":15,"tipCount":0},"allowMenuUrlEdit":true,"beenHere":{"lastCheckinExpiredAt":0},"specials":{"count":0,"items":[]},"referralId":"v-1483291099","venueChains":[],"hasPerk":false},{"id":"53143af7498e67352be649b4","name":"Esin's Backshop","contact":{},"location":{"address":"Sandstr. 66","lat":52.519906,"lng":13.171585,"labeledLatLngs":[{"label":"display","lat":52.519906,"lng":13.171585}],"postalCode":"13593","cc":"DE","city":"Berlin","state":"Berlin","country":"Germany","formattedAddress":["Sandstr. 66","13593 Berlin","Germany"]},"categories":[{"id":"4bf58dd8d48988d16a941735","name":"Bakery","pluralName":"Bakeries","shortName":"Bakery","icon":{"prefix":"https:\/\/ss3.4sqi.net\/img\/categories_v2\/food\/bakery_","suffix":".png"},"primary":true}],"verified":false,"stats":{"checkinsCount":119,"usersCount":10,"tipCount":0},"allowMenuUrlEdit":true,"beenHere":{"lastCheckinExpiredAt":0},"specials":{"count":0,"items":[]},"referralId":"v-1483291099","venueChains":[],"hasPerk":false},{"id":"4d7ba977ea35236adab44923","name":"Arriba Mexico","contact":{"phone":"+493035104891","formattedPhone":"+49 30 35104891"},"location":{"address":"Pichelsdorfer Str. 98","lat":52.52359789203573,"lng":13.197726309299469,"labeledLatLngs":[{"label":"display","lat":52.52359789203573,"lng":13.197726309299469}],"postalCode":"13595","cc":"DE","city":"Berlin","state":"Berlin","country":"Germany","formattedAddress":["Pichelsdorfer Str. 98","13595 Berlin","Germany"]},"categories":[{"id":"4bf58dd8d48988d1c1941735","name":"Mexican Restaurant","pluralName":"Mexican Restaurants","shortName":"Mexican","icon":{"prefix":"https:\/\/ss3.4sqi.net\/img\/categories_v2\/food\/mexican_","suffix":".png"},"primary":true}],"verified":false,"stats":{"checkinsCount":88,"usersCount":48,"tipCount":1},"allowMenuUrlEdit":true,"beenHere":{"lastCheckinExpiredAt":0},"specials":{"count":0,"items":[]},"referralId":"v-1483291099","venueChains":[],"hasPerk":false},{"id":"4b813d01f964a520ae9b30e3","name":"BackWerk","contact":{"phone":"+493033001803","formattedPhone":"+49 30 33001803","twitter":"_backwerk_","facebook":"155997891116938","facebookUsername":"BackWerk","facebookName":"BackWerk"},"location":{"address":"Seegefelder Str. 1","lat":52.534588079756375,"lng":13.198401757726204,"labeledLatLngs":[{"label":"display","lat":52.534588079756375,"lng":13.198401757726204}],"postalCode":"13597","cc":"DE","city":"Berlin","state":"Berlin","country":"Germany","formattedAddress":["Seegefelder Str. 1","13597 Berlin","Germany"]},"categories":[{"id":"4bf58dd8d48988d16a941735","name":"Bakery","pluralName":"Bakeries","shortName":"Bakery","icon":{"prefix":"https:\/\/ss3.4sqi.net\/img\/categories_v2\/food\/bakery_","suffix":".png"},"primary":true}],"verified":false,"stats":{"checkinsCount":366,"usersCount":66,"tipCount":0},"url":"http:\/\/www.back-werk.de","menu":{"type":"Menu","label":"Menu","anchor":"View Menu","url":"http:\/\/www.back-werk.de\/sortiment-der-sb-baeckerei.html","mobileUrl":"http:\/\/www.back-werk.de\/sortiment-der-sb-baeckerei.html","externalUrl":"http:\/\/www.back-werk.de\/sortiment-der-sb-baeckerei.html"},"allowMenuUrlEdit":true,"beenHere":{"lastCheckinExpiredAt":0},"specials":{"count":0,"items":[]},"referralId":"v-1483291099","venueChains":[{"id":"556e5dcdbd6a82902e29a781"}],"hasPerk":false},{"id":"51d3f7a8498ee56d0acb4acc","name":"La'masi","contact":{},"location":{"address":"Brunsbütteler Str. 73","lat":52.534104,"lng":13.187047,"labeledLatLngs":[{"label":"display","lat":52.534104,"lng":13.187047}],"cc":"DE","city":"Berlin","state":"Berlin","country":"Germany","formattedAddress":["Brunsbütteler Str. 73","Berlin","Germany"]},"categories":[{"id":"4bf58dd8d48988d16a941735","name":"Bakery","pluralName":"Bakeries","shortName":"Bakery","icon":{"prefix":"https:\/\/ss3.4sqi.net\/img\/categories_v2\/food\/bakery_","suffix":".png"},"primary":true}],"verified":false,"stats":{"checkinsCount":239,"usersCount":12,"tipCount":0},"allowMenuUrlEdit":true,"beenHere":{"lastCheckinExpiredAt":0},"specials":{"count":0,"items":[]},"referralId":"v-1483291099","venueChains":[],"hasPerk":false},{"id":"4c2e0f4f4e132d7f24709ddf","name":"Burger King","contact":{"phone":"+49303332505","formattedPhone":"+49 30 3332505","twitter":"burgerking","facebook":"182011465154997","facebookUsername":"BurgerKing.Deutschland","facebookName":"Burger King Deutschland"},"location":{"address":"Carl-Schurz-Str. 37","crossStreet":"Moritzstr.","lat":52.53745,"lng":13.20339,"labeledLatLngs":[{"label":"display","lat":52.53745,"lng":13.20339}],"postalCode":"13597","cc":"DE","city":"Berlin","state":"Berlin","country":"Germany","formattedAddress":["Carl-Schurz-Str. 37 (Moritzstr.)","13597 Berlin","Germany"]},"categories":[{"id":"4bf58dd8d48988d16e941735","name":"Fast Food Restaurant","pluralName":"Fast Food Restaurants","shortName":"Fast Food","icon":{"prefix":"https:\/\/ss3.4sqi.net\/img\/categories_v2\/food\/fastfood_","suffix":".png"},"primary":true}],"verified":false,"stats":{"checkinsCount":207,"usersCount":98,"tipCount":3},"url":"http:\/\/burgerking.de","allowMenuUrlEdit":true,"beenHere":{"lastCheckinExpiredAt":0},"specials":{"count":0,"items":[]},"referralId":"v-1483291099","venueChains":[{"id":"556d12d9aceaff43eb090cdb"}],"hasPerk":false},{"id":"4d73d618ec075481d4199cbf","name":"Omonia-Treff","contact":{"phone":"+49303361621","formattedPhone":"+49 30 3361621"},"location":{"address":"Schönwalder Str. 111","crossStreet":"Bismarckpl.","lat":52.54409304777439,"lng":13.204628733906047,"labeledLatLngs":[{"label":"display","lat":52.54409304777439,"lng":13.204628733906047}],"postalCode":"13585","cc":"DE","city":"Berlin","state":"Berlin","country":"Germany","formattedAddress":["Schönwalder Str. 111 (Bismarckpl.)","13585 Berlin","Germany"]},"categories":[{"id":"4bf58dd8d48988d10e941735","name":"Greek Restaurant","pluralName":"Greek Restaurants","shortName":"Greek","icon":{"prefix":"https:\/\/ss3.4sqi.net\/img\/categories_v2\/food\/greek_","suffix":".png"},"primary":true}],"verified":false,"stats":{"checkinsCount":76,"usersCount":37,"tipCount":5},"allowMenuUrlEdit":true,"beenHere":{"lastCheckinExpiredAt":0},"specials":{"count":0,"items":[]},"referralId":"v-1483291099","venueChains":[],"hasPerk":false},{"id":"4cd2c359fa66236a1eedec2e","name":"Ristorante Romana","contact":{"phone":"+493316003","formattedPhone":"+49 331 6003"},"location":{"address":"Wilhelmstr. 3-4","lat":52.528082949292774,"lng":13.19506470561367,"labeledLatLngs":[{"label":"display","lat":52.528082949292774,"lng":13.19506470561367}],"postalCode":"13581","cc":"DE","city":"Berlin","state":"Berlin","country":"Germany","formattedAddress":["Wilhelmstr. 3-4","13581 Berlin","Germany"]},"categories":[{"id":"4bf58dd8d48988d1ca941735","name":"Pizza Place","pluralName":"Pizza Places","shortName":"Pizza","icon":{"prefix":"https:\/\/ss3.4sqi.net\/img\/categories_v2\/food\/pizza_","suffix":".png"},"primary":true}],"verified":false,"stats":{"checkinsCount":92,"usersCount":53,"tipCount":3},"allowMenuUrlEdit":true,"beenHere":{"lastCheckinExpiredAt":0},"specials":{"count":0,"items":[]},"referralId":"v-1483291099","venueChains":[],"hasPerk":false},{"id":"4c926e001adc3704388338d1","name":"YE-MC","contact":{},"location":{"address":"Streitstr. 57","lat":52.561627,"lng":13.208236,"labeledLatLngs":[{"label":"display","lat":52.561627,"lng":13.208236}],"postalCode":"13587","cc":"DE","city":"Berlin","state":"Berlin","country":"Germany","formattedAddress":["Streitstr. 57","13587 Berlin","Germany"]},"categories":[{"id":"4f04af1f2fb6e1c99f3db0bb","name":"Turkish Restaurant","pluralName":"Turkish Restaurants","shortName":"Turkish","icon":{"prefix":"https:\/\/ss3.4sqi.net\/img\/categories_v2\/food\/turkish_","suffix":".png"},"primary":true}],"verified":false,"stats":{"checkinsCount":263,"usersCount":78,"tipCount":10},"allowMenuUrlEdit":true,"beenHere":{"lastCheckinExpiredAt":0},"specials":{"count":0,"items":[]},"referralId":"v-1483291099","venueChains":[],"hasPerk":false},{"id":"4adcda85f964a520fa4821e3","name":"Romiosini","contact":{},"location":{"address":"Seegefelder Straße 134","lat":52.53915953207244,"lng":13.178895438064718,"labeledLatLngs":[{"label":"display","lat":52.53915953207244,"lng":13.178895438064718}],"postalCode":"13583","cc":"DE","city":"Berlin","state":"Berlin","country":"Germany","formattedAddress":["Seegefelder Straße 134","13583 Berlin","Germany"]},"categories":[{"id":"4bf58dd8d48988d10e941735","name":"Greek Restaurant","pluralName":"Greek Restaurants","shortName":"Greek","icon":{"prefix":"https:\/\/ss3.4sqi.net\/img\/categories_v2\/food\/greek_","suffix":".png"},"primary":true}],"verified":false,"stats":{"checkinsCount":42,"usersCount":26,"tipCount":0},"allowMenuUrlEdit":true,"beenHere":{"lastCheckinExpiredAt":0},"specials":{"count":0,"items":[]},"referralId":"v-1483291099","venueChains":[],"hasPerk":false},{"id":"5056933be4b01e4621fa053d","name":"Millefiori","contact":{"phone":"+49303337640","formattedPhone":"+49 30 3337640"},"location":{"address":"Breite Str. 35","lat":52.53811264038086,"lng":13.20682144165039,"labeledLatLngs":[{"label":"display","lat":52.53811264038086,"lng":13.20682144165039}],"postalCode":"13597","cc":"DE","city":"Berlin","state":"Berlin","country":"Germany","formattedAddress":["Breite Str. 35","13597 Spandau","Germany"]},"categories":[{"id":"55a5a1ebe4b013909087cb7f","name":"Trattoria\/Osteria","pluralName":"Trattorias\/Osterias","shortName":"Trattoria\/Osteria","icon":{"prefix":"https:\/\/ss3.4sqi.net\/img\/categories_v2\/food\/italian_","suffix":".png"},"primary":true}],"verified":false,"stats":{"checkinsCount":108,"usersCount":71,"tipCount":4},"allowMenuUrlEdit":true,"beenHere":{"lastCheckinExpiredAt":0},"specials":{"count":0,"items":[]},"referralId":"v-1483291099","venueChains":[],"hasPerk":false},{"id":"4c3183426f1fef3be304ec3d","name":"Trattoria Europa","contact":{},"location":{"address":"Brunsbütteler Damm 265","lat":52.53286092489599,"lng":13.157085067821328,"labeledLatLngs":[{"label":"display","lat":52.53286092489599,"lng":13.157085067821328}],"postalCode":"13591","cc":"DE","city":"Berlin","state":"Berlin","country":"Germany","formattedAddress":["Brunsbütteler Damm 265","13591 Berlin","Germany"]},"categories":[{"id":"55a5a1ebe4b013909087cb7f","name":"Trattoria\/Osteria","pluralName":"Trattorias\/Osterias","shortName":"Trattoria\/Osteria","icon":{"prefix":"https:\/\/ss3.4sqi.net\/img\/categories_v2\/food\/italian_","suffix":".png"},"primary":true}],"verified":false,"stats":{"checkinsCount":114,"usersCount":34,"tipCount":3},"allowMenuUrlEdit":true,"beenHere":{"lastCheckinExpiredAt":0},"specials":{"count":0,"items":[]},"referralId":"v-1483291099","venueChains":[],"hasPerk":false},{"id":"4c29ab0d360cef3bc34fbedc","name":"Sy","contact":{"phone":"+493047016121","formattedPhone":"+49 30 47016121"},"location":{"address":"Breite Str. 33","lat":52.538008,"lng":13.206706,"labeledLatLngs":[{"label":"display","lat":52.538008,"lng":13.206706}],"postalCode":"13597","cc":"DE","city":"Berlin","state":"Berlin","country":"Germany","formattedAddress":["Breite Str. 33","13597 Berlin","Germany"]},"categories":[{"id":"4bf58dd8d48988d1d2941735","name":"Sushi Restaurant","pluralName":"Sushi Restaurants","shortName":"Sushi","icon":{"prefix":"https:\/\/ss3.4sqi.net\/img\/categories_v2\/food\/sushi_","suffix":".png"},"primary":true}],"verified":false,"stats":{"checkinsCount":284,"usersCount":116,"tipCount":7},"allowMenuUrlEdit":true,"beenHere":{"lastCheckinExpiredAt":0},"specials":{"count":0,"items":[]},"referralId":"v-1483291099","venueChains":[],"hasPerk":false},{"id":"4b813b75f964a520769b30e3","name":"Restaurantschiff \"Alte Liebe\"","contact":{"phone":"+49303048258","formattedPhone":"+49 30 3048258"},"location":{"address":"Havelchaussee 107","lat":52.50160721730681,"lng":13.208428118831163,"labeledLatLngs":[{"label":"display","lat":52.50160721730681,"lng":13.208428118831163}],"postalCode":"14055","cc":"DE","city":"Berlin","state":"Berlin","country":"Germany","formattedAddress":["Havelchaussee 107","14055 Berlin","Germany"]},"categories":[{"id":"4bf58dd8d48988d1ce941735","name":"Seafood Restaurant","pluralName":"Seafood Restaurants","shortName":"Seafood","icon":{"prefix":"https:\/\/ss3.4sqi.net\/img\/categories_v2\/food\/seafood_","suffix":".png"},"primary":true}],"verified":false,"stats":{"checkinsCount":159,"usersCount":136,"tipCount":4},"url":"http:\/\/www.alte-liebe-berlin.de","allowMenuUrlEdit":true,"beenHere":{"lastCheckinExpiredAt":0},"specials":{"count":0,"items":[]},"referralId":"v-1483291099","venueChains":[],"hasPerk":false},{"id":"4b924cadf964a520e0f033e3","name":"La Bottega","contact":{"phone":"+493036750171","formattedPhone":"+49 30 36750171"},"location":{"address":"Breite Str. 56-58","lat":52.536581228346634,"lng":13.204786963789143,"labeledLatLngs":[{"label":"display","lat":52.536581228346634,"lng":13.204786963789143}],"postalCode":"13597","cc":"DE","city":"Berlin","state":"Berlin","country":"Germany","formattedAddress":["Breite Str. 56-58","13597 Berlin","Germany"]},"categories":[{"id":"4bf58dd8d48988d110941735","name":"Italian Restaurant","pluralName":"Italian Restaurants","shortName":"Italian","icon":{"prefix":"https:\/\/ss3.4sqi.net\/img\/categories_v2\/food\/italian_","suffix":".png"},"primary":true}],"verified":false,"stats":{"checkinsCount":96,"usersCount":54,"tipCount":2},"url":"http:\/\/www.labottega-spandau.de\/","allowMenuUrlEdit":true,"beenHere":{"lastCheckinExpiredAt":0},"specials":{"count":0,"items":[]},"referralId":"v-1483291099","venueChains":[],"hasPerk":false},{"id":"54f0dfea498e094d2ab5f201","name":"Mydonose","contact":{},"location":{"address":"Adamstr. 11","crossStreet":"Földerichstr.","lat":52.521023,"lng":13.193869,"labeledLatLngs":[{"label":"display","lat":52.521023,"lng":13.193869}],"postalCode":"13595","cc":"DE","city":"Berlin","state":"Berlin","country":"Germany","formattedAddress":["Adamstr. 11 (Földerichstr.)","13595 Berlin","Germany"]},"categories":[{"id":"52e81612bcbc57f1066b79ff","name":"Halal Restaurant","pluralName":"Halal Restaurants","shortName":"Halal","icon":{"prefix":"https:\/\/ss3.4sqi.net\/img\/categories_v2\/food\/halal_","suffix":".png"},"primary":true}],"verified":false,"stats":{"checkinsCount":42,"usersCount":11,"tipCount":0},"allowMenuUrlEdit":true,"beenHere":{"lastCheckinExpiredAt":0},"specials":{"count":0,"items":[]},"referralId":"v-1483291099","venueChains":[],"hasPerk":false},{"id":"585d6e34ea1c0d576428354a","name":"Bäckerei Rösler","contact":{},"location":{"lat":52.512689,"lng":13.196749,"labeledLatLngs":[{"label":"display","lat":52.512689,"lng":13.196749}],"cc":"DE","country":"Germany","formattedAddress":["Germany"]},"categories":[{"id":"4bf58dd8d48988d16a941735","name":"Bakery","pluralName":"Bakeries","shortName":"Bakery","icon":{"prefix":"https:\/\/ss3.4sqi.net\/img\/categories_v2\/food\/bakery_","suffix":".png"},"primary":true}],"verified":false,"stats":{"checkinsCount":1,"usersCount":1,"tipCount":0},"allowMenuUrlEdit":true,"beenHere":{"lastCheckinExpiredAt":0},"specials":{"count":0,"items":[]},"referralId":"v-1483291099","venueChains":[],"hasPerk":false},{"id":"4c2998c7360cef3bf64cbedc","name":"Café Barfly","contact":{"phone":"+49303315555","formattedPhone":"+49 30 3315555"},"location":{"address":"Brüderstr. 47","lat":52.52409002760794,"lng":13.193121968435255,"labeledLatLngs":[{"label":"display","lat":52.52409002760794,"lng":13.193121968435255}],"postalCode":"13585","cc":"DE","city":"Berlin","state":"Berlin","country":"Germany","formattedAddress":["Brüderstr. 47","13585 Berlin","Germany"]},"categories":[{"id":"4bf58dd8d48988d10d941735","name":"German Restaurant","pluralName":"German Restaurants","shortName":"German","icon":{"prefix":"https:\/\/ss3.4sqi.net\/img\/categories_v2\/food\/german_","suffix":".png"},"primary":true}],"verified":false,"stats":{"checkinsCount":291,"usersCount":107,"tipCount":8},"url":"http:\/\/www.cafe-barfly.de\/barfly.html","allowMenuUrlEdit":true,"beenHere":{"lastCheckinExpiredAt":0},"specials":{"count":0,"items":[]},"referralId":"v-1483291099","venueChains":[],"hasPerk":false},{"id":"4ec21ec54901f56b0f0a83e4","name":"Presse Und Backshop","contact":{},"location":{"address":"Pichelsdorfer Straße 123, 13595 Berlin","lat":52.52598402,"lng":13.19681724,"labeledLatLngs":[{"label":"display","lat":52.52598402,"lng":13.19681724}],"postalCode":"13595","cc":"DE","city":"Berlin","state":"Berlin","country":"Germany","formattedAddress":["Pichelsdorfer Straße 123, 13595 Berlin","13595 Berlin","Germany"]},"categories":[{"id":"4bf58dd8d48988d16a941735","name":"Bakery","pluralName":"Bakeries","shortName":"Bakery","icon":{"prefix":"https:\/\/ss3.4sqi.net\/img\/categories_v2\/food\/bakery_","suffix":".png"},"primary":true}],"verified":false,"stats":{"checkinsCount":8,"usersCount":4,"tipCount":0},"allowMenuUrlEdit":true,"beenHere":{"lastCheckinExpiredAt":0},"specials":{"count":0,"items":[]},"referralId":"v-1483291099","venueChains":[],"hasPerk":false},{"id":"4eb664a54901cef9d8f18f6c","name":"Steakhouse Buenos Aires","contact":{},"location":{"address":"Pichelsdorfer Str. 51","lat":52.518010187203586,"lng":13.197613025148355,"labeledLatLngs":[{"label":"display","lat":52.518010187203586,"lng":13.197613025148355}],"postalCode":"13595","cc":"DE","city":"Berlin","state":"Berlin","country":"Germany","formattedAddress":["Pichelsdorfer Str. 51","13595 Berlin","Germany"]},"categories":[{"id":"4bf58dd8d48988d107941735","name":"Argentinian Restaurant","pluralName":"Argentinian Restaurants","shortName":"Argentinian","icon":{"prefix":"https:\/\/ss3.4sqi.net\/img\/categories_v2\/food\/argentinian_","suffix":".png"},"primary":true}],"verified":false,"stats":{"checkinsCount":57,"usersCount":45,"tipCount":2},"url":"http:\/\/www.restaurant-buenosaires.de","allowMenuUrlEdit":true,"beenHere":{"lastCheckinExpiredAt":0},"specials":{"count":0,"items":[]},"referralId":"v-1483291099","venueChains":[],"hasPerk":false},{"id":"566a0719498e24e2e6cd0c72","name":"Amira Shisha Lounge","contact":{},"location":{"lat":52.548232,"lng":13.200954,"labeledLatLngs":[{"label":"display","lat":52.548232,"lng":13.200954}],"cc":"DE","country":"Germany","formattedAddress":["Germany"]},"categories":[{"id":"4bf58dd8d48988d16d941735","name":"Café","pluralName":"Cafés","shortName":"Café","icon":{"prefix":"https:\/\/ss3.4sqi.net\/img\/categories_v2\/food\/cafe_","suffix":".png"},"primary":true}],"verified":false,"stats":{"checkinsCount":38,"usersCount":8,"tipCount":0},"allowMenuUrlEdit":true,"beenHere":{"lastCheckinExpiredAt":0},"specials":{"count":0,"items":[]},"referralId":"v-1483291099","venueChains":[],"hasPerk":false},{"id":"549aa714498e81619d0c95ba","name":"The Pizza Club","contact":{"phone":"+493023900286","formattedPhone":"+49 30 23900286","twitter":"pizzaclubberlin"},"location":{"address":"Klosterstraße 12","lat":52.53094757466144,"lng":13.196511268615723,"labeledLatLngs":[{"label":"display","lat":52.53094757466144,"lng":13.196511268615723}],"postalCode":"13581","cc":"DE","city":"Berlin","state":"Berlin","country":"Germany","formattedAddress":["Klosterstraße 12","13581 Berlin","Germany"]},"categories":[{"id":"4bf58dd8d48988d1ca941735","name":"Pizza Place","pluralName":"Pizza Places","shortName":"Pizza","icon":{"prefix":"https:\/\/ss3.4sqi.net\/img\/categories_v2\/food\/pizza_","suffix":".png"},"primary":true}],"verified":false,"stats":{"checkinsCount":15,"usersCount":6,"tipCount":8},"url":"http:\/\/www.pizzaclub-berlin.de","menu":{"type":"Menu","label":"Menu","anchor":"View Menu","url":"http:\/\/www.pizzaclub-berlin.de\/speisekarte","mobileUrl":"http:\/\/www.pizzaclub-berlin.de\/speisekarte","externalUrl":"http:\/\/www.pizzaclub-berlin.de\/speisekarte"},"allowMenuUrlEdit":true,"beenHere":{"lastCheckinExpiredAt":0},"specials":{"count":0,"items":[]},"referralId":"v-1483291099","venueChains":[],"hasPerk":false},{"id":"4c1131ea8c26b71348b5070b","name":"McDonald's","contact":{"phone":"+493035131849","formattedPhone":"+49 30 35131849","twitter":"mcdonaldsdenews","facebook":"296270482587","facebookUsername":"mcd","facebookName":"McDonald's"},"location":{"address":"Klosterstr. 3","lat":52.533736219372706,"lng":13.198344716325447,"labeledLatLngs":[{"label":"display","lat":52.533736219372706,"lng":13.198344716325447}],"postalCode":"13581","cc":"DE","city":"Berlin","state":"Berlin","country":"Germany","formattedAddress":["Klosterstr. 3","13581 Berlin","Germany"]},"categories":[{"id":"4bf58dd8d48988d16e941735","name":"Fast Food Restaurant","pluralName":"Fast Food Restaurants","shortName":"Fast Food","icon":{"prefix":"https:\/\/ss3.4sqi.net\/img\/categories_v2\/food\/fastfood_","suffix":".png"},"primary":true}],"verified":true,"stats":{"checkinsCount":208,"usersCount":128,"tipCount":0},"url":"http:\/\/www.mcdonalds.de","menu":{"type":"Menu","label":"Menu","anchor":"View Menu","url":"http:\/\/www.mcdonalds.de\/produkte\/alle-produkte","mobileUrl":"http:\/\/www.mcdonalds.de\/produkte\/alle-produkte","externalUrl":"http:\/\/www.mcdonalds.de\/produkte\/alle-produkte"},"allowMenuUrlEdit":true,"beenHere":{"lastCheckinExpiredAt":0},"specials":{"count":0,"items":[]},"storeId":"1194","referralId":"v-1483291099","venueChains":[{"id":"556f7a12bd6a75a9903bddb2"}],"hasPerk":false}]}}