{"meta":{"code":200,"requestId":"586939e44434b95b0f5ded0d"},"response":{"venues":[{"id":"4ba7c7d0f964a520beb239e3","name":"Medoc Cafe+Bistro","contact":{},"location":{"address":"Am Fuchsbau","crossStreet":"Hohe Kiefer","lat":52.41054383077825,"lng":13.219883913255192,"labeledLatLngs":[{"label":"display","lat":52.41054383077825,"lng":13.219883913255192}],"postalCode":"14532","cc":"DE","city":"Kleinmachnow","state":"Brandenburg","country":"Germany","formattedAddress":["Am Fuchsbau (Hohe Kiefer)","14532 Kleinmachnow","Germany"]},"categories":[{"id":"4bf58dd8d48988d155941735","name":"Gastropub","pluralName":"Gastropubs","shortName":"Gastropub","icon":{"prefix":"https:\/\/ss3.4sqi.net\/img\/categories_v2\/food\/gastropub_","suffix":".png"},"primary":true}],"verified":false,"stats":{"checkinsCount":313,"usersCount":45,"tipCount":5},"allowMenuUrlEdit":true,"beenHere":{"lastCheckinExpiredAt":0},"specials":{"count":0,"items":[]},"referralId":"v-1483291108","venueChains":[],"hasPerk":false},{"id":"4b9cd29cf964a5204d7d36e3","name":"Wiener Conditorei","contact":{"phone":"+493089596922","formattedPhone":"+49 30 89596922"},"location":{"address":"Hohenzollerndamm 92","lat":52.477576,"lng":13.281922,"labeledLatLngs":[{"label":"display","lat":52.477576,"lng":13.281922}],"postalCode":"14199","cc":"DE","city":"Berlin","state":"Berlin","country":"Germany","formattedAddress":["Hohenzollerndamm 92","14199 Berlin","Germany"]},"categories":[{"id":"4bf58dd8d48988d1d0941735","name":"Dessert Shop","pluralName":"Dessert Shops","shortName":"Desserts","icon":{"prefix":"https:\/\/ss3.4sqi.net\/img\/categories_v2\/food\/dessert_","suffix":".png"},"primary":true}],"verified":false,"stats":{"checkinsCount":653,"usersCount":227,"tipCount":12},"url":"http:\/\/wiener-conditorei.de\/conditorei\/am-roseneck\/","allowMenuUrlEdit":true,"beenHere":{"lastCheckinExpiredAt":0},"specials":{"count":0,"items":[]},"referralId":"v-1483291108","venueChains":[],"hasPerk":false},{"id":"4b815901f964a520baa030e3","name":"Aux Délices Normands","contact":{"phone":"+493083228212","formattedPhone":"+49 30 83228212"},"location":{"address":"Ihnestr. 29","lat":52.44831368869903,"lng":13.27599048614502,"labeledLatLngs":[{"label":"display","lat":52.44831368869903,"lng":13.27599048614502}],"postalCode":"14195","cc":"DE","city":"Berlin","state":"Berlin","country":"Germany","formattedAddress":["Ihnestr. 29","14195 Berlin","Germany"]},"categories":[{"id":"4bf58dd8d48988d16a941735","name":"Bakery","pluralName":"Bakeries","shortName":"Bakery","icon":{"prefix":"https:\/\/ss3.4sqi.net\/img\/categories_v2\/food\/bakery_","suffix":".png"},"primary":true}],"verified":false,"stats":{"checkinsCount":715,"usersCount":198,"tipCount":18},"url":"http:\/\/aux-delices-normands.de","allowMenuUrlEdit":true,"beenHere":{"lastCheckinExpiredAt":0},"specials":{"count":0,"items":[]},"referralId":"v-1483291108","venueChains":[],"hasPerk":false},{"id":"4b140547f964a520e29b23e3","name":"McDonald's","contact":{"twitter":"mcdonaldsdenews","facebook":"296270482587","facebookUsername":"mcd","facebookName":"McDonald's"},"location":{"address":"Mecklenburgischestr. 65-68","lat":52.477284,"lng":13.30776622480106,"labeledLatLngs":[{"label":"display","lat":52.477284,"lng":13.30776622480106}],"postalCode":"14197","cc":"DE","city":"Berlin","state":"Berlin","country":"Germany","formattedAddress":["Mecklenburgischestr. 65-68","14197 Berlin","Germany"]},"categories":[{"id":"4bf58dd8d48988d16e941735","name":"Fast Food Restaurant","pluralName":"Fast Food Restaurants","shortName":"Fast Food","icon":{"prefix":"https:\/\/ss3.4sqi.net\/img\/categories_v2\/food\/fastfood_","suffix":".png"},"primary":true}],"verified":true,"stats":{"checkinsCount":450,"usersCount":207,"tipCount":4},"url":"http:\/\/www.mcdonalds.de","allowMenuUrlEdit":true,"beenHere":{"lastCheckinExpiredAt":0},"specials":{"count":0,"items":[]},"storeId":"1113","referralId":"v-1483291108","venueChains":[{"id":"556f7a12bd6a75a9903bddb2"}],"hasPerk":false},{"id":"4cb83ab3558576b0a8e3470e","name":"Veggie Nº 1 - die Grüne Mensa","contact":{"phone":"+4930939397505","formattedPhone":"+49 30 939397505","twitter":"mensa_fu_vantho","facebook":"190995361624","facebookName":"Mensa FU Veggie Nº 1"},"location":{"address":"Van't-Hoff-Str. 6","lat":52.447124829278394,"lng":13.282898423526564,"labeledLatLngs":[{"label":"display","lat":52.447124829278394,"lng":13.282898423526564}],"postalCode":"14195","cc":"DE","city":"Berlin","state":"Berlin","country":"Germany","formattedAddress":["Van't-Hoff-Str. 6","14195 Berlin","Germany"]},"categories":[{"id":"4bf58dd8d48988d1a1941735","name":"College Cafeteria","pluralName":"College Cafeterias","shortName":"Cafeteria","icon":{"prefix":"https:\/\/ss3.4sqi.net\/img\/categories_v2\/education\/cafeteria_","suffix":".png"},"primary":true}],"verified":false,"stats":{"checkinsCount":889,"usersCount":167,"tipCount":6},"url":"http:\/\/www.studentenwerk-berlin.de\/mensen\/mensen_cafeterien\/fu1\/index.html","venueRatingBlacklisted":true,"allowMenuUrlEdit":true,"beenHere":{"lastCheckinExpiredAt":0},"specials":{"count":0,"items":[]},"referralId":"v-1483291108","venueChains":[],"hasPerk":false},{"id":"4c3edc900e0d0f473417167f","name":"Eis da Dalt","contact":{},"location":{"address":"Breite Str. 14","lat":52.47450182000324,"lng":13.294041907936494,"labeledLatLngs":[{"label":"display","lat":52.47450182000324,"lng":13.294041907936494}],"postalCode":"14199","cc":"DE","city":"Berlin","state":"Berlin","country":"Germany","formattedAddress":["Breite Str. 14","14199 Berlin","Germany"]},"categories":[{"id":"4bf58dd8d48988d1c9941735","name":"Ice Cream Shop","pluralName":"Ice Cream Shops","shortName":"Ice Cream","icon":{"prefix":"https:\/\/ss3.4sqi.net\/img\/categories_v2\/food\/icecream_","suffix":".png"},"primary":true}],"verified":false,"stats":{"checkinsCount":475,"usersCount":56,"tipCount":13},"allowMenuUrlEdit":true,"beenHere":{"lastCheckinExpiredAt":0},"specials":{"count":0,"items":[]},"referralId":"v-1483291108","venueChains":[],"hasPerk":false},{"id":"4f928760e4b06ce8579df9e6","name":"Hofladen im Kiez","contact":{},"location":{"address":"Kolberger Platz 5","lat":52.47680387744996,"lng":13.290487030872134,"labeledLatLngs":[{"label":"display","lat":52.47680387744996,"lng":13.290487030872134}],"postalCode":"14199","cc":"DE","city":"Berlin","state":"Berlin","country":"Germany","formattedAddress":["Kolberger Platz 5","14199 Berlin","Germany"]},"categories":[{"id":"4bf58dd8d48988d146941735","name":"Deli \/ Bodega","pluralName":"Delis \/ Bodegas","shortName":"Deli \/ Bodega","icon":{"prefix":"https:\/\/ss3.4sqi.net\/img\/categories_v2\/food\/deli_","suffix":".png"},"primary":true}],"verified":false,"stats":{"checkinsCount":338,"usersCount":37,"tipCount":1},"allowMenuUrlEdit":true,"beenHere":{"lastCheckinExpiredAt":0},"specials":{"count":0,"items":[]},"referralId":"v-1483291108","venueChains":[],"hasPerk":false},{"id":"4b97f2d9f964a520972135e3","name":"McDonald's","contact":{"twitter":"mcdonaldsdenews","facebook":"296270482587","facebookUsername":"mcd","facebookName":"McDonald's"},"location":{"address":"Clayallee 121","crossStreet":"Höhe Königin-Luise-Str.","lat":52.45903303742494,"lng":13.273565769195557,"labeledLatLngs":[{"label":"display","lat":52.45903303742494,"lng":13.273565769195557}],"postalCode":"14195","cc":"DE","city":"Berlin","state":"Berlin","country":"Germany","formattedAddress":["Clayallee 121 (Höhe Königin-Luise-Str.)","14195 Berlin","Germany"]},"categories":[{"id":"4bf58dd8d48988d16e941735","name":"Fast Food Restaurant","pluralName":"Fast Food Restaurants","shortName":"Fast Food","icon":{"prefix":"https:\/\/ss3.4sqi.net\/img\/categories_v2\/food\/fastfood_","suffix":".png"},"primary":true}],"verified":true,"stats":{"checkinsCount":569,"usersCount":291,"tipCount":2},"url":"http:\/\/www.mcdonalds.de","allowMenuUrlEdit":true,"beenHere":{"lastCheckinExpiredAt":0},"specials":{"count":0,"items":[]},"storeId":"212","referralId":"v-1483291108","venueChains":[{"id":"556f7a12bd6a75a9903bddb2"}],"hasPerk":false},{"id":"552cf63b498e9331a3dfa2f0","name":"Frau Lüske Kaffeehaus","contact":{"phone":"+493086200480","formattedPhone":"+49 30 86200480","facebook":"360811560793022","facebookUsername":"fraulueske","facebookName":"Kaffeehaus Frau Lüske"},"location":{"address":"Baseler Str. 46","lat":52.438061571326955,"lng":13.295608304686413,"labeledLatLngs":[{"label":"display","lat":52.438061571326955,"lng":13.295608304686413}],"postalCode":"12205","cc":"DE","city":"Berlin","state":"Berlin","country":"Germany","formattedAddress":["Baseler Str. 46","12205 Berlin","Germany"]},"categories":[{"id":"4bf58dd8d48988d16d941735","name":"Café","pluralName":"Cafés","shortName":"Café","icon":{"prefix":"https:\/\/ss3.4sqi.net\/img\/categories_v2\/food\/cafe_","suffix":".png"},"primary":true}],"verified":false,"stats":{"checkinsCount":77,"usersCount":45,"tipCount":4},"url":"http:\/\/www.fraulueske.de","allowMenuUrlEdit":true,"beenHere":{"lastCheckinExpiredAt":0},"specials":{"count":0,"items":[]},"referralId":"v-1483291108","venueChains":[],"hasPerk":false},{"id":"4b5c51f4f964a520dd2a29e3","name":"Trattoria Taormina","contact":{},"location":{"address":"Cicerostr. 37","lat":52.49171820553279,"lng":13.301068056111141,"labeledLatLngs":[{"label":"display","lat":52.49171820553279,"lng":13.301068056111141}],"postalCode":"10709","cc":"DE","city":"Berlin","state":"Berlin","country":"Germany","formattedAddress":["Cicerostr. 37","10709 Berlin","Germany"]},"categories":[{"id":"55a5a1ebe4b013909087cb7f","name":"Trattoria\/Osteria","pluralName":"Trattorias\/Osterias","shortName":"Trattoria\/Osteria","icon":{"prefix":"https:\/\/ss3.4sqi.net\/img\/categories_v2\/food\/italian_","suffix":".png"},"primary":true}],"verified":false,"stats":{"checkinsCount":278,"usersCount":64,"tipCount":6},"allowMenuUrlEdit":true,"beenHere":{"lastCheckinExpiredAt":0},"specials":{"count":0,"items":[]},"referralId":"v-1483291108","venueChains":[],"hasPerk":false},{"id":"521397ce498ecec81a79e887","name":"Ryuki","contact":{"phone":"+493031173454","formattedPhone":"+49 30 31173454"},"location":{"address":"Teltower Damm 52","lat":52.40663152840062,"lng":13.225336102251063,"labeledLatLngs":[{"label":"display","lat":52.40663152840062,"lng":13.225336102251063}],"postalCode":"14176","cc":"DE","city":"Berlin","state":"Berlin","country":"Germany","formattedAddress":["Teltower Damm 52","14176 Berlin","Germany"]},"categories":[{"id":"4bf58dd8d48988d142941735","name":"Asian Restaurant","pluralName":"Asian Restaurants","shortName":"Asian","icon":{"prefix":"https:\/\/ss3.4sqi.net\/img\/categories_v2\/food\/asian_","suffix":".png"},"primary":true}],"verified":false,"stats":{"checkinsCount":268,"usersCount":10,"tipCount":1},"allowMenuUrlEdit":true,"beenHere":{"lastCheckinExpiredAt":0},"specials":{"count":0,"items":[]},"referralId":"v-1483291108","venueChains":[],"hasPerk":false},{"id":"4adcda78f964a5206a4621e3","name":"Die Fischerhütte am Schlachtensee","contact":{"phone":"+493036752634","formattedPhone":"+49 30 36752634"},"location":{"address":"Fischerhüttenstr. 136","crossStreet":"Elvirasteig","lat":52.44488059181418,"lng":13.227345943450928,"labeledLatLngs":[{"label":"display","lat":52.44488059181418,"lng":13.227345943450928}],"postalCode":"14163","cc":"DE","city":"Berlin","state":"Berlin","country":"Germany","formattedAddress":["Fischerhüttenstr. 136 (Elvirasteig)","14163 Berlin","Germany"]},"categories":[{"id":"4bf58dd8d48988d10d941735","name":"German Restaurant","pluralName":"German Restaurants","shortName":"German","icon":{"prefix":"https:\/\/ss3.4sqi.net\/img\/categories_v2\/food\/german_","suffix":".png"},"primary":true}],"verified":false,"stats":{"checkinsCount":2483,"usersCount":1196,"tipCount":44},"allowMenuUrlEdit":true,"beenHere":{"lastCheckinExpiredAt":0},"specials":{"count":0,"items":[]},"referralId":"v-1483291108","venueChains":[],"hasPerk":false},{"id":"4b7ff2d3f964a5204b4630e3","name":"Scheune","contact":{},"location":{"address":"Eichkampstrasse 155","lat":52.488976370850914,"lng":13.2613736686341,"labeledLatLngs":[{"label":"display","lat":52.488976370850914,"lng":13.2613736686341}],"postalCode":"14055","cc":"DE","city":"Berlin","state":"Berlin","country":"Germany","formattedAddress":["Eichkampstrasse 155","14055 Berlin","Germany"]},"categories":[{"id":"4bf58dd8d48988d10d941735","name":"German Restaurant","pluralName":"German Restaurants","shortName":"German","icon":{"prefix":"https:\/\/ss3.4sqi.net\/img\/categories_v2\/food\/german_","suffix":".png"},"primary":true}],"verified":false,"stats":{"checkinsCount":339,"usersCount":254,"tipCount":11},"allowMenuUrlEdit":true,"beenHere":{"lastCheckinExpiredAt":0},"specials":{"count":0,"items":[]},"referralId":"v-1483291108","venueChains":[],"hasPerk":false},{"id":"4b55ccc5f964a5209cf027e3","name":"Alter Krug Dahlem","contact":{"phone":"+49308327000","formattedPhone":"+49 30 8327000","facebook":"1673914699520226","facebookUsername":"alterkrugdahlem","facebookName":"Alter Krug Dahlem"},"location":{"address":"Königin-Luise-Str. 52","lat":52.45772795203843,"lng":13.288196538050096,"labeledLatLngs":[{"label":"display","lat":52.45772795203843,"lng":13.288196538050096}],"postalCode":"14195","cc":"DE","city":"Berlin","state":"Berlin","country":"Germany","formattedAddress":["Königin-Luise-Str. 52","14195 Berlin","Germany"]},"categories":[{"id":"4bf58dd8d48988d10d941735","name":"German Restaurant","pluralName":"German Restaurants","shortName":"German","icon":{"prefix":"https:\/\/ss3.4sqi.net\/img\/categories_v2\/food\/german_","suffix":".png"},"primary":true}],"verified":false,"stats":{"checkinsCount":450,"usersCount":243,"tipCount":11},"url":"http:\/\/www.alter-krug-berlin.de","allowMenuUrlEdit":true,"beenHere":{"lastCheckinExpiredAt":0},"specials":{"count":0,"items":[]},"referralId":"v-1483291108","venueChains":[],"hasPerk":false},{"id":"4adcda75f964a520a04521e3","name":"Luise","contact":{},"location":{"address":"Königin-Luise-Str. 40-42","lat":52.457821,"lng":13.291631,"labeledLatLngs":[{"label":"display","lat":52.457821,"lng":13.291631}],"postalCode":"14195","cc":"DE","city":"Berlin","state":"Berlin","country":"Germany","formattedAddress":["Königin-Luise-Str. 40-42","14195 Berlin","Germany"]},"categories":[{"id":"4bf58dd8d48988d10d941735","name":"German Restaurant","pluralName":"German Restaurants","shortName":"German","icon":{"prefix":"https:\/\/ss3.4sqi.net\/img\/categories_v2\/food\/german_","suffix":".png"},"primary":true}],"verified":false,"stats":{"checkinsCount":1201,"usersCount":679,"tipCount":22},"url":"http:\/\/www.luise-dahlem.de\/","allowMenuUrlEdit":true,"beenHere":{"lastCheckinExpiredAt":0},"specials":{"count":0,"items":[]},"referralId":"v-1483291108","venueChains":[],"hasPerk":false},{"id":"5398aa91498ea6a8230e5c74","name":"Paulsborn am Grunewaldsee","contact":{},"location":{"address":"Hüttenweg 90","lat":52.46650657902762,"lng":13.256018915775451,"labeledLatLngs":[{"label":"display","lat":52.46650657902762,"lng":13.256018915775451}],"postalCode":"14193","cc":"DE","city":"Berlin","state":"Berlin","country":"Germany","formattedAddress":["Hüttenweg 90","14193 Berlin","Germany"]},"categories":[{"id":"4bf58dd8d48988d1c4941735","name":"Restaurant","pluralName":"Restaurants","shortName":"Restaurant","icon":{"prefix":"https:\/\/ss3.4sqi.net\/img\/categories_v2\/food\/default_","suffix":".png"},"primary":true}],"verified":false,"stats":{"checkinsCount":211,"usersCount":127,"tipCount":4},"allowMenuUrlEdit":true,"beenHere":{"lastCheckinExpiredAt":0},"specials":{"count":0,"items":[]},"referralId":"v-1483291108","venueChains":[],"hasPerk":false},{"id":"4b5ad52cf964a52098d628e3","name":"Tomasa","contact":{"phone":"+493081009600","formattedPhone":"+49 30 81009600"},"location":{"address":"Berliner Str. 8 - 8a","lat":52.43486581683874,"lng":13.262367771299354,"labeledLatLngs":[{"label":"display","lat":52.43486581683874,"lng":13.262367771299354}],"postalCode":"14169","cc":"DE","city":"Berlin","state":"Berlin","country":"Germany","formattedAddress":["Berliner Str. 8 - 8a","14169 Berlin","Germany"]},"categories":[{"id":"4bf58dd8d48988d16d941735","name":"Café","pluralName":"Cafés","shortName":"Café","icon":{"prefix":"https:\/\/ss3.4sqi.net\/img\/categories_v2\/food\/cafe_","suffix":".png"},"primary":true}],"verified":false,"stats":{"checkinsCount":667,"usersCount":359,"tipCount":8},"url":"http:\/\/www.tomasa.de\/","allowMenuUrlEdit":true,"beenHere":{"lastCheckinExpiredAt":0},"specials":{"count":0,"items":[]},"referralId":"v-1483291108","venueChains":[],"hasPerk":false},{"id":"4bf2ff6ac440c9b60d6f0104","name":"Trattoria Romana","contact":{"phone":"+493083220741","formattedPhone":"+49 30 83220741"},"location":{"address":"Unter den Eichen 84 D","crossStreet":"Thielallee","lat":52.4423562775154,"lng":13.283307552337646,"labeledLatLngs":[{"label":"display","lat":52.4423562775154,"lng":13.283307552337646}],"postalCode":"12205","cc":"DE","city":"Berlin","state":"Berlin","country":"Germany","formattedAddress":["Unter den Eichen 84 D (Thielallee)","12205 Berlin","Germany"]},"categories":[{"id":"55a5a1ebe4b013909087cb7f","name":"Trattoria\/Osteria","pluralName":"Trattorias\/Osterias","shortName":"Trattoria\/Osteria","icon":{"prefix":"https:\/\/ss3.4sqi.net\/img\/categories_v2\/food\/italian_","suffix":".png"},"primary":true}],"verified":false,"stats":{"checkinsCount":216,"usersCount":106,"tipCount":4},"url":"http:\/\/trattoriaromana-berlin.de","allowMenuUrlEdit":true,"beenHere":{"lastCheckinExpiredAt":0},"specials":{"count":0,"items":[]},"referralId":"v-1483291108","venueChains":[],"hasPerk":false},{"id":"4cdbe0743f6a8cfa5ab5edea","name":"Baci's Coffee","contact":{},"location":{"address":"Königin-Luise-Str. 39","lat":52.45810106,"lng":13.292151,"labeledLatLngs":[{"label":"display","lat":52.45810106,"lng":13.292151}],"postalCode":"14195","cc":"DE","city":"Berlin","state":"Berlin","country":"Germany","formattedAddress":["Königin-Luise-Str. 39","14195 Berlin","Germany"]},"categories":[{"id":"4bf58dd8d48988d16d941735","name":"Café","pluralName":"Cafés","shortName":"Café","icon":{"prefix":"https:\/\/ss3.4sqi.net\/img\/categories_v2\/food\/cafe_","suffix":".png"},"primary":true}],"verified":false,"stats":{"checkinsCount":458,"usersCount":104,"tipCount":9},"allowMenuUrlEdit":true,"beenHere":{"lastCheckinExpiredAt":0},"specials":{"count":0,"items":[]},"referralId":"v-1483291108","venueChains":[],"hasPerk":false},{"id":"4b1cd5e3f964a5200e0a24e3","name":"Jebens Conditorei & Café","contact":{},"location":{"address":"Hohenzollerndamm 47a","crossStreet":"Seesener Str.","lat":52.48865526636015,"lng":13.301640050263984,"labeledLatLngs":[{"label":"display","lat":52.48865526636015,"lng":13.301640050263984}],"cc":"DE","city":"Berlin","state":"Berlin","country":"Germany","formattedAddress":["Hohenzollerndamm 47a (Seesener Str.)","Berlin","Germany"]},"categories":[{"id":"4bf58dd8d48988d1d0941735","name":"Dessert Shop","pluralName":"Dessert Shops","shortName":"Desserts","icon":{"prefix":"https:\/\/ss3.4sqi.net\/img\/categories_v2\/food\/dessert_","suffix":".png"},"primary":true}],"verified":false,"stats":{"checkinsCount":498,"usersCount":119,"tipCount":6},"url":"http:\/\/www.conditorei-jebens.de","allowMenuUrlEdit":true,"beenHere":{"lastCheckinExpiredAt":0},"specials":{"count":0,"items":[]},"referralId":"v-1483291108","venueChains":[],"hasPerk":false},{"id":"4b6b1588f964a520a7f12be3","name":"Gasthaus Kronprinz","contact":{"phone":"+49308012092","formattedPhone":"+49 30 8012092"},"location":{"address":"Clayallee 323","lat":52.438233,"lng":13.262097,"labeledLatLngs":[{"label":"display","lat":52.438233,"lng":13.262097}],"postalCode":"14169","cc":"DE","city":"Berlin","state":"Berlin","country":"Germany","formattedAddress":["Clayallee 323","14169 Berlin","Germany"]},"categories":[{"id":"4bf58dd8d48988d10d941735","name":"German Restaurant","pluralName":"German Restaurants","shortName":"German","icon":{"prefix":"https:\/\/ss3.4sqi.net\/img\/categories_v2\/food\/german_","suffix":".png"},"primary":true}],"verified":false,"stats":{"checkinsCount":157,"usersCount":74,"tipCount":4},"url":"http:\/\/www.gasthaus-kronprinz.de\/","allowMenuUrlEdit":true,"beenHere":{"lastCheckinExpiredAt":0},"specials":{"count":0,"items":[]},"referralId":"v-1483291108","venueChains":[],"hasPerk":false},{"id":"4bfeabc4daf9c9b6ff0ef9ef","name":"Ristorante Piaggio","contact":{},"location":{"address":"Königin-Luise Straße 44","lat":52.45777750117729,"lng":13.290672304339127,"labeledLatLngs":[{"label":"display","lat":52.45777750117729,"lng":13.290672304339127}],"postalCode":"14195","cc":"DE","city":"Berlin","state":"Berlin","country":"Germany","formattedAddress":["Königin-Luise Straße 44","14195 Berlin","Germany"]},"categories":[{"id":"4bf58dd8d48988d1ca941735","name":"Pizza Place","pluralName":"Pizza Places","shortName":"Pizza","icon":{"prefix":"https:\/\/ss3.4sqi.net\/img\/categories_v2\/food\/pizza_","suffix":".png"},"primary":true}],"verified":false,"stats":{"checkinsCount":178,"usersCount":101,"tipCount":4},"allowMenuUrlEdit":true,"beenHere":{"lastCheckinExpiredAt":0},"specials":{"count":0,"items":[]},"referralId":"v-1483291108","venueChains":[],"hasPerk":false},{"id":"54b926b4498ecd38da191689","name":"San Francisco Coffee Company","contact":{"phone":"+493081052666","formattedPhone":"+49 30 81052666"},"location":{"address":"teltowerdamm 25","crossStreet":"Gartenstraße","lat":52.43284155225905,"lng":13.259314756277623,"labeledLatLngs":[{"label":"display","lat":52.43284155225905,"lng":13.259314756277623}],"postalCode":"14169","cc":"DE","city":"Berlin","state":"Berlin","country":"Germany","formattedAddress":["teltowerdamm 25 (Gartenstraße)","14169 Berlin","Germany"]},"categories":[{"id":"4bf58dd8d48988d1e0931735","name":"Coffee Shop","pluralName":"Coffee Shops","shortName":"Coffee Shop","icon":{"prefix":"https:\/\/ss3.4sqi.net\/img\/categories_v2\/food\/coffeeshop_","suffix":".png"},"primary":true}],"verified":false,"stats":{"checkinsCount":159,"usersCount":59,"tipCount":2},"url":"http:\/\/www.sfcc.de","allowMenuUrlEdit":true,"beenHere":{"lastCheckinExpiredAt":0},"specials":{"count":0,"items":[]},"referralId":"v-1483291108","venueChains":[],"hasPerk":false},{"id":"4adcda7af964a520244721e3","name":"Châlet Suisse","contact":{"phone":"+49308326362","formattedPhone":"+49 30 8326362"},"location":{"address":"Im Jagen 5","lat":52.461987,"lng":13.269361,"labeledLatLngs":[{"label":"display","lat":52.461987,"lng":13.269361}],"postalCode":"14193","cc":"DE","city":"Berlin","state":"Berlin","country":"Germany","formattedAddress":["Im Jagen 5","14193 Berlin","Germany"]},"categories":[{"id":"4bf58dd8d48988d158941735","name":"Swiss Restaurant","pluralName":"Swiss Restaurants","shortName":"Swiss","icon":{"prefix":"https:\/\/ss3.4sqi.net\/img\/categories_v2\/food\/swiss_","suffix":".png"},"primary":true}],"verified":false,"stats":{"checkinsCount":334,"usersCount":205,"tipCount":8},"url":"http:\/\/www.chalet-suisse.de","allowMenuUrlEdit":true,"beenHere":{"lastCheckinExpiredAt":0},"specials":{"count":0,"items":[]},"referralId":"v-1483291108","venueChains":[],"hasPerk":false},{"id":"4b716766f964a520e3442de3","name":"Reinhard's Landhaus","contact":{"phone":"+49308953800","formattedPhone":"+49 30 8953800"},"location":{"address":"Koenigsallee 56","crossStreet":"Douglasstr.","lat":52.48281942521723,"lng":13.264639377593994,"labeledLatLngs":[{"label":"display","lat":52.48281942521723,"lng":13.264639377593994}],"postalCode":"14193","cc":"DE","city":"Berlin","state":"Berlin","country":"Germany","formattedAddress":["Koenigsallee 56 (Douglasstr.)","14193 Berlin","Germany"]},"categories":[{"id":"4bf58dd8d48988d10d941735","name":"German Restaurant","pluralName":"German Restaurants","shortName":"German","icon":{"prefix":"https:\/\/ss3.4sqi.net\/img\/categories_v2\/food\/german_","suffix":".png"},"primary":true}],"verified":false,"stats":{"checkinsCount":335,"usersCount":133,"tipCount":5},"url":"http:\/\/www.reinhards-landhaus.de\/","allowMenuUrlEdit":true,"beenHere":{"lastCheckinExpiredAt":0},"specials":{"count":0,"items":[]},"referralId":"v-1483291108","venueChains":[],"hasPerk":false},{"id":"4d4555f0e198721e6209c58b","name":"CoffeeCross - Espressobar & Deli","contact":{"phone":"+493084415201","formattedPhone":"+49 30 84415201"},"location":{"address":"Thielallee 34","crossStreet":"Brümmer Str.","lat":52.453249,"lng":13.286294,"labeledLatLngs":[{"label":"display","lat":52.453249,"lng":13.286294}],"postalCode":"14195","cc":"DE","city":"Berlin","state":"Berlin","country":"Germany","formattedAddress":["Thielallee 34 (Brümmer Str.)","14195 Berlin","Germany"]},"categories":[{"id":"4bf58dd8d48988d16d941735","name":"Café","pluralName":"Cafés","shortName":"Café","icon":{"prefix":"https:\/\/ss3.4sqi.net\/img\/categories_v2\/food\/cafe_","suffix":".png"},"primary":true}],"verified":false,"stats":{"checkinsCount":189,"usersCount":84,"tipCount":1},"url":"http:\/\/www.coffeecross.de","allowMenuUrlEdit":true,"beenHere":{"lastCheckinExpiredAt":0},"specials":{"count":0,"items":[]},"referralId":"v-1483291108","venueChains":[],"hasPerk":false},{"id":"4b87f5d5f964a52053d531e3","name":"Litehouse","contact":{"phone":"+49493084374424","formattedPhone":"+49 4930 84374424"},"location":{"address":"Baseler Str. 10","crossStreet":"Ecke Curtiusstr.","lat":52.44242821593549,"lng":13.29544186592102,"labeledLatLngs":[{"label":"display","lat":52.44242821593549,"lng":13.29544186592102}],"postalCode":"12205","cc":"DE","city":"Berlin","state":"Berlin","country":"Germany","formattedAddress":["Baseler Str. 10 (Ecke Curtiusstr.)","12205 Berlin","Germany"]},"categories":[{"id":"4bf58dd8d48988d143941735","name":"Breakfast Spot","pluralName":"Breakfast Spots","shortName":"Breakfast","icon":{"prefix":"https:\/\/ss3.4sqi.net\/img\/categories_v2\/food\/breakfast_","suffix":".png"},"primary":true}],"verified":false,"stats":{"checkinsCount":353,"usersCount":141,"tipCount":4},"allowMenuUrlEdit":true,"beenHere":{"lastCheckinExpiredAt":0},"specials":{"count":0,"items":[]},"referralId":"v-1483291108","venueChains":[],"hasPerk":false},{"id":"4b7ad99bf964a520c7402fe3","name":"Trattoria Toscana","contact":{"phone":"+493089540715","formattedPhone":"+49 30 89540715"},"location":{"address":"Hubertusallee 48","lat":52.486823201179504,"lng":13.284761309623718,"labeledLatLngs":[{"label":"display","lat":52.486823201179504,"lng":13.284761309623718}],"postalCode":"14193","cc":"DE","city":"Berlin","state":"Berlin","country":"Germany","formattedAddress":["Hubertusallee 48","14193 Berlin","Germany"]},"categories":[{"id":"55a5a1ebe4b013909087cb7f","name":"Trattoria\/Osteria","pluralName":"Trattorias\/Osterias","shortName":"Trattoria\/Osteria","icon":{"prefix":"https:\/\/ss3.4sqi.net\/img\/categories_v2\/food\/italian_","suffix":".png"},"primary":true}],"verified":false,"stats":{"checkinsCount":445,"usersCount":140,"tipCount":5},"url":"http:\/\/www.trattoria-toscana-im-grunewald.de\/","allowMenuUrlEdit":true,"beenHere":{"lastCheckinExpiredAt":0},"specials":{"count":0,"items":[]},"referralId":"v-1483291108","venueChains":[],"hasPerk":false},{"id":"4bacd885f964a52063113be3","name":"uncle sam's","contact":{"phone":"+491747951378","formattedPhone":"+49 174 7951378"},"location":{"address":"Berliner Str. 1","lat":52.43510818914325,"lng":13.26139969439347,"labeledLatLngs":[{"label":"display","lat":52.43510818914325,"lng":13.26139969439347}],"postalCode":"14169","cc":"DE","city":"Berlin","state":"Berlin","country":"Germany","formattedAddress":["Berliner Str. 1","14169 Berlin","Germany"]},"categories":[{"id":"4bf58dd8d48988d16c941735","name":"Burger Joint","pluralName":"Burger Joints","shortName":"Burgers","icon":{"prefix":"https:\/\/ss3.4sqi.net\/img\/categories_v2\/food\/burger_","suffix":".png"},"primary":true}],"verified":false,"stats":{"checkinsCount":549,"usersCount":185,"tipCount":19},"allowMenuUrlEdit":true,"beenHere":{"lastCheckinExpiredAt":0},"specials":{"count":0,"items":[]},"referralId":"v-1483291108","venueChains":[],"hasPerk":false},{"id":"4cccb0982dc43704ed64c908","name":"Jüdisches Bildungzentrum - Chabad Haus - בית חב\"ד","contact":{"phone":"+493021280830","formattedPhone":"+49 30 21280830"},"location":{"address":"Münstersche Str. 6","lat":52.49384701274228,"lng":13.308239700620177,"labeledLatLngs":[{"label":"display","lat":52.49384701274228,"lng":13.308239700620177}],"postalCode":"10709","cc":"DE","city":"Berlin","state":"Berlin","country":"Germany","formattedAddress":["Münstersche Str. 6","10709 Berlin","Germany"]},"categories":[{"id":"4bf58dd8d48988d139941735","name":"Synagogue","pluralName":"Synagogues","shortName":"Synagogue","icon":{"prefix":"https:\/\/ss3.4sqi.net\/img\/categories_v2\/building\/religious_synagogue_","suffix":".png"},"primary":true}],"verified":false,"stats":{"checkinsCount":103,"usersCount":55,"tipCount":5},"url":"http:\/\/www.chabadberlin.de","venueRatingBlacklisted":true,"allowMenuUrlEdit":true,"beenHere":{"lastCheckinExpiredAt":0},"specials":{"count":0,"items":[]},"referralId":"v-1483291108","venueChains":[],"hasPerk":false}]}}