{"meta":{"code":200,"requestId":"586939e0f594df188c9f2537"},"response":{"venues":[{"id":"4d516129e0275481fc04aab6","name":"esswirtschaft","contact":{"phone":"+493070033593","formattedPhone":"+49 30 70033593"},"location":{"address":"Rudower Chaussee 24","lat":52.43132818818306,"lng":13.53272113034622,"labeledLatLngs":[{"label":"display","lat":52.43132818818306,"lng":13.53272113034622}],"postalCode":"12489","cc":"DE","city":"Berlin","state":"Berlin","country":"Germany","formattedAddress":["Rudower Chaussee 24","12489 Berlin","Germany"]},"categories":[{"id":"4bf58dd8d48988d1c4941735","name":"Restaurant","pluralName":"Restaurants","shortName":"Restaurant","icon":{"prefix":"https:\/\/ss3.4sqi.net\/img\/categories_v2\/food\/default_","suffix":".png"},"primary":true}],"verified":false,"stats":{"checkinsCount":430,"usersCount":115,"tipCount":7},"url":"http:\/\/www.esswirtschaft.de","allowMenuUrlEdit":true,"beenHere":{"lastCheckinExpiredAt":0},"specials":{"count":0,"items":[]},"referralId":"v-1483291104","venueChains":[],"hasPerk":false},{"id":"559d0c2d498ea2f0ab88a975","name":"mani mogo","contact":{"phone":"+493055517471","formattedPhone":"+49 30 55517471","facebook":"1382119072118834","facebookUsername":"manimogoberlin","facebookName":"Mani Mogo"},"location":{"address":"Erich-Thilo-Str. 3","lat":52.432811065900026,"lng":13.531990054039094,"labeledLatLngs":[{"label":"display","lat":52.432811065900026,"lng":13.531990054039094}],"postalCode":"12489","cc":"DE","city":"Berlin","state":"Berlin","country":"Germany","formattedAddress":["Erich-Thilo-Str. 3","12489 Berlin","Germany"]},"categories":[{"id":"4bf58dd8d48988d113941735","name":"Korean Restaurant","pluralName":"Korean Restaurants","shortName":"Korean","icon":{"prefix":"https:\/\/ss3.4sqi.net\/img\/categories_v2\/food\/korean_","suffix":".png"},"primary":true}],"verified":false,"stats":{"checkinsCount":122,"usersCount":49,"tipCount":4},"url":"http:\/\/www.mani-mogo.com","allowMenuUrlEdit":true,"beenHere":{"lastCheckinExpiredAt":0},"specials":{"count":0,"items":[]},"referralId":"v-1483291104","venueChains":[],"hasPerk":false},{"id":"4d26239395e8f04d1719404d","name":"Luise","contact":{"phone":"+493064329777","formattedPhone":"+49 30 64329777"},"location":{"address":"Alt-Köpenick 20","lat":52.446009635238205,"lng":13.573886696753718,"labeledLatLngs":[{"label":"display","lat":52.446009635238205,"lng":13.573886696753718}],"postalCode":"12555","cc":"DE","city":"Berlin","state":"Berlin","country":"Germany","formattedAddress":["Alt-Köpenick 20","12555 Berlin","Germany"]},"categories":[{"id":"4bf58dd8d48988d10d941735","name":"German Restaurant","pluralName":"German Restaurants","shortName":"German","icon":{"prefix":"https:\/\/ss3.4sqi.net\/img\/categories_v2\/food\/german_","suffix":".png"},"primary":true}],"verified":false,"stats":{"checkinsCount":335,"usersCount":185,"tipCount":1},"url":"http:\/\/www.luise-koepenick.de\/","allowMenuUrlEdit":true,"beenHere":{"lastCheckinExpiredAt":0},"specials":{"count":0,"items":[]},"referralId":"v-1483291104","venueChains":[],"hasPerk":false},{"id":"5440fae5498e1cb31c60d1c6","name":"azuma","contact":{},"location":{"address":"Rudower Chaussee 9","lat":52.43316917002007,"lng":13.536792849589817,"labeledLatLngs":[{"label":"display","lat":52.43316917002007,"lng":13.536792849589817}],"cc":"DE","city":"Berlin","state":"Berlin","country":"Germany","formattedAddress":["Rudower Chaussee 9","Berlin","Germany"]},"categories":[{"id":"4bf58dd8d48988d1d2941735","name":"Sushi Restaurant","pluralName":"Sushi Restaurants","shortName":"Sushi","icon":{"prefix":"https:\/\/ss3.4sqi.net\/img\/categories_v2\/food\/sushi_","suffix":".png"},"primary":true}],"verified":false,"stats":{"checkinsCount":41,"usersCount":15,"tipCount":0},"allowMenuUrlEdit":true,"beenHere":{"lastCheckinExpiredAt":0},"specials":{"count":0,"items":[]},"referralId":"v-1483291104","venueChains":[],"hasPerk":false},{"id":"51b487df498ebc589e5f2b91","name":"Café Schoeneweile","contact":{"phone":"+491791127110","formattedPhone":"+49 179 1127110"},"location":{"address":"Reinbeckstr. 9","lat":52.460414,"lng":13.518493,"labeledLatLngs":[{"label":"display","lat":52.460414,"lng":13.518493}],"postalCode":"12459","cc":"DE","city":"Berlin","state":"Berlin","country":"Germany","formattedAddress":["Reinbeckstr. 9","12459 Berlin","Germany"]},"categories":[{"id":"4bf58dd8d48988d16d941735","name":"Café","pluralName":"Cafés","shortName":"Café","icon":{"prefix":"https:\/\/ss3.4sqi.net\/img\/categories_v2\/food\/cafe_","suffix":".png"},"primary":true}],"verified":false,"stats":{"checkinsCount":579,"usersCount":56,"tipCount":5},"url":"http:\/\/www.cafe-schoeneweile.de","allowMenuUrlEdit":true,"beenHere":{"lastCheckinExpiredAt":0},"specials":{"count":0,"items":[]},"referralId":"v-1483291104","venueChains":[],"hasPerk":false},{"id":"4c4f13a192b6a593ca8dfc70","name":"Artemis","contact":{},"location":{"address":"Schnellerstr. 97","lat":52.45326341640575,"lng":13.524363040924072,"labeledLatLngs":[{"label":"display","lat":52.45326341640575,"lng":13.524363040924072}],"postalCode":"12439","cc":"DE","city":"Berlin","state":"Berlin","country":"Germany","formattedAddress":["Schnellerstr. 97","12439 Berlin","Germany"]},"categories":[{"id":"4bf58dd8d48988d10e941735","name":"Greek Restaurant","pluralName":"Greek Restaurants","shortName":"Greek","icon":{"prefix":"https:\/\/ss3.4sqi.net\/img\/categories_v2\/food\/greek_","suffix":".png"},"primary":true}],"verified":false,"stats":{"checkinsCount":178,"usersCount":67,"tipCount":6},"url":"http:\/\/www.griechisches-restaurant-artemis.de","allowMenuUrlEdit":true,"beenHere":{"lastCheckinExpiredAt":0},"specials":{"count":0,"items":[]},"referralId":"v-1483291104","venueChains":[],"hasPerk":false},{"id":"4dfccda752b18923030d5657","name":"Trattoria Il Mondo","contact":{},"location":{"address":"Platz der Befreiung 1","lat":52.43462666667884,"lng":13.542967548055463,"labeledLatLngs":[{"label":"display","lat":52.43462666667884,"lng":13.542967548055463}],"postalCode":"12489","cc":"DE","city":"Berlin","state":"Berlin","country":"Germany","formattedAddress":["Platz der Befreiung 1","12489 Berlin","Germany"]},"categories":[{"id":"55a5a1ebe4b013909087cb7f","name":"Trattoria\/Osteria","pluralName":"Trattorias\/Osterias","shortName":"Trattoria\/Osteria","icon":{"prefix":"https:\/\/ss3.4sqi.net\/img\/categories_v2\/food\/italian_","suffix":".png"},"primary":true}],"verified":false,"stats":{"checkinsCount":75,"usersCount":43,"tipCount":6},"allowMenuUrlEdit":true,"beenHere":{"lastCheckinExpiredAt":0},"specials":{"count":0,"items":[]},"referralId":"v-1483291104","venueChains":[],"hasPerk":false},{"id":"4c06cda2b4aa0f47a4ac6462","name":"McDonald's","contact":{"twitter":"mcdonaldsdenews","facebook":"296270482587","facebookUsername":"mcd","facebookName":"McDonald's"},"location":{"address":"Adlergestell 289","lat":52.4318617570853,"lng":13.54708673156351,"labeledLatLngs":[{"label":"display","lat":52.4318617570853,"lng":13.54708673156351}],"postalCode":"12489","cc":"DE","city":"Berlin","state":"Berlin","country":"Germany","formattedAddress":["Adlergestell 289","12489 Berlin","Germany"]},"categories":[{"id":"4bf58dd8d48988d16e941735","name":"Fast Food Restaurant","pluralName":"Fast Food Restaurants","shortName":"Fast Food","icon":{"prefix":"https:\/\/ss3.4sqi.net\/img\/categories_v2\/food\/fastfood_","suffix":".png"},"primary":true}],"verified":true,"stats":{"checkinsCount":332,"usersCount":172,"tipCount":0},"url":"http:\/\/www.mcdonalds.de","allowMenuUrlEdit":true,"beenHere":{"lastCheckinExpiredAt":0},"specials":{"count":0,"items":[]},"storeId":"835","referralId":"v-1483291104","venueChains":[{"id":"556f7a12bd6a75a9903bddb2"}],"hasPerk":false},{"id":"4b37a668f964a520a24325e3","name":"Dampf & Zucker","contact":{},"location":{"address":"dönhoffstr. 6","lat":52.48336095666762,"lng":13.522952036563916,"labeledLatLngs":[{"label":"display","lat":52.48336095666762,"lng":13.522952036563916}],"cc":"DE","city":"Berlin","state":"Berlin","country":"Germany","formattedAddress":["dönhoffstr. 6","Berlin","Germany"]},"categories":[{"id":"4bf58dd8d48988d1dd931735","name":"Soup Place","pluralName":"Soup Places","shortName":"Soup","icon":{"prefix":"https:\/\/ss3.4sqi.net\/img\/categories_v2\/food\/soup_","suffix":".png"},"primary":true}],"verified":false,"stats":{"checkinsCount":290,"usersCount":28,"tipCount":5},"allowMenuUrlEdit":true,"beenHere":{"lastCheckinExpiredAt":0},"specials":{"count":0,"items":[]},"referralId":"v-1483291104","venueChains":[],"hasPerk":false},{"id":"50350f03e4b000f5aa4a1960","name":"Villa Toscana","contact":{"phone":"+493050342595","formattedPhone":"+49 30 50342595"},"location":{"address":"Köpenicker Straße 150","lat":52.42019977338824,"lng":13.500522445709446,"labeledLatLngs":[{"label":"display","lat":52.42019977338824,"lng":13.500522445709446}],"postalCode":"12355","cc":"DE","city":"Berlin","state":"Berlin","country":"Germany","formattedAddress":["Köpenicker Straße 150","12355 Berlin","Germany"]},"categories":[{"id":"4bf58dd8d48988d110941735","name":"Italian Restaurant","pluralName":"Italian Restaurants","shortName":"Italian","icon":{"prefix":"https:\/\/ss3.4sqi.net\/img\/categories_v2\/food\/italian_","suffix":".png"},"primary":true}],"verified":false,"stats":{"checkinsCount":73,"usersCount":17,"tipCount":2},"allowMenuUrlEdit":true,"beenHere":{"lastCheckinExpiredAt":0},"specials":{"count":0,"items":[]},"referralId":"v-1483291104","venueChains":[],"hasPerk":false},{"id":"4f23d26ce4b0831875ebddbb","name":"Café Mutter Lustig","contact":{"phone":"+493074391357","formattedPhone":"+49 30 74391357"},"location":{"address":"Müggelheimer Str. 1","lat":52.44406968796434,"lng":13.575024604797363,"labeledLatLngs":[{"label":"display","lat":52.44406968796434,"lng":13.575024604797363}],"postalCode":"12555","cc":"DE","city":"Berlin","state":"Berlin","country":"Germany","formattedAddress":["Müggelheimer Str. 1","12555 Berlin","Germany"]},"categories":[{"id":"4bf58dd8d48988d16d941735","name":"Café","pluralName":"Cafés","shortName":"Café","icon":{"prefix":"https:\/\/ss3.4sqi.net\/img\/categories_v2\/food\/cafe_","suffix":".png"},"primary":true}],"verified":false,"stats":{"checkinsCount":116,"usersCount":69,"tipCount":2},"allowMenuUrlEdit":true,"beenHere":{"lastCheckinExpiredAt":0},"specials":{"count":0,"items":[]},"referralId":"v-1483291104","venueChains":[],"hasPerk":false},{"id":"4bf1a39cd39ad13a9d7baa0e","name":"NH Berlin Treptow","contact":{"phone":"+494930639030","formattedPhone":"+49 4930 639030"},"location":{"address":"Spreestr. 14","lat":52.45878088,"lng":13.513013,"labeledLatLngs":[{"label":"display","lat":52.45878088,"lng":13.513013}],"cc":"DE","city":"Berlin","state":"Berlin","country":"Germany","formattedAddress":["Spreestr. 14","Berlin","Germany"]},"categories":[{"id":"4bf58dd8d48988d1fa931735","name":"Hotel","pluralName":"Hotels","shortName":"Hotel","icon":{"prefix":"https:\/\/ss3.4sqi.net\/img\/categories_v2\/travel\/hotel_","suffix":".png"},"primary":true}],"verified":true,"stats":{"checkinsCount":426,"usersCount":230,"tipCount":1},"url":"http:\/\/www.nh-hotels.de\/hotel\/nh-berlin-treptow","allowMenuUrlEdit":true,"beenHere":{"lastCheckinExpiredAt":0},"specials":{"count":0,"items":[]},"storeId":"192","referralId":"v-1483291104","venueChains":[{"id":"556ce426aceaff43eb04e8a4"}],"hasPerk":false},{"id":"4ef7b059f7907312522db3b9","name":"Pizza Station","contact":{"phone":"+493050012990","formattedPhone":"+49 30 50012990"},"location":{"address":"Treskowallee 31","crossStreet":"Waldowallee","lat":52.48970287972062,"lng":13.528213449285353,"labeledLatLngs":[{"label":"display","lat":52.48970287972062,"lng":13.528213449285353}],"postalCode":"10318","cc":"DE","city":"Berlin","state":"Berlin","country":"Germany","formattedAddress":["Treskowallee 31 (Waldowallee)","10318 Berlin","Germany"]},"categories":[{"id":"4bf58dd8d48988d1ca941735","name":"Pizza Place","pluralName":"Pizza Places","shortName":"Pizza","icon":{"prefix":"https:\/\/ss3.4sqi.net\/img\/categories_v2\/food\/pizza_","suffix":".png"},"primary":true}],"verified":false,"stats":{"checkinsCount":69,"usersCount":30,"tipCount":1},"allowMenuUrlEdit":true,"beenHere":{"lastCheckinExpiredAt":0},"specials":{"count":0,"items":[]},"referralId":"v-1483291104","venueChains":[],"hasPerk":false},{"id":"4c9e03c354c8a1cd0013894b","name":"Milchkaffee","contact":{},"location":{"address":"Kirchstr. 5","lat":52.446009,"lng":13.575949,"labeledLatLngs":[{"label":"display","lat":52.446009,"lng":13.575949}],"postalCode":"12555","cc":"DE","city":"Berlin","state":"Berlin","country":"Germany","formattedAddress":["Kirchstr. 5","12555 Berlin","Germany"]},"categories":[{"id":"4bf58dd8d48988d16d941735","name":"Café","pluralName":"Cafés","shortName":"Café","icon":{"prefix":"https:\/\/ss3.4sqi.net\/img\/categories_v2\/food\/cafe_","suffix":".png"},"primary":true}],"verified":false,"stats":{"checkinsCount":121,"usersCount":82,"tipCount":5},"url":"http:\/\/www.milchkaffee-köpenick.de","allowMenuUrlEdit":true,"beenHere":{"lastCheckinExpiredAt":0},"specials":{"count":0,"items":[]},"referralId":"v-1483291104","venueChains":[],"hasPerk":false},{"id":"4adcda88f964a520534921e3","name":"Ratskeller Köpenick","contact":{},"location":{"address":"Alt-Köpenick 21","lat":52.44550214337647,"lng":13.57445303137336,"labeledLatLngs":[{"label":"display","lat":52.44550214337647,"lng":13.57445303137336}],"postalCode":"12555","cc":"DE","city":"Berlin","state":"Berlin","country":"Germany","formattedAddress":["Alt-Köpenick 21","12555 Berlin","Germany"]},"categories":[{"id":"4bf58dd8d48988d10d941735","name":"German Restaurant","pluralName":"German Restaurants","shortName":"German","icon":{"prefix":"https:\/\/ss3.4sqi.net\/img\/categories_v2\/food\/german_","suffix":".png"},"primary":true}],"verified":false,"stats":{"checkinsCount":273,"usersCount":182,"tipCount":6},"allowMenuUrlEdit":true,"beenHere":{"lastCheckinExpiredAt":0},"specials":{"count":0,"items":[]},"referralId":"v-1483291104","venueChains":[],"hasPerk":false},{"id":"4b7ebdebf964a52036fc2fe3","name":"Subway","contact":{"twitter":"subway_de","facebook":"344302940835","facebookUsername":"subwaydeutschland","facebookName":"Subway Deutschland"},"location":{"address":"Rudower Chaussee 12","crossStreet":"Gross-Berliner Damm","lat":52.432676218930034,"lng":13.535242080688477,"labeledLatLngs":[{"label":"display","lat":52.432676218930034,"lng":13.535242080688477}],"postalCode":"12489","cc":"DE","city":"Berlin","state":"Berlin","country":"Germany","formattedAddress":["Rudower Chaussee 12 (Gross-Berliner Damm)","12489 Berlin","Germany"]},"categories":[{"id":"4bf58dd8d48988d1c5941735","name":"Sandwich Place","pluralName":"Sandwich Places","shortName":"Sandwiches","icon":{"prefix":"https:\/\/ss3.4sqi.net\/img\/categories_v2\/food\/deli_","suffix":".png"},"primary":true}],"verified":false,"stats":{"checkinsCount":522,"usersCount":143,"tipCount":6},"url":"http:\/\/www.subway-sandwiches.de","allowMenuUrlEdit":true,"beenHere":{"lastCheckinExpiredAt":0},"specials":{"count":0,"items":[]},"referralId":"v-1483291104","venueChains":[{"id":"556e0bfaa7c82e6b724f552f"}],"hasPerk":false},{"id":"579cba08498e9bd83888aa29","name":"Weinhaus KÖPENICK","contact":{},"location":{"address":"Grünstr. 1","crossStreet":"Schlossplatz","lat":52.444736,"lng":13.575246,"labeledLatLngs":[{"label":"display","lat":52.444736,"lng":13.575246}],"postalCode":"12555","cc":"DE","city":"Berlin","state":"Berlin","country":"Germany","formattedAddress":["Grünstr. 1 (Schlossplatz)","12555 Berlin","Germany"]},"categories":[{"id":"52e81612bcbc57f1066b79f1","name":"Bistro","pluralName":"Bistros","shortName":"Bistro","icon":{"prefix":"https:\/\/ss3.4sqi.net\/img\/categories_v2\/food\/default_","suffix":".png"},"primary":true}],"verified":false,"stats":{"checkinsCount":18,"usersCount":3,"tipCount":0},"allowMenuUrlEdit":true,"beenHere":{"lastCheckinExpiredAt":0},"specials":{"count":0,"items":[]},"referralId":"v-1483291104","venueChains":[],"hasPerk":false},{"id":"4bae7d7cf964a520c5b83be3","name":"The Double Inn","contact":{"phone":"+493053010666","formattedPhone":"+49 30 53010666"},"location":{"address":"Wilhelminenhofstr. 89","lat":52.462425,"lng":13.512818,"labeledLatLngs":[{"label":"display","lat":52.462425,"lng":13.512818}],"postalCode":"12459","cc":"DE","city":"Berlin","state":"Berlin","country":"Germany","formattedAddress":["Wilhelminenhofstr. 89","12459 Berlin","Germany"]},"categories":[{"id":"52e81612bcbc57f1066b7a06","name":"Irish Pub","pluralName":"Irish Pubs","shortName":"Irish","icon":{"prefix":"https:\/\/ss3.4sqi.net\/img\/categories_v2\/nightlife\/pub_","suffix":".png"},"primary":true}],"verified":false,"stats":{"checkinsCount":112,"usersCount":45,"tipCount":1},"url":"http:\/\/www.the-double-inn.de","allowMenuUrlEdit":true,"beenHere":{"lastCheckinExpiredAt":0},"specials":{"count":0,"items":[]},"referralId":"v-1483291104","venueChains":[],"hasPerk":false},{"id":"53be9d9a498e22ea93742e0f","name":"Lecker Burger","contact":{},"location":{"address":"Wilhelminenenhifstr. 83-85","lat":52.46144465485575,"lng":13.516978246692634,"labeledLatLngs":[{"label":"display","lat":52.46144465485575,"lng":13.516978246692634}],"postalCode":"12459","cc":"DE","city":"Berlin","state":"Berlin","country":"Germany","formattedAddress":["Wilhelminenenhifstr. 83-85","12459 Berlin","Germany"]},"categories":[{"id":"4bf58dd8d48988d16c941735","name":"Burger Joint","pluralName":"Burger Joints","shortName":"Burgers","icon":{"prefix":"https:\/\/ss3.4sqi.net\/img\/categories_v2\/food\/burger_","suffix":".png"},"primary":true}],"verified":false,"stats":{"checkinsCount":147,"usersCount":57,"tipCount":4},"url":"http:\/\/www.lecker-burger.de","allowMenuUrlEdit":true,"beenHere":{"lastCheckinExpiredAt":0},"specials":{"count":0,"items":[]},"referralId":"v-1483291104","venueChains":[],"hasPerk":false},{"id":"57df9057498e58aba6013434","name":"Kran Bar","contact":{},"location":{"lat":52.46001,"lng":13.519652,"labeledLatLngs":[{"label":"display","lat":52.46001,"lng":13.519652}],"cc":"DE","country":"Germany","formattedAddress":["Germany"]},"categories":[{"id":"4bf58dd8d48988d1e0931735","name":"Coffee Shop","pluralName":"Coffee Shops","shortName":"Coffee Shop","icon":{"prefix":"https:\/\/ss3.4sqi.net\/img\/categories_v2\/food\/coffeeshop_","suffix":".png"},"primary":true}],"verified":false,"stats":{"checkinsCount":21,"usersCount":14,"tipCount":0},"allowMenuUrlEdit":true,"beenHere":{"lastCheckinExpiredAt":0},"specials":{"count":0,"items":[]},"referralId":"v-1483291104","venueChains":[],"hasPerk":false},{"id":"55ae2031498eaf6514bed489","name":"Transasia","contact":{},"location":{"lat":52.435733,"lng":13.543143,"labeledLatLngs":[{"label":"display","lat":52.435733,"lng":13.543143}],"cc":"DE","country":"Germany","formattedAddress":["Germany"]},"categories":[{"id":"4bf58dd8d48988d142941735","name":"Asian Restaurant","pluralName":"Asian Restaurants","shortName":"Asian","icon":{"prefix":"https:\/\/ss3.4sqi.net\/img\/categories_v2\/food\/asian_","suffix":".png"},"primary":true}],"verified":false,"stats":{"checkinsCount":32,"usersCount":5,"tipCount":0},"allowMenuUrlEdit":true,"beenHere":{"lastCheckinExpiredAt":0},"specials":{"count":0,"items":[]},"referralId":"v-1483291104","venueChains":[],"hasPerk":false},{"id":"4eeb25d5469070b79b4071e7","name":"Steinofenbäckerei & Konditorei VOS","contact":{"phone":"+493050179888","formattedPhone":"+49 30 50179888"},"location":{"address":"Marksburgstraße 36","crossStreet":"Hentigstraße","lat":52.48699314364354,"lng":13.52375635574227,"labeledLatLngs":[{"label":"display","lat":52.48699314364354,"lng":13.52375635574227}],"postalCode":"10318","cc":"DE","city":"Berlin","state":"Berlin","country":"Germany","formattedAddress":["Marksburgstraße 36 (Hentigstraße)","10318 Berlin","Germany"]},"categories":[{"id":"4bf58dd8d48988d16a941735","name":"Bakery","pluralName":"Bakeries","shortName":"Bakery","icon":{"prefix":"https:\/\/ss3.4sqi.net\/img\/categories_v2\/food\/bakery_","suffix":".png"},"primary":true}],"verified":false,"stats":{"checkinsCount":111,"usersCount":16,"tipCount":2},"allowMenuUrlEdit":true,"beenHere":{"lastCheckinExpiredAt":0},"specials":{"count":0,"items":[]},"referralId":"v-1483291104","venueChains":[],"hasPerk":false},{"id":"4d7fc0d1cd09224b8a426230","name":"Restaurant Marco Polo","contact":{"phone":"+49305138806","formattedPhone":"+49 30 5138806"},"location":{"address":"Dolgenseestraße 11a","lat":52.493066890697,"lng":13.506385494583562,"labeledLatLngs":[{"label":"display","lat":52.493066890697,"lng":13.506385494583562}],"postalCode":"10319","cc":"DE","city":"Berlin","state":"Berlin","country":"Germany","formattedAddress":["Dolgenseestraße 11a","10319 Berlin","Germany"]},"categories":[{"id":"4bf58dd8d48988d110941735","name":"Italian Restaurant","pluralName":"Italian Restaurants","shortName":"Italian","icon":{"prefix":"https:\/\/ss3.4sqi.net\/img\/categories_v2\/food\/italian_","suffix":".png"},"primary":true}],"verified":false,"stats":{"checkinsCount":117,"usersCount":52,"tipCount":6},"allowMenuUrlEdit":true,"beenHere":{"lastCheckinExpiredAt":0},"specials":{"count":0,"items":[]},"referralId":"v-1483291104","venueChains":[],"hasPerk":false},{"id":"56d01c50498ef2fe695e9842","name":"Steinecke Bäckerei","contact":{},"location":{"address":"Hönower Straße","crossStreet":"Treskowallee","lat":52.49051050401613,"lng":13.52754501994773,"labeledLatLngs":[{"label":"display","lat":52.49051050401613,"lng":13.52754501994773}],"postalCode":"10318","cc":"DE","city":"Berlin","state":"Berlin","country":"Germany","formattedAddress":["Hönower Straße (Treskowallee)","10318 Berlin","Germany"]},"categories":[{"id":"4bf58dd8d48988d16a941735","name":"Bakery","pluralName":"Bakeries","shortName":"Bakery","icon":{"prefix":"https:\/\/ss3.4sqi.net\/img\/categories_v2\/food\/bakery_","suffix":".png"},"primary":true}],"verified":false,"stats":{"checkinsCount":18,"usersCount":8,"tipCount":0},"allowMenuUrlEdit":true,"beenHere":{"lastCheckinExpiredAt":0},"specials":{"count":0,"items":[]},"referralId":"v-1483291104","venueChains":[],"hasPerk":false},{"id":"4e7394ccc65bf4cd6220320d","name":"Gaststätte \"Zum alten Krug\"","contact":{},"location":{"address":"Alt-Rudow 59","lat":52.417615577062165,"lng":13.495867252349854,"labeledLatLngs":[{"label":"display","lat":52.417615577062165,"lng":13.495867252349854}],"postalCode":"12355","cc":"DE","city":"Berlin","state":"Berlin","country":"Germany","formattedAddress":["Alt-Rudow 59","12355 Berlin","Germany"]},"categories":[{"id":"4bf58dd8d48988d10d941735","name":"German Restaurant","pluralName":"German Restaurants","shortName":"German","icon":{"prefix":"https:\/\/ss3.4sqi.net\/img\/categories_v2\/food\/german_","suffix":".png"},"primary":true}],"verified":false,"stats":{"checkinsCount":38,"usersCount":18,"tipCount":1},"url":"http:\/\/www.rudow.de\/zum-alten-krug\/","allowMenuUrlEdit":true,"beenHere":{"lastCheckinExpiredAt":0},"specials":{"count":0,"items":[]},"referralId":"v-1483291104","venueChains":[],"hasPerk":false},{"id":"5012c310e4b0d8233dbb4950","name":"Mia Toscana","contact":{},"location":{"address":"20160107","lat":52.438385659465844,"lng":13.54952826867081,"labeledLatLngs":[{"label":"display","lat":52.438385659465844,"lng":13.54952826867081}],"cc":"DE","country":"Germany","formattedAddress":["20160107","Germany"]},"categories":[{"id":"4bf58dd8d48988d110941735","name":"Italian Restaurant","pluralName":"Italian Restaurants","shortName":"Italian","icon":{"prefix":"https:\/\/ss3.4sqi.net\/img\/categories_v2\/food\/italian_","suffix":".png"},"primary":true}],"verified":false,"stats":{"checkinsCount":111,"usersCount":57,"tipCount":1},"allowMenuUrlEdit":true,"beenHere":{"lastCheckinExpiredAt":0},"specials":{"count":0,"items":[]},"referralId":"v-1483291104","venueChains":[],"hasPerk":false},{"id":"4bd9ab7de914a593c55357fa","name":"India-Haus","contact":{"phone":"+49305084748","formattedPhone":"+49 30 5084748"},"location":{"address":"Hönower Strasse 11","lat":52.48904439423914,"lng":13.524987584884443,"labeledLatLngs":[{"label":"display","lat":52.48904439423914,"lng":13.524987584884443}],"postalCode":"10318","cc":"DE","city":"Berlin","state":"Berlin","country":"Germany","formattedAddress":["Hönower Strasse 11","10318 Berlin","Germany"]},"categories":[{"id":"4bf58dd8d48988d10f941735","name":"Indian Restaurant","pluralName":"Indian Restaurants","shortName":"Indian","icon":{"prefix":"https:\/\/ss3.4sqi.net\/img\/categories_v2\/food\/indian_","suffix":".png"},"primary":true}],"verified":false,"stats":{"checkinsCount":67,"usersCount":33,"tipCount":0},"allowMenuUrlEdit":true,"beenHere":{"lastCheckinExpiredAt":0},"specials":{"count":0,"items":[]},"referralId":"v-1483291104","venueChains":[],"hasPerk":false},{"id":"5379daf8498efa79122f0d1b","name":"Asteria","contact":{},"location":{"lat":52.44713253968922,"lng":13.574820487288312,"labeledLatLngs":[{"label":"display","lat":52.44713253968922,"lng":13.574820487288312}],"cc":"DE","country":"Germany","formattedAddress":["Germany"]},"categories":[{"id":"4bf58dd8d48988d10e941735","name":"Greek Restaurant","pluralName":"Greek Restaurants","shortName":"Greek","icon":{"prefix":"https:\/\/ss3.4sqi.net\/img\/categories_v2\/food\/greek_","suffix":".png"},"primary":true}],"verified":false,"stats":{"checkinsCount":234,"usersCount":67,"tipCount":3},"allowMenuUrlEdit":true,"beenHere":{"lastCheckinExpiredAt":0},"specials":{"count":0,"items":[]},"referralId":"v-1483291104","venueChains":[],"hasPerk":false},{"id":"4c23482a502b95218e296e21","name":"Altstadtcafé Cöpenick","contact":{"phone":"+493065474069","formattedPhone":"+49 30 65474069"},"location":{"address":"Alt-Köpenick 16","lat":52.44635283329824,"lng":13.574809537917575,"labeledLatLngs":[{"label":"display","lat":52.44635283329824,"lng":13.574809537917575}],"postalCode":"12555","cc":"DE","city":"Berlin","state":"Berlin","country":"Germany","formattedAddress":["Alt-Köpenick 16","12555 Berlin","Germany"]},"categories":[{"id":"4bf58dd8d48988d16d941735","name":"Café","pluralName":"Cafés","shortName":"Café","icon":{"prefix":"https:\/\/ss3.4sqi.net\/img\/categories_v2\/food\/cafe_","suffix":".png"},"primary":true}],"verified":false,"stats":{"checkinsCount":111,"usersCount":85,"tipCount":6},"url":"http:\/\/www.altstadtcafe.de","allowMenuUrlEdit":true,"beenHere":{"lastCheckinExpiredAt":0},"specials":{"count":0,"items":[]},"referralId":"v-1483291104","venueChains":[],"hasPerk":false},{"id":"4b71b619f964a520d7572de3","name":"fosca","contact":{"phone":"+49306362148","formattedPhone":"+49 30 6362148"},"location":{"address":"Sterndamm 85","lat":52.444794,"lng":13.504896,"labeledLatLngs":[{"label":"display","lat":52.444794,"lng":13.504896}],"cc":"DE","city":"Berlin","state":"Berlin","country":"Germany","formattedAddress":["Sterndamm 85","Berlin","Germany"]},"categories":[{"id":"4bf58dd8d48988d11b941735","name":"Pub","pluralName":"Pubs","shortName":"Pub","icon":{"prefix":"https:\/\/ss3.4sqi.net\/img\/categories_v2\/nightlife\/pub_","suffix":".png"},"primary":true}],"verified":false,"stats":{"checkinsCount":155,"usersCount":44,"tipCount":3},"allowMenuUrlEdit":true,"beenHere":{"lastCheckinExpiredAt":0},"specials":{"count":0,"items":[]},"referralId":"v-1483291104","venueChains":[],"hasPerk":false}]}}