{"meta":{"code":200,"requestId":"586939d6db04f53a2a2c434d"},"response":{"venues":[{"id":"4bcfe07c77b29c7415f58982","name":"McDonald's","contact":{"phone":"+493051097093","formattedPhone":"+49 30 51097093","twitter":"mcdonaldsdenews","facebook":"296270482587","facebookUsername":"mcd","facebookName":"McDonald's"},"location":{"address":"Alt-Friedrichsfelde 61","crossStreet":"Gensinger Str.","lat":52.50994615115772,"lng":13.531374335289001,"labeledLatLngs":[{"label":"display","lat":52.50994615115772,"lng":13.531374335289001}],"postalCode":"10315","cc":"DE","city":"Berlin","state":"Berlin","country":"Germany","formattedAddress":["Alt-Friedrichsfelde 61 (Gensinger Str.)","10315 Berlin","Germany"]},"categories":[{"id":"4bf58dd8d48988d16e941735","name":"Fast Food Restaurant","pluralName":"Fast Food Restaurants","shortName":"Fast Food","icon":{"prefix":"https:\/\/ss3.4sqi.net\/img\/categories_v2\/food\/fastfood_","suffix":".png"},"primary":true}],"verified":true,"stats":{"checkinsCount":996,"usersCount":219,"tipCount":6},"url":"http:\/\/www.mcdonalds.de","allowMenuUrlEdit":true,"beenHere":{"lastCheckinExpiredAt":0},"specials":{"count":0,"items":[]},"storeId":"796","referralId":"v-1483291094","venueChains":[{"id":"556f7a12bd6a75a9903bddb2"}],"hasPerk":false},{"id":"53524586498eb5c714568e6f","name":"IKEA Restaurant","contact":{},"location":{"address":"Landsberger Allee 364","lat":52.534199937934545,"lng":13.51320159444253,"labeledLatLngs":[{"label":"display","lat":52.534199937934545,"lng":13.51320159444253}],"cc":"DE","city":"Berlin","state":"Berlin","country":"Germany","formattedAddress":["Landsberger Allee 364","Berlin","Germany"]},"categories":[{"id":"4bf58dd8d48988d1c6941735","name":"Scandinavian Restaurant","pluralName":"Scandinavian Restaurants","shortName":"Scandinavian","icon":{"prefix":"https:\/\/ss3.4sqi.net\/img\/categories_v2\/food\/scandinavian_","suffix":".png"},"primary":true}],"verified":false,"stats":{"checkinsCount":361,"usersCount":228,"tipCount":2},"allowMenuUrlEdit":true,"beenHere":{"lastCheckinExpiredAt":0},"specials":{"count":0,"items":[]},"referralId":"v-1483291094","venueChains":[],"hasPerk":false},{"id":"4ec3a8c9cc213c5f1f68ff5e","name":"Polizeikantine","contact":{},"location":{"address":"Märkische Allee, 12685 Berlin","lat":52.53588442824406,"lng":13.537755558114053,"labeledLatLngs":[{"label":"display","lat":52.53588442824406,"lng":13.537755558114053}],"postalCode":"12685","cc":"DE","city":"Berlin","state":"Berlin","country":"Germany","formattedAddress":["Märkische Allee, 12685 Berlin","12685 Berlin","Germany"]},"categories":[{"id":"4bf58dd8d48988d10d941735","name":"German Restaurant","pluralName":"German Restaurants","shortName":"German","icon":{"prefix":"https:\/\/ss3.4sqi.net\/img\/categories_v2\/food\/german_","suffix":".png"},"primary":true}],"verified":false,"stats":{"checkinsCount":199,"usersCount":17,"tipCount":0},"allowMenuUrlEdit":true,"beenHere":{"lastCheckinExpiredAt":0},"specials":{"count":0,"items":[]},"referralId":"v-1483291094","venueChains":[],"hasPerk":false},{"id":"548ff2de498ea9eebfcd20a3","name":"Carpe Diem Café & Bäckerei","contact":{},"location":{"address":"Leopoldstr. 22","lat":52.50225236098114,"lng":13.490609020828984,"labeledLatLngs":[{"label":"display","lat":52.50225236098114,"lng":13.490609020828984}],"postalCode":"10317","cc":"DE","city":"Berlin","state":"Berlin","country":"Germany","formattedAddress":["Leopoldstr. 22","10317 Berlin","Germany"]},"categories":[{"id":"4bf58dd8d48988d16a941735","name":"Bakery","pluralName":"Bakeries","shortName":"Bakery","icon":{"prefix":"https:\/\/ss3.4sqi.net\/img\/categories_v2\/food\/bakery_","suffix":".png"},"primary":true}],"verified":false,"stats":{"checkinsCount":121,"usersCount":15,"tipCount":0},"allowMenuUrlEdit":true,"beenHere":{"lastCheckinExpiredAt":0},"specials":{"count":0,"items":[]},"referralId":"v-1483291094","venueChains":[],"hasPerk":false},{"id":"5515af7b498e19f8bfc93537","name":"Athos","contact":{},"location":{"address":"Gudrunstr. 5","lat":52.51276969829372,"lng":13.500908139579167,"labeledLatLngs":[{"label":"display","lat":52.51276969829372,"lng":13.500908139579167}],"cc":"DE","city":"Berlin","state":"Berlin","country":"Germany","formattedAddress":["Gudrunstr. 5","Berlin","Germany"]},"categories":[{"id":"4bf58dd8d48988d10e941735","name":"Greek Restaurant","pluralName":"Greek Restaurants","shortName":"Greek","icon":{"prefix":"https:\/\/ss3.4sqi.net\/img\/categories_v2\/food\/greek_","suffix":".png"},"primary":true}],"verified":false,"stats":{"checkinsCount":19,"usersCount":12,"tipCount":2},"allowMenuUrlEdit":true,"beenHere":{"lastCheckinExpiredAt":0},"specials":{"count":0,"items":[]},"referralId":"v-1483291094","venueChains":[],"hasPerk":false},{"id":"54772dd2498ea3fb98f460b7","name":"Richter's Feinbäckerei","contact":{"phone":"+493051065247","formattedPhone":"+49 30 51065247"},"location":{"address":"Einbecker Str. 107","lat":52.50738601434308,"lng":13.511875284932644,"labeledLatLngs":[{"label":"display","lat":52.50738601434308,"lng":13.511875284932644}],"postalCode":"10315","cc":"DE","city":"Berlin","state":"Berlin","country":"Germany","formattedAddress":["Einbecker Str. 107","10315 Berlin","Germany"]},"categories":[{"id":"4bf58dd8d48988d16a941735","name":"Bakery","pluralName":"Bakeries","shortName":"Bakery","icon":{"prefix":"https:\/\/ss3.4sqi.net\/img\/categories_v2\/food\/bakery_","suffix":".png"},"primary":true}],"verified":false,"stats":{"checkinsCount":58,"usersCount":9,"tipCount":0},"allowMenuUrlEdit":true,"beenHere":{"lastCheckinExpiredAt":0},"specials":{"count":0,"items":[]},"referralId":"v-1483291094","venueChains":[],"hasPerk":false},{"id":"4ca9da9814c3370473ece13b","name":"Silverado","contact":{"phone":"+49309866904","formattedPhone":"+49 30 9866904","facebook":"148399195195682","facebookName":"Silverado Steakhaus"},"location":{"address":"Konrad-Wolf-Str. 28","lat":52.54321223772626,"lng":13.490524529432484,"labeledLatLngs":[{"label":"display","lat":52.54321223772626,"lng":13.490524529432484}],"postalCode":"13053","cc":"DE","city":"Berlin","state":"Berlin","country":"Germany","formattedAddress":["Konrad-Wolf-Str. 28","13053 Berlin","Germany"]},"categories":[{"id":"4bf58dd8d48988d1cc941735","name":"Steakhouse","pluralName":"Steakhouses","shortName":"Steakhouse","icon":{"prefix":"https:\/\/ss3.4sqi.net\/img\/categories_v2\/food\/steakhouse_","suffix":".png"},"primary":true}],"verified":false,"stats":{"checkinsCount":76,"usersCount":60,"tipCount":0},"url":"http:\/\/www.steakhaus-silverado.de","menu":{"type":"Menu","label":"Menu","anchor":"View Menu","url":"http:\/\/www.steakhaus-silverado.de\/speisen\/","mobileUrl":"http:\/\/www.steakhaus-silverado.de\/speisen\/","externalUrl":"http:\/\/www.steakhaus-silverado.de\/speisen\/"},"allowMenuUrlEdit":true,"beenHere":{"lastCheckinExpiredAt":0},"specials":{"count":0,"items":[]},"referralId":"v-1483291094","venueChains":[],"hasPerk":false},{"id":"4c9f84717c096dcb6226dfd1","name":"McDonald's","contact":{"twitter":"mcdonaldsdenews","facebook":"296270482587","facebookUsername":"mcd","facebookName":"McDonald's"},"location":{"address":"Bitterfelder Str. 9","lat":52.55301726318498,"lng":13.543786246678408,"labeledLatLngs":[{"label":"display","lat":52.55301726318498,"lng":13.543786246678408}],"postalCode":"12681","cc":"DE","city":"Berlin","state":"Berlin","country":"Germany","formattedAddress":["Bitterfelder Str. 9","12681 Berlin","Germany"]},"categories":[{"id":"4bf58dd8d48988d16e941735","name":"Fast Food Restaurant","pluralName":"Fast Food Restaurants","shortName":"Fast Food","icon":{"prefix":"https:\/\/ss3.4sqi.net\/img\/categories_v2\/food\/fastfood_","suffix":".png"},"primary":true}],"verified":true,"stats":{"checkinsCount":119,"usersCount":73,"tipCount":0},"url":"http:\/\/www.mcdonalds.de","allowMenuUrlEdit":true,"beenHere":{"lastCheckinExpiredAt":0},"specials":{"count":0,"items":[]},"storeId":"788","referralId":"v-1483291094","venueChains":[{"id":"556f7a12bd6a75a9903bddb2"}],"hasPerk":false},{"id":"516034bde4b03396340227a9","name":"Ikea Hotdog Stand","contact":{},"location":{"lat":52.53392405838559,"lng":13.513043550590154,"labeledLatLngs":[{"label":"display","lat":52.53392405838559,"lng":13.513043550590154}],"cc":"DE","city":"Berlin","state":"Berlin","country":"Germany","formattedAddress":["Berlin","Germany"]},"categories":[{"id":"4bf58dd8d48988d16f941735","name":"Hot Dog Joint","pluralName":"Hot Dog Joints","shortName":"Hot Dogs","icon":{"prefix":"https:\/\/ss3.4sqi.net\/img\/categories_v2\/food\/hotdog_","suffix":".png"},"primary":true}],"verified":false,"stats":{"checkinsCount":169,"usersCount":121,"tipCount":0},"allowMenuUrlEdit":true,"beenHere":{"lastCheckinExpiredAt":0},"specials":{"count":0,"items":[]},"referralId":"v-1483291094","venueChains":[],"hasPerk":false},{"id":"4f577265e4b0377eeee3f9d8","name":"Mac's Bistro","contact":{},"location":{"address":"Seddiner Str. 8","lat":52.513490817190515,"lng":13.52117630068255,"labeledLatLngs":[{"label":"display","lat":52.513490817190515,"lng":13.52117630068255}],"cc":"DE","city":"Berlin","state":"Berlin","country":"Germany","formattedAddress":["Seddiner Str. 8","Berlin","Germany"]},"categories":[{"id":"4bf58dd8d48988d16e941735","name":"Fast Food Restaurant","pluralName":"Fast Food Restaurants","shortName":"Fast Food","icon":{"prefix":"https:\/\/ss3.4sqi.net\/img\/categories_v2\/food\/fastfood_","suffix":".png"},"primary":true}],"verified":false,"stats":{"checkinsCount":59,"usersCount":15,"tipCount":1},"allowMenuUrlEdit":true,"beenHere":{"lastCheckinExpiredAt":0},"specials":{"count":0,"items":[]},"referralId":"v-1483291094","venueChains":[],"hasPerk":false},{"id":"4ccd7ccc2dc437045dacce08","name":"Storchenback & Café","contact":{"phone":"+493098695821","formattedPhone":"+49 30 98695821"},"location":{"address":"Hauptstr. 9","crossStreet":"EKZ Storchenhof","lat":52.54775334212815,"lng":13.504444858101287,"labeledLatLngs":[{"label":"display","lat":52.54775334212815,"lng":13.504444858101287}],"postalCode":"13055","cc":"DE","city":"Berlin","state":"Berlin","country":"Germany","formattedAddress":["Hauptstr. 9 (EKZ Storchenhof)","13055 Berlin","Germany"]},"categories":[{"id":"4bf58dd8d48988d1e0931735","name":"Coffee Shop","pluralName":"Coffee Shops","shortName":"Coffee Shop","icon":{"prefix":"https:\/\/ss3.4sqi.net\/img\/categories_v2\/food\/coffeeshop_","suffix":".png"},"primary":true}],"verified":false,"stats":{"checkinsCount":413,"usersCount":19,"tipCount":1},"allowMenuUrlEdit":true,"beenHere":{"lastCheckinExpiredAt":0},"specials":{"count":0,"items":[]},"referralId":"v-1483291094","venueChains":[],"hasPerk":false},{"id":"4c5d9e6b7735c9b6028e8f72","name":"Landhaus Marzahner Krug","contact":{"phone":"+49305400560","formattedPhone":"+49 30 5400560"},"location":{"address":"Alt-Marzahn 49","lat":52.54347519550692,"lng":13.560930058487676,"labeledLatLngs":[{"label":"display","lat":52.54347519550692,"lng":13.560930058487676}],"postalCode":"12685","cc":"DE","city":"Berlin","state":"Berlin","country":"Germany","formattedAddress":["Alt-Marzahn 49","12685 Berlin","Germany"]},"categories":[{"id":"4bf58dd8d48988d10d941735","name":"German Restaurant","pluralName":"German Restaurants","shortName":"German","icon":{"prefix":"https:\/\/ss3.4sqi.net\/img\/categories_v2\/food\/german_","suffix":".png"},"primary":true}],"verified":false,"stats":{"checkinsCount":84,"usersCount":72,"tipCount":2},"url":"http:\/\/www.marzahner-krug.de","allowMenuUrlEdit":true,"beenHere":{"lastCheckinExpiredAt":0},"specials":{"count":0,"items":[]},"referralId":"v-1483291094","venueChains":[],"hasPerk":false},{"id":"50e88ce8e4b0a5a070369ca3","name":"Restaurant Olympia","contact":{"phone":"+493098194700","formattedPhone":"+49 30 98194700"},"location":{"address":"Malchower Weg 45","lat":52.5539176018471,"lng":13.502923003883456,"labeledLatLngs":[{"label":"display","lat":52.5539176018471,"lng":13.502923003883456}],"postalCode":"13053","cc":"DE","city":"Berlin","state":"Berlin","country":"Germany","formattedAddress":["Malchower Weg 45","13053 Berlin","Germany"]},"categories":[{"id":"4bf58dd8d48988d10e941735","name":"Greek Restaurant","pluralName":"Greek Restaurants","shortName":"Greek","icon":{"prefix":"https:\/\/ss3.4sqi.net\/img\/categories_v2\/food\/greek_","suffix":".png"},"primary":true}],"verified":false,"stats":{"checkinsCount":146,"usersCount":81,"tipCount":2},"url":"http:\/\/www.olympiaberlin.de","menu":{"type":"Menu","label":"Menu","anchor":"View Menu","url":"http:\/\/www.olympiaberlin.de\/speisekarte.html","mobileUrl":"http:\/\/www.olympiaberlin.de\/speisekarte.html","externalUrl":"http:\/\/www.olympiaberlin.de\/speisekarte.html"},"allowMenuUrlEdit":true,"beenHere":{"lastCheckinExpiredAt":0},"specials":{"count":0,"items":[]},"referralId":"v-1483291094","venueChains":[],"hasPerk":false},{"id":"4dd92958b0fb8af380b00002","name":"Don Giovanni","contact":{"phone":"+49305531635","formattedPhone":"+49 30 5531635"},"location":{"address":"Atzpodienstr. 12","lat":52.5144257330924,"lng":13.493284606304126,"labeledLatLngs":[{"label":"display","lat":52.5144257330924,"lng":13.493284606304126}],"postalCode":"10365","cc":"DE","city":"Berlin","state":"Berlin","country":"Germany","formattedAddress":["Atzpodienstr. 12","10365 Berlin","Germany"]},"categories":[{"id":"4bf58dd8d48988d110941735","name":"Italian Restaurant","pluralName":"Italian Restaurants","shortName":"Italian","icon":{"prefix":"https:\/\/ss3.4sqi.net\/img\/categories_v2\/food\/italian_","suffix":".png"},"primary":true}],"verified":false,"stats":{"checkinsCount":180,"usersCount":85,"tipCount":3},"allowMenuUrlEdit":true,"beenHere":{"lastCheckinExpiredAt":0},"specials":{"count":0,"items":[]},"referralId":"v-1483291094","venueChains":[],"hasPerk":false},{"id":"4bcada0ccc8cd13abc64becf","name":"Caféteria im Tierpark Berlin","contact":{"phone":"+49305123143","formattedPhone":"+49 30 5123143","twitter":"tierparkberlin","facebook":"286918835148","facebookUsername":"tierparkberlin","facebookName":"Tierpark Berlin"},"location":{"address":"Am Tierpark 125","lat":52.5048460628061,"lng":13.529126644134521,"labeledLatLngs":[{"label":"display","lat":52.5048460628061,"lng":13.529126644134521}],"postalCode":"10319","cc":"DE","city":"Berlin","state":"Berlin","country":"Germany","formattedAddress":["Am Tierpark 125","10319 Berlin","Germany"]},"categories":[{"id":"4bf58dd8d48988d16d941735","name":"Café","pluralName":"Cafés","shortName":"Café","icon":{"prefix":"https:\/\/ss3.4sqi.net\/img\/categories_v2\/food\/cafe_","suffix":".png"},"primary":true}],"verified":false,"stats":{"checkinsCount":230,"usersCount":144,"tipCount":6},"url":"http:\/\/www.tierpark-berlin.de","allowMenuUrlEdit":true,"beenHere":{"lastCheckinExpiredAt":0},"specials":{"count":0,"items":[]},"referralId":"v-1483291094","venueChains":[],"hasPerk":false},{"id":"56d086f3498ef2fe69e8da7c","name":"Café Vierlanden","contact":{},"location":{"lat":52.5354,"lng":13.556428,"labeledLatLngs":[{"label":"display","lat":52.5354,"lng":13.556428}],"cc":"DE","country":"Germany","formattedAddress":["Germany"]},"categories":[{"id":"4bf58dd8d48988d10d941735","name":"German Restaurant","pluralName":"German Restaurants","shortName":"German","icon":{"prefix":"https:\/\/ss3.4sqi.net\/img\/categories_v2\/food\/german_","suffix":".png"},"primary":true}],"verified":false,"stats":{"checkinsCount":3,"usersCount":2,"tipCount":0},"allowMenuUrlEdit":true,"beenHere":{"lastCheckinExpiredAt":0},"specials":{"count":0,"items":[]},"referralId":"v-1483291094","venueChains":[],"hasPerk":false},{"id":"4deb958b18386283a4025e5c","name":"Eiszeit","contact":{},"location":{"address":"Schwarzheider Straße 5","lat":52.535592214023204,"lng":13.557985146558586,"labeledLatLngs":[{"label":"display","lat":52.535592214023204,"lng":13.557985146558586}],"postalCode":"12627","cc":"DE","city":"Berlin","state":"Berlin","country":"Germany","formattedAddress":["Schwarzheider Straße 5","12627 Berlin","Germany"]},"categories":[{"id":"4bf58dd8d48988d1c9941735","name":"Ice Cream Shop","pluralName":"Ice Cream Shops","shortName":"Ice Cream","icon":{"prefix":"https:\/\/ss3.4sqi.net\/img\/categories_v2\/food\/icecream_","suffix":".png"},"primary":true}],"verified":false,"stats":{"checkinsCount":3,"usersCount":2,"tipCount":0},"allowMenuUrlEdit":true,"beenHere":{"lastCheckinExpiredAt":0},"specials":{"count":0,"items":[]},"referralId":"v-1483291094","venueChains":[],"hasPerk":false},{"id":"5145c528e4b031528337e37b","name":"Cake & Coffee Company","contact":{},"location":{"address":"Seddiner Straße","lat":52.513665766671636,"lng":13.518869025400994,"labeledLatLngs":[{"label":"display","lat":52.513665766671636,"lng":13.518869025400994}],"cc":"DE","city":"Berlin","state":"Berlin","country":"Germany","formattedAddress":["Seddiner Straße","Berlin","Germany"]},"categories":[{"id":"4bf58dd8d48988d16d941735","name":"Café","pluralName":"Cafés","shortName":"Café","icon":{"prefix":"https:\/\/ss3.4sqi.net\/img\/categories_v2\/food\/cafe_","suffix":".png"},"primary":true}],"verified":false,"stats":{"checkinsCount":45,"usersCount":14,"tipCount":1},"allowMenuUrlEdit":true,"beenHere":{"lastCheckinExpiredAt":0},"specials":{"count":0,"items":[]},"referralId":"v-1483291094","venueChains":[],"hasPerk":false},{"id":"531b20cc498e1654696189a7","name":"Marco Polo Tre","contact":{},"location":{"address":"Oberfeldstraße 26","lat":52.519323,"lng":13.555698,"labeledLatLngs":[{"label":"display","lat":52.519323,"lng":13.555698}],"postalCode":"12683","cc":"DE","city":"Berlin","state":"Berlin","country":"Germany","formattedAddress":["Oberfeldstraße 26","12683 Berlin","Germany"]},"categories":[{"id":"4bf58dd8d48988d110941735","name":"Italian Restaurant","pluralName":"Italian Restaurants","shortName":"Italian","icon":{"prefix":"https:\/\/ss3.4sqi.net\/img\/categories_v2\/food\/italian_","suffix":".png"},"primary":true}],"verified":false,"stats":{"checkinsCount":54,"usersCount":23,"tipCount":0},"url":"http:\/\/www.ristorante-marcopolo-tre.de","allowMenuUrlEdit":true,"beenHere":{"lastCheckinExpiredAt":0},"specials":{"count":0,"items":[]},"referralId":"v-1483291094","venueChains":[],"hasPerk":false},{"id":"500fcfaae4b04a3250da7453","name":"Löwenbäcker","contact":{"phone":"+493097895450","formattedPhone":"+49 30 97895450"},"location":{"address":"Werneuchener Str. 1","crossStreet":"Konrad-Wolf-Straße","lat":52.54199044363051,"lng":13.491038527502825,"labeledLatLngs":[{"label":"display","lat":52.54199044363051,"lng":13.491038527502825}],"postalCode":"13055","cc":"DE","city":"Berlin","state":"Berlin","country":"Germany","formattedAddress":["Werneuchener Str. 1 (Konrad-Wolf-Straße)","13055 Berlin","Germany"]},"categories":[{"id":"4bf58dd8d48988d16a941735","name":"Bakery","pluralName":"Bakeries","shortName":"Bakery","icon":{"prefix":"https:\/\/ss3.4sqi.net\/img\/categories_v2\/food\/bakery_","suffix":".png"},"primary":true}],"verified":false,"stats":{"checkinsCount":41,"usersCount":14,"tipCount":0},"allowMenuUrlEdit":true,"beenHere":{"lastCheckinExpiredAt":0},"specials":{"count":0,"items":[]},"referralId":"v-1483291094","venueChains":[],"hasPerk":false},{"id":"585a6b8d13af1c5a1ec9598d","name":"Berliner Eisvogel","contact":{},"location":{"lat":52.497524,"lng":13.521083,"labeledLatLngs":[{"label":"display","lat":52.497524,"lng":13.521083}],"cc":"DE","country":"Germany","formattedAddress":["Germany"]},"categories":[{"id":"4bf58dd8d48988d16d941735","name":"Café","pluralName":"Cafés","shortName":"Café","icon":{"prefix":"https:\/\/ss3.4sqi.net\/img\/categories_v2\/food\/cafe_","suffix":".png"},"primary":true}],"verified":false,"stats":{"checkinsCount":1,"usersCount":1,"tipCount":0},"allowMenuUrlEdit":true,"beenHere":{"lastCheckinExpiredAt":0},"specials":{"count":0,"items":[]},"referralId":"v-1483291094","venueChains":[],"hasPerk":false},{"id":"5603c595498e594dd4786c84","name":"TOTAL Tankstelle","contact":{"phone":"+49305437728","formattedPhone":"+49 30 5437728","twitter":"total","facebook":"442906105719770","facebookUsername":"TotalDeutschland","facebookName":"Total"},"location":{"address":"Landsberger Allee 376","lat":52.53532999999999,"lng":13.52264,"labeledLatLngs":[{"label":"display","lat":52.53532999999999,"lng":13.52264}],"postalCode":"12681","cc":"DE","city":"Berlin","state":"Berlin","country":"Germany","formattedAddress":["Landsberger Allee 376","12681 Berlin","Germany"]},"categories":[{"id":"4bf58dd8d48988d113951735","name":"Gas Station","pluralName":"Gas Stations","shortName":"Gas Station","icon":{"prefix":"https:\/\/ss3.4sqi.net\/img\/categories_v2\/shops\/gas_","suffix":".png"},"primary":true}],"verified":true,"stats":{"checkinsCount":5,"usersCount":5,"tipCount":0},"url":"http:\/\/store.total.de\/de\/germany\/store-total-de\/berlin\/berlin-landsberger-allee-376\/ND034165","allowMenuUrlEdit":true,"beenHere":{"lastCheckinExpiredAt":0},"specials":{"count":0,"items":[]},"referralId":"v-1483291094","venueChains":[],"hasPerk":false},{"id":"4fe2158ce4b0675748a21bec","name":"Salsa","contact":{},"location":{"address":"Weitlingstr. 34","lat":52.50770059953554,"lng":13.496745212540006,"labeledLatLngs":[{"label":"display","lat":52.50770059953554,"lng":13.496745212540006}],"postalCode":"10317","cc":"DE","city":"Berlin","state":"Berlin","country":"Germany","formattedAddress":["Weitlingstr. 34","10317 Berlin","Germany"]},"categories":[{"id":"4bf58dd8d48988d1c1941735","name":"Mexican Restaurant","pluralName":"Mexican Restaurants","shortName":"Mexican","icon":{"prefix":"https:\/\/ss3.4sqi.net\/img\/categories_v2\/food\/mexican_","suffix":".png"},"primary":true}],"verified":false,"stats":{"checkinsCount":111,"usersCount":41,"tipCount":1},"allowMenuUrlEdit":true,"beenHere":{"lastCheckinExpiredAt":0},"specials":{"count":0,"items":[]},"referralId":"v-1483291094","venueChains":[],"hasPerk":false},{"id":"4cc466cd1e596dcb7e3ad167","name":"Arjun","contact":{"phone":"+493092401518","formattedPhone":"+49 30 92401518"},"location":{"address":"Konrad-Wolf-Str. 145","lat":52.54830899865499,"lng":13.500725993894742,"labeledLatLngs":[{"label":"display","lat":52.54830899865499,"lng":13.500725993894742}],"postalCode":"13055","cc":"DE","city":"Berlin","state":"Berlin","country":"Germany","formattedAddress":["Konrad-Wolf-Str. 145","13055 Berlin","Germany"]},"categories":[{"id":"4bf58dd8d48988d10f941735","name":"Indian Restaurant","pluralName":"Indian Restaurants","shortName":"Indian","icon":{"prefix":"https:\/\/ss3.4sqi.net\/img\/categories_v2\/food\/indian_","suffix":".png"},"primary":true}],"verified":false,"stats":{"checkinsCount":49,"usersCount":22,"tipCount":1},"allowMenuUrlEdit":true,"beenHere":{"lastCheckinExpiredAt":0},"specials":{"count":0,"items":[]},"referralId":"v-1483291094","venueChains":[],"hasPerk":false},{"id":"4b3dce92f964a520ea9625e3","name":"Griechisches Restaurant Syrtaki","contact":{"phone":"+493093026040","formattedPhone":"+49 30 93026040"},"location":{"address":"Märkische Allee 210","lat":52.54870180882657,"lng":13.547241901310738,"labeledLatLngs":[{"label":"display","lat":52.54870180882657,"lng":13.547241901310738}],"postalCode":"12679","cc":"DE","city":"Berlin","state":"Berlin","country":"Germany","formattedAddress":["Märkische Allee 210","12679 Berlin","Germany"]},"categories":[{"id":"4bf58dd8d48988d10e941735","name":"Greek Restaurant","pluralName":"Greek Restaurants","shortName":"Greek","icon":{"prefix":"https:\/\/ss3.4sqi.net\/img\/categories_v2\/food\/greek_","suffix":".png"},"primary":true}],"verified":true,"stats":{"checkinsCount":68,"usersCount":36,"tipCount":1},"allowMenuUrlEdit":true,"beenHere":{"lastCheckinExpiredAt":0},"specials":{"count":0,"items":[]},"referralId":"v-1483291094","venueChains":[],"hasPerk":false},{"id":"4ec249038b81127c0c42db14","name":"Subway","contact":{"twitter":"subway_de","facebook":"344302940835","facebookUsername":"subwaydeutschland","facebookName":"Subway Deutschland"},"location":{"lat":52.5644,"lng":13.505907,"labeledLatLngs":[{"label":"display","lat":52.5644,"lng":13.505907}],"cc":"DE","city":"Berlin","state":"Berlin","country":"Germany","formattedAddress":["Berlin","Germany"]},"categories":[{"id":"4bf58dd8d48988d1c5941735","name":"Sandwich Place","pluralName":"Sandwich Places","shortName":"Sandwiches","icon":{"prefix":"https:\/\/ss3.4sqi.net\/img\/categories_v2\/food\/deli_","suffix":".png"},"primary":true}],"verified":false,"stats":{"checkinsCount":7,"usersCount":4,"tipCount":0},"url":"http:\/\/www.subway-sandwiches.de","allowMenuUrlEdit":true,"beenHere":{"lastCheckinExpiredAt":0},"specials":{"count":0,"items":[]},"referralId":"v-1483291094","venueChains":[{"id":"556e0bfaa7c82e6b724f552f"}],"hasPerk":false},{"id":"55439185498efb662346ac13","name":"Eiscafé La Gondola","contact":{},"location":{"lat":52.544927840220105,"lng":13.549452871048135,"labeledLatLngs":[{"label":"display","lat":52.544927840220105,"lng":13.549452871048135}],"cc":"DE","city":"Berlin","state":"Berlin","country":"Germany","formattedAddress":["Berlin","Germany"]},"categories":[{"id":"4bf58dd8d48988d1c9941735","name":"Ice Cream Shop","pluralName":"Ice Cream Shops","shortName":"Ice Cream","icon":{"prefix":"https:\/\/ss3.4sqi.net\/img\/categories_v2\/food\/icecream_","suffix":".png"},"primary":true}],"verified":false,"stats":{"checkinsCount":58,"usersCount":4,"tipCount":0},"url":"http:\/\/www.eiscafe-lagondola.com","allowMenuUrlEdit":true,"beenHere":{"lastCheckinExpiredAt":0},"specials":{"count":0,"items":[]},"referralId":"v-1483291094","venueChains":[],"hasPerk":false},{"id":"4d0937b3790fa0932d75c773","name":"Kangaroo's Land","contact":{"phone":"+493098115070","formattedPhone":"+49 30 98115070","facebook":"371573828193","facebookUsername":"KangaroosLand","facebookName":"Kangaroo's Land Bowling Berlin"},"location":{"address":"Hansastr. 236","lat":52.56074403064609,"lng":13.500253145074776,"labeledLatLngs":[{"label":"display","lat":52.56074403064609,"lng":13.500253145074776}],"postalCode":"13051","cc":"DE","city":"Berlin","state":"Berlin","country":"Germany","formattedAddress":["Hansastr. 236","13051 Berlin","Germany"]},"categories":[{"id":"4bf58dd8d48988d11d941735","name":"Sports Bar","pluralName":"Sports Bars","shortName":"Sports Bar","icon":{"prefix":"https:\/\/ss3.4sqi.net\/img\/categories_v2\/nightlife\/sportsbar_","suffix":".png"},"primary":true}],"verified":false,"stats":{"checkinsCount":146,"usersCount":104,"tipCount":0},"url":"http:\/\/www.kangaroos-land.de","menu":{"type":"Menu","label":"Menu","anchor":"View Menu","url":"http:\/\/www.kangaroos-land.de\/karten#k-2449","mobileUrl":"http:\/\/www.kangaroos-land.de\/karten#k-2449","externalUrl":"http:\/\/www.kangaroos-land.de\/karten#k-2449"},"allowMenuUrlEdit":true,"beenHere":{"lastCheckinExpiredAt":0},"specials":{"count":0,"items":[]},"referralId":"v-1483291094","venueChains":[],"hasPerk":false},{"id":"55e03ce4498e04275ff6e235","name":"Phönix","contact":{},"location":{"address":"Märkische Allee 176","lat":52.54206643444117,"lng":13.542610835495392,"labeledLatLngs":[{"label":"display","lat":52.54206643444117,"lng":13.542610835495392}],"postalCode":"12681","cc":"DE","city":"Berlin","state":"Berlin","country":"Germany","formattedAddress":["Märkische Allee 176","12681 Berlin","Germany"]},"categories":[{"id":"4bf58dd8d48988d145941735","name":"Chinese Restaurant","pluralName":"Chinese Restaurants","shortName":"Chinese","icon":{"prefix":"https:\/\/ss3.4sqi.net\/img\/categories_v2\/food\/asian_","suffix":".png"},"primary":true}],"verified":false,"stats":{"checkinsCount":54,"usersCount":35,"tipCount":2},"allowMenuUrlEdit":true,"beenHere":{"lastCheckinExpiredAt":0},"specials":{"count":0,"items":[]},"referralId":"v-1483291094","venueChains":[],"hasPerk":false}]}}