{"meta":{"code":200,"requestId":"586939ca9fb6b73bd0f07dfa"},"response":{"venues":[{"id":"5522bc4f498e186fc04bdefb","name":"Villa Toskana","contact":{},"location":{"address":"Freienwalder Strasse 29","lat":52.62964231685741,"lng":13.73643994669195,"labeledLatLngs":[{"label":"display","lat":52.62964231685741,"lng":13.73643994669195}],"cc":"DE","city":"Werneuchen","state":"Brandenburg","country":"Germany","formattedAddress":["Freienwalder Strasse 29","Werneuchen","Germany"]},"categories":[{"id":"4bf58dd8d48988d110941735","name":"Italian Restaurant","pluralName":"Italian Restaurants","shortName":"Italian","icon":{"prefix":"https:\/\/ss3.4sqi.net\/img\/categories_v2\/food\/italian_","suffix":".png"},"primary":true}],"verified":false,"stats":{"checkinsCount":63,"usersCount":8,"tipCount":5},"allowMenuUrlEdit":true,"beenHere":{"lastCheckinExpiredAt":0},"specials":{"count":0,"items":[]},"referralId":"v-1483291082","venueChains":[],"hasPerk":false},{"id":"4f6493c8e4b04d4b15abd0e0","name":"Zur Fischerhütte","contact":{},"location":{"lat":52.622403538641024,"lng":13.678200873013703,"labeledLatLngs":[{"label":"display","lat":52.622403538641024,"lng":13.678200873013703}],"cc":"DE","country":"Germany","formattedAddress":["Germany"]},"categories":[{"id":"4bf58dd8d48988d1ce941735","name":"Seafood Restaurant","pluralName":"Seafood Restaurants","shortName":"Seafood","icon":{"prefix":"https:\/\/ss3.4sqi.net\/img\/categories_v2\/food\/seafood_","suffix":".png"},"primary":true}],"verified":false,"stats":{"checkinsCount":16,"usersCount":13,"tipCount":0},"allowMenuUrlEdit":true,"beenHere":{"lastCheckinExpiredAt":0},"specials":{"count":0,"items":[]},"referralId":"v-1483291082","venueChains":[],"hasPerk":false},{"id":"4e2a7018d4c0e5c89ab99cea","name":"Landbaeckerei Tannfeld","contact":{},"location":{"lat":52.601828,"lng":13.756517,"labeledLatLngs":[{"label":"display","lat":52.601828,"lng":13.756517}],"cc":"DE","city":"Altlandsberg","state":"Brandenburg","country":"Germany","formattedAddress":["Altlandsberg","Germany"]},"categories":[{"id":"4bf58dd8d48988d16a941735","name":"Bakery","pluralName":"Bakeries","shortName":"Bakery","icon":{"prefix":"https:\/\/ss3.4sqi.net\/img\/categories_v2\/food\/bakery_","suffix":".png"},"primary":true}],"verified":false,"stats":{"checkinsCount":73,"usersCount":5,"tipCount":0},"allowMenuUrlEdit":true,"beenHere":{"lastCheckinExpiredAt":0},"specials":{"count":0,"items":[]},"referralId":"v-1483291082","venueChains":[],"hasPerk":false},{"id":"4e7df74a775b53d25b7cd23b","name":"Gaststätte Mona","contact":{},"location":{"address":"Bahnhofstr. 7","lat":52.62030435632296,"lng":13.676540317556547,"labeledLatLngs":[{"label":"display","lat":52.62030435632296,"lng":13.676540317556547}],"postalCode":"16356","cc":"DE","city":"Seefeld","state":"Brandenburg","country":"Germany","formattedAddress":["Bahnhofstr. 7","16356 Seefeld","Germany"]},"categories":[{"id":"4bf58dd8d48988d1ee931735","name":"Hostel","pluralName":"Hostels","shortName":"Hostel","icon":{"prefix":"https:\/\/ss3.4sqi.net\/img\/categories_v2\/travel\/hostel_","suffix":".png"},"primary":true}],"verified":false,"stats":{"checkinsCount":15,"usersCount":10,"tipCount":0},"allowMenuUrlEdit":true,"beenHere":{"lastCheckinExpiredAt":0},"specials":{"count":0,"items":[]},"referralId":"v-1483291082","venueChains":[],"hasPerk":false},{"id":"52344f1c11d26bd95fffd9ba","name":"Restaurant Venezia","contact":{},"location":{"lat":52.630698,"lng":13.732158,"labeledLatLngs":[{"label":"display","lat":52.630698,"lng":13.732158}],"cc":"DE","country":"Germany","formattedAddress":["Germany"]},"categories":[{"id":"4bf58dd8d48988d110941735","name":"Italian Restaurant","pluralName":"Italian Restaurants","shortName":"Italian","icon":{"prefix":"https:\/\/ss3.4sqi.net\/img\/categories_v2\/food\/italian_","suffix":".png"},"primary":true}],"verified":false,"stats":{"checkinsCount":5,"usersCount":4,"tipCount":0},"allowMenuUrlEdit":true,"beenHere":{"lastCheckinExpiredAt":0},"specials":{"count":0,"items":[]},"referralId":"v-1483291082","venueChains":[],"hasPerk":false},{"id":"51b03abe498e5eff23b31d1b","name":"werneuchen marktplatz 6","contact":{},"location":{"address":"Werneuchen","crossStreet":"Am MARKTPLATZ 6","lat":52.63137211798177,"lng":13.732819483334604,"labeledLatLngs":[{"label":"display","lat":52.63137211798177,"lng":13.732819483334604}],"cc":"DE","city":"Werneuchen","state":"Brandenburg","country":"Germany","formattedAddress":["Werneuchen (Am MARKTPLATZ 6)","Werneuchen","Germany"]},"categories":[{"id":"4bf58dd8d48988d16d941735","name":"Café","pluralName":"Cafés","shortName":"Café","icon":{"prefix":"https:\/\/ss3.4sqi.net\/img\/categories_v2\/food\/cafe_","suffix":".png"},"primary":true}],"verified":false,"stats":{"checkinsCount":5,"usersCount":5,"tipCount":1},"allowMenuUrlEdit":true,"beenHere":{"lastCheckinExpiredAt":0},"specials":{"count":0,"items":[]},"referralId":"v-1483291082","venueChains":[],"hasPerk":false},{"id":"54835384498eb82fd624f882","name":"Märkischer Hof","contact":{},"location":{"address":"In Willmersdorf 322","lat":52.66391,"lng":13.683121,"labeledLatLngs":[{"label":"display","lat":52.66391,"lng":13.683121}],"postalCode":"16356","cc":"DE","country":"Germany","formattedAddress":["In Willmersdorf 322","16356","Germany"]},"categories":[{"id":"4bf58dd8d48988d10d941735","name":"German Restaurant","pluralName":"German Restaurants","shortName":"German","icon":{"prefix":"https:\/\/ss3.4sqi.net\/img\/categories_v2\/food\/german_","suffix":".png"},"primary":true}],"verified":false,"stats":{"checkinsCount":1,"usersCount":1,"tipCount":0},"allowMenuUrlEdit":true,"beenHere":{"lastCheckinExpiredAt":0},"specials":{"count":0,"items":[]},"referralId":"v-1483291082","venueChains":[],"hasPerk":false},{"id":"53d1500b498e76c1237ee7b6","name":"Villa Romana","contact":{"phone":"+4933398918923","formattedPhone":"+49 33398 918923"},"location":{"address":"Freienwalder Strasse 29","lat":52.629422,"lng":13.736437,"labeledLatLngs":[{"label":"display","lat":52.629422,"lng":13.736437}],"postalCode":"16356","cc":"DE","city":"Werneuchen","state":"Brandenburg","country":"Germany","formattedAddress":["Freienwalder Strasse 29","16356 Werneuchen","Germany"]},"categories":[{"id":"4bf58dd8d48988d110941735","name":"Italian Restaurant","pluralName":"Italian Restaurants","shortName":"Italian","icon":{"prefix":"https:\/\/ss3.4sqi.net\/img\/categories_v2\/food\/italian_","suffix":".png"},"primary":true}],"verified":false,"stats":{"checkinsCount":5,"usersCount":1,"tipCount":0},"allowMenuUrlEdit":true,"beenHere":{"lastCheckinExpiredAt":0},"specials":{"count":0,"items":[]},"referralId":"v-1483291082","venueChains":[],"hasPerk":false},{"id":"4f6f1d18e4b056aa94339afe","name":"OTTEs Eiscafe","contact":{"phone":"+493339890575","formattedPhone":"+49 33398 90575"},"location":{"address":"Freienwalder Straße 3","lat":52.634246935384965,"lng":13.742170925819908,"labeledLatLngs":[{"label":"display","lat":52.634246935384965,"lng":13.742170925819908}],"postalCode":"16356","cc":"DE","city":"Werneuchen","state":"Brandenburg","country":"Germany","formattedAddress":["Freienwalder Straße 3","16356 Werneuchen","Germany"]},"categories":[{"id":"4bf58dd8d48988d1c9941735","name":"Ice Cream Shop","pluralName":"Ice Cream Shops","shortName":"Ice Cream","icon":{"prefix":"https:\/\/ss3.4sqi.net\/img\/categories_v2\/food\/icecream_","suffix":".png"},"primary":true}],"verified":false,"stats":{"checkinsCount":11,"usersCount":4,"tipCount":1},"allowMenuUrlEdit":true,"beenHere":{"lastCheckinExpiredAt":0},"specials":{"count":0,"items":[]},"referralId":"v-1483291082","venueChains":[],"hasPerk":false},{"id":"5726005e498ee54138a34858","name":"Cafe Gontek","contact":{},"location":{"lat":52.631657,"lng":13.732972,"labeledLatLngs":[{"label":"display","lat":52.631657,"lng":13.732972}],"cc":"DE","country":"Germany","formattedAddress":["Germany"]},"categories":[{"id":"4bf58dd8d48988d16d941735","name":"Café","pluralName":"Cafés","shortName":"Café","icon":{"prefix":"https:\/\/ss3.4sqi.net\/img\/categories_v2\/food\/cafe_","suffix":".png"},"primary":true}],"verified":false,"stats":{"checkinsCount":1,"usersCount":1,"tipCount":0},"allowMenuUrlEdit":true,"beenHere":{"lastCheckinExpiredAt":0},"specials":{"count":0,"items":[]},"referralId":"v-1483291082","venueChains":[],"hasPerk":false},{"id":"557da40c498ea3ff94f11159","name":"Bäckerei-Konditorei Wulff","contact":{},"location":{"lat":52.62983342069671,"lng":13.733061866426269,"labeledLatLngs":[{"label":"display","lat":52.62983342069671,"lng":13.733061866426269}],"cc":"DE","country":"Germany","formattedAddress":["Germany"]},"categories":[{"id":"4bf58dd8d48988d16a941735","name":"Bakery","pluralName":"Bakeries","shortName":"Bakery","icon":{"prefix":"https:\/\/ss3.4sqi.net\/img\/categories_v2\/food\/bakery_","suffix":".png"},"primary":true}],"verified":false,"stats":{"checkinsCount":3,"usersCount":2,"tipCount":0},"allowMenuUrlEdit":true,"beenHere":{"lastCheckinExpiredAt":0},"specials":{"count":0,"items":[]},"referralId":"v-1483291082","venueChains":[],"hasPerk":false},{"id":"5746e814498e39394aef2a9c","name":"Sop Ikan Batam","contact":{},"location":{"address":"Pos 10 Bb","lat":52.63315,"lng":13.734533,"labeledLatLngs":[{"label":"display","lat":52.63315,"lng":13.734533}],"cc":"DE","country":"Germany","formattedAddress":["Pos 10 Bb","Germany"]},"categories":[{"id":"4bf58dd8d48988d145941735","name":"Chinese Restaurant","pluralName":"Chinese Restaurants","shortName":"Chinese","icon":{"prefix":"https:\/\/ss3.4sqi.net\/img\/categories_v2\/food\/asian_","suffix":".png"},"primary":true}],"verified":false,"stats":{"checkinsCount":0,"usersCount":0,"tipCount":0},"allowMenuUrlEdit":true,"beenHere":{"lastCheckinExpiredAt":0},"specials":{"count":0,"items":[]},"referralId":"v-1483291082","venueChains":[],"hasPerk":false},{"id":"4e34498a8877beb5e99f1326","name":"Da Enzo","contact":{},"location":{"address":"Freienwalder Str. 29","lat":52.629626708203574,"lng":13.736709332838846,"labeledLatLngs":[{"label":"display","lat":52.629626708203574,"lng":13.736709332838846}],"postalCode":"16356","cc":"DE","city":"Werneuchen","state":"Brandenburg","country":"Germany","formattedAddress":["Freienwalder Str. 29","16356 Werneuchen","Germany"]},"categories":[{"id":"4bf58dd8d48988d110941735","name":"Italian Restaurant","pluralName":"Italian Restaurants","shortName":"Italian","icon":{"prefix":"https:\/\/ss3.4sqi.net\/img\/categories_v2\/food\/italian_","suffix":".png"},"primary":true}],"verified":false,"stats":{"checkinsCount":28,"usersCount":11,"tipCount":0},"allowMenuUrlEdit":true,"beenHere":{"lastCheckinExpiredAt":0},"specials":{"count":0,"items":[]},"referralId":"v-1483291082","venueChains":[],"hasPerk":false},{"id":"4f53a106e4b0e14ed84d1a77","name":"fleisige lieschen","contact":{},"location":{"lat":52.60788147886573,"lng":13.67451745150421,"labeledLatLngs":[{"label":"display","lat":52.60788147886573,"lng":13.67451745150421}],"cc":"DE","country":"Germany","formattedAddress":["Germany"]},"categories":[{"id":"4bf58dd8d48988d10d941735","name":"German Restaurant","pluralName":"German Restaurants","shortName":"German","icon":{"prefix":"https:\/\/ss3.4sqi.net\/img\/categories_v2\/food\/german_","suffix":".png"},"primary":true}],"verified":false,"stats":{"checkinsCount":6,"usersCount":1,"tipCount":0},"allowMenuUrlEdit":true,"beenHere":{"lastCheckinExpiredAt":0},"specials":{"count":0,"items":[]},"referralId":"v-1483291082","venueChains":[],"hasPerk":false},{"id":"4e31546f483b1bbfc5ac2cc5","name":"Onkel Döner's Neffe","contact":{},"location":{"address":"Schulstrasse","lat":52.63096254934929,"lng":13.731144907731649,"labeledLatLngs":[{"label":"display","lat":52.63096254934929,"lng":13.731144907731649}],"postalCode":"16356","cc":"DE","city":"Werneuchen","state":"Brandenburg","country":"Germany","formattedAddress":["Schulstrasse","16356 Werneuchen","Germany"]},"categories":[{"id":"4d4b7105d754a06374d81259","name":"Food","pluralName":"Food","shortName":"Food","icon":{"prefix":"https:\/\/ss3.4sqi.net\/img\/categories_v2\/food\/default_","suffix":".png"},"primary":true}],"verified":false,"stats":{"checkinsCount":34,"usersCount":6,"tipCount":0},"allowMenuUrlEdit":true,"beenHere":{"lastCheckinExpiredAt":0},"specials":{"count":0,"items":[]},"referralId":"v-1483291082","venueChains":[],"hasPerk":false},{"id":"5425cbce498e84dd87c86f58","name":"Vasiliadis Savvas","contact":{"phone":"+493064328369","formattedPhone":"+49 30 64328369"},"location":{"address":"Dorfstraße 24","lat":52.62103,"lng":13.760902,"labeledLatLngs":[{"label":"display","lat":52.62103,"lng":13.760902}],"postalCode":"15566","cc":"DE","city":"Schöneiche bei Berlin","state":"Brandenburg","country":"Germany","formattedAddress":["Dorfstraße 24","15566 Schöneiche bei Berlin","Germany"]},"categories":[{"id":"4bf58dd8d48988d10e941735","name":"Greek Restaurant","pluralName":"Greek Restaurants","shortName":"Greek","icon":{"prefix":"https:\/\/ss3.4sqi.net\/img\/categories_v2\/food\/greek_","suffix":".png"},"primary":true}],"verified":false,"stats":{"checkinsCount":1,"usersCount":1,"tipCount":0},"allowMenuUrlEdit":true,"beenHere":{"lastCheckinExpiredAt":0},"specials":{"count":0,"items":[]},"referralId":"v-1483291082","venueChains":[],"hasPerk":false}]}}