{"meta":{"code":200,"requestId":"586939cf4c1f676ccfb88c29"},"response":{"venues":[{"id":"54b554b3498eca6f7b65518e","name":"Eisrausch","contact":{},"location":{"address":"Märkische Allee 76","lat":52.63113358662686,"lng":13.323003754446406,"labeledLatLngs":[{"label":"display","lat":52.63113358662686,"lng":13.323003754446406}],"postalCode":"16548","cc":"DE","city":"Glienicke\/Nordbahn","state":"Brandenburg","country":"Germany","formattedAddress":["Märkische Allee 76","16548 Glienicke\/Nordbahn","Germany"]},"categories":[{"id":"4bf58dd8d48988d1c9941735","name":"Ice Cream Shop","pluralName":"Ice Cream Shops","shortName":"Ice Cream","icon":{"prefix":"https:\/\/ss3.4sqi.net\/img\/categories_v2\/food\/icecream_","suffix":".png"},"primary":true}],"verified":false,"stats":{"checkinsCount":266,"usersCount":14,"tipCount":1},"allowMenuUrlEdit":true,"beenHere":{"lastCheckinExpiredAt":0},"specials":{"count":0,"items":[]},"referralId":"v-1483291087","venueChains":[],"hasPerk":false},{"id":"4adcda85f964a520f84821e3","name":"Alter Dorfkrug","contact":{},"location":{"address":"Alt-Lübars 8","lat":52.620111421393204,"lng":13.356280081091318,"labeledLatLngs":[{"label":"display","lat":52.620111421393204,"lng":13.356280081091318}],"postalCode":"13469","cc":"DE","city":"Berlin","state":"Berlin","country":"Germany","formattedAddress":["Alt-Lübars 8","13469 Berlin","Germany"]},"categories":[{"id":"4bf58dd8d48988d1c4941735","name":"Restaurant","pluralName":"Restaurants","shortName":"Restaurant","icon":{"prefix":"https:\/\/ss3.4sqi.net\/img\/categories_v2\/food\/default_","suffix":".png"},"primary":true}],"verified":false,"stats":{"checkinsCount":143,"usersCount":114,"tipCount":6},"allowMenuUrlEdit":true,"beenHere":{"lastCheckinExpiredAt":0},"specials":{"count":0,"items":[]},"referralId":"v-1483291087","venueChains":[],"hasPerk":false},{"id":"558aa1ce498e2fb39e51d830","name":"El Boyero - Argentinisches Steakhaus","contact":{"phone":"+4933056435575","formattedPhone":"+49 33056 435575"},"location":{"address":"Schönfließer Straße 82","lat":52.632644172262616,"lng":13.311857172608711,"labeledLatLngs":[{"label":"display","lat":52.632644172262616,"lng":13.311857172608711}],"postalCode":"16548","cc":"DE","city":"Glienicke\/Nordbahn","state":"Brandenburg","country":"Germany","formattedAddress":["Schönfließer Straße 82","16548 Glienicke\/Nordbahn","Germany"]},"categories":[{"id":"4bf58dd8d48988d1cc941735","name":"Steakhouse","pluralName":"Steakhouses","shortName":"Steakhouse","icon":{"prefix":"https:\/\/ss3.4sqi.net\/img\/categories_v2\/food\/steakhouse_","suffix":".png"},"primary":true}],"verified":false,"stats":{"checkinsCount":44,"usersCount":15,"tipCount":0},"allowMenuUrlEdit":true,"beenHere":{"lastCheckinExpiredAt":0},"specials":{"count":0,"items":[]},"referralId":"v-1483291087","venueChains":[],"hasPerk":false},{"id":"4cbb3294c7228cfa8a241cce","name":"Cafe Orange","contact":{},"location":{"address":"Oranienburger Str.","lat":52.59493251926575,"lng":13.39357800136297,"labeledLatLngs":[{"label":"display","lat":52.59493251926575,"lng":13.39357800136297}],"cc":"DE","city":"Berlin","state":"Berlin","country":"Germany","formattedAddress":["Oranienburger Str.","Berlin","Germany"]},"categories":[{"id":"4bf58dd8d48988d115941735","name":"Middle Eastern Restaurant","pluralName":"Middle Eastern Restaurants","shortName":"Middle Eastern","icon":{"prefix":"https:\/\/ss3.4sqi.net\/img\/categories_v2\/food\/middleeastern_","suffix":".png"},"primary":true}],"verified":false,"stats":{"checkinsCount":42,"usersCount":5,"tipCount":0},"allowMenuUrlEdit":true,"beenHere":{"lastCheckinExpiredAt":0},"specials":{"count":0,"items":[]},"referralId":"v-1483291087","venueChains":[],"hasPerk":false},{"id":"4b57241cf964a520fe2728e3","name":"Piazza Italiana","contact":{"phone":"+49304044613","formattedPhone":"+49 30 4044613"},"location":{"address":"Oranienburger Chaussee 2","crossStreet":"Niederstr.","lat":52.628413212490535,"lng":13.311125970706435,"labeledLatLngs":[{"label":"display","lat":52.628413212490535,"lng":13.311125970706435}],"postalCode":"16548","cc":"DE","city":"Glienicke","state":"Brandenburg","country":"Germany","formattedAddress":["Oranienburger Chaussee 2 (Niederstr.)","16548 Glienicke","Germany"]},"categories":[{"id":"4bf58dd8d48988d110941735","name":"Italian Restaurant","pluralName":"Italian Restaurants","shortName":"Italian","icon":{"prefix":"https:\/\/ss3.4sqi.net\/img\/categories_v2\/food\/italian_","suffix":".png"},"primary":true}],"verified":false,"stats":{"checkinsCount":229,"usersCount":87,"tipCount":8},"url":"http:\/\/piazza-italiana.net","allowMenuUrlEdit":true,"beenHere":{"lastCheckinExpiredAt":0},"specials":{"count":0,"items":[]},"referralId":"v-1483291087","venueChains":[],"hasPerk":false},{"id":"51321b4ee4b08f70efb672a3","name":"Käseglocke","contact":{},"location":{"lat":52.636111853343955,"lng":13.319986008005397,"labeledLatLngs":[{"label":"display","lat":52.636111853343955,"lng":13.319986008005397}],"cc":"DE","city":"Berlin","state":"Berlin","country":"Germany","formattedAddress":["Berlin","Germany"]},"categories":[{"id":"4bf58dd8d48988d143941735","name":"Breakfast Spot","pluralName":"Breakfast Spots","shortName":"Breakfast","icon":{"prefix":"https:\/\/ss3.4sqi.net\/img\/categories_v2\/food\/breakfast_","suffix":".png"},"primary":true}],"verified":false,"stats":{"checkinsCount":188,"usersCount":13,"tipCount":1},"allowMenuUrlEdit":true,"beenHere":{"lastCheckinExpiredAt":0},"specials":{"count":0,"items":[]},"referralId":"v-1483291087","venueChains":[],"hasPerk":false},{"id":"5336e520498e52d885364d53","name":"Döner Time","contact":{},"location":{"address":"Wilhelmsruher Damm","crossStreet":"Oranienburger Str.","lat":52.595769,"lng":13.333304,"labeledLatLngs":[{"label":"display","lat":52.595769,"lng":13.333304}],"cc":"DE","city":"Berlin","state":"Berlin","country":"Germany","formattedAddress":["Wilhelmsruher Damm (Oranienburger Str.)","Berlin","Germany"]},"categories":[{"id":"5283c7b4e4b094cb91ec88d8","name":"Doner Restaurant","pluralName":"Doner Restaurants","shortName":"Doner","icon":{"prefix":"https:\/\/ss3.4sqi.net\/img\/categories_v2\/food\/turkish_","suffix":".png"},"primary":true}],"verified":false,"stats":{"checkinsCount":20,"usersCount":12,"tipCount":1},"allowMenuUrlEdit":true,"beenHere":{"lastCheckinExpiredAt":0},"specials":{"count":0,"items":[]},"referralId":"v-1483291087","venueChains":[],"hasPerk":false},{"id":"4e7dcaca2c5b81706eead776","name":"Trattoria Chiaromonte","contact":{},"location":{"address":"Oranienburger Str. 60","lat":52.58934156740887,"lng":13.334384025357497,"labeledLatLngs":[{"label":"display","lat":52.58934156740887,"lng":13.334384025357497}],"postalCode":"13437","cc":"DE","city":"Berlin","state":"Berlin","country":"Germany","formattedAddress":["Oranienburger Str. 60","13437 Berlin","Germany"]},"categories":[{"id":"55a5a1ebe4b013909087cb7f","name":"Trattoria\/Osteria","pluralName":"Trattorias\/Osterias","shortName":"Trattoria\/Osteria","icon":{"prefix":"https:\/\/ss3.4sqi.net\/img\/categories_v2\/food\/italian_","suffix":".png"},"primary":true}],"verified":false,"stats":{"checkinsCount":152,"usersCount":38,"tipCount":3},"allowMenuUrlEdit":true,"beenHere":{"lastCheckinExpiredAt":0},"specials":{"count":0,"items":[]},"referralId":"v-1483291087","venueChains":[],"hasPerk":false},{"id":"4f85c434e4b0657ba7f68456","name":"Trattoria Isola Verde","contact":{"phone":"+49304145471","formattedPhone":"+49 30 4145471"},"location":{"address":"Gorkistr. 206","lat":52.593012092873884,"lng":13.313040716965315,"labeledLatLngs":[{"label":"display","lat":52.593012092873884,"lng":13.313040716965315}],"postalCode":"13437","cc":"DE","city":"Berlin","state":"Berlin","country":"Germany","formattedAddress":["Gorkistr. 206","13437 Berlin","Germany"]},"categories":[{"id":"55a5a1ebe4b013909087cb7f","name":"Trattoria\/Osteria","pluralName":"Trattorias\/Osterias","shortName":"Trattoria\/Osteria","icon":{"prefix":"https:\/\/ss3.4sqi.net\/img\/categories_v2\/food\/italian_","suffix":".png"},"primary":true}],"verified":false,"stats":{"checkinsCount":38,"usersCount":24,"tipCount":5},"url":"http:\/\/www.isolaverde.de","allowMenuUrlEdit":true,"beenHere":{"lastCheckinExpiredAt":0},"specials":{"count":0,"items":[]},"referralId":"v-1483291087","venueChains":[],"hasPerk":false},{"id":"51cef403498ef7486c34c0bb","name":"Haus Schönwald","contact":{},"location":{"lat":52.595912,"lng":13.392021,"labeledLatLngs":[{"label":"display","lat":52.595912,"lng":13.392021}],"cc":"DE","city":"Berlin","state":"Berlin","country":"Germany","formattedAddress":["Berlin","Germany"]},"categories":[{"id":"4bf58dd8d48988d1cc941735","name":"Steakhouse","pluralName":"Steakhouses","shortName":"Steakhouse","icon":{"prefix":"https:\/\/ss3.4sqi.net\/img\/categories_v2\/food\/steakhouse_","suffix":".png"},"primary":true}],"verified":false,"stats":{"checkinsCount":26,"usersCount":5,"tipCount":0},"allowMenuUrlEdit":true,"beenHere":{"lastCheckinExpiredAt":0},"specials":{"count":0,"items":[]},"referralId":"v-1483291087","venueChains":[],"hasPerk":false},{"id":"4de22fa9d4c070440565a2d9","name":"Becerro Steakhaus","contact":{},"location":{"address":"Eichborndamm 297","lat":52.595288758263834,"lng":13.332924513122046,"labeledLatLngs":[{"label":"display","lat":52.595288758263834,"lng":13.332924513122046}],"postalCode":"13437","cc":"DE","city":"Berlin","state":"Berlin","country":"Germany","formattedAddress":["Eichborndamm 297","13437 Berlin","Germany"]},"categories":[{"id":"4bf58dd8d48988d107941735","name":"Argentinian Restaurant","pluralName":"Argentinian Restaurants","shortName":"Argentinian","icon":{"prefix":"https:\/\/ss3.4sqi.net\/img\/categories_v2\/food\/argentinian_","suffix":".png"},"primary":true}],"verified":false,"stats":{"checkinsCount":135,"usersCount":63,"tipCount":1},"allowMenuUrlEdit":true,"beenHere":{"lastCheckinExpiredAt":0},"specials":{"count":0,"items":[]},"referralId":"v-1483291087","venueChains":[],"hasPerk":false},{"id":"4fa551dce4b0862c74ebf527","name":"Dorfaue","contact":{},"location":{"address":"Alt-Wittenau 56","lat":52.592831,"lng":13.322757,"labeledLatLngs":[{"label":"display","lat":52.592831,"lng":13.322757}],"postalCode":"13437","cc":"DE","city":"Berlin","state":"Berlin","country":"Germany","formattedAddress":["Alt-Wittenau 56","13437 Berlin","Germany"]},"categories":[{"id":"4bf58dd8d48988d109941735","name":"Eastern European Restaurant","pluralName":"Eastern European Restaurants","shortName":"Eastern European","icon":{"prefix":"https:\/\/ss3.4sqi.net\/img\/categories_v2\/food\/default_","suffix":".png"},"primary":true}],"verified":false,"stats":{"checkinsCount":80,"usersCount":26,"tipCount":2},"allowMenuUrlEdit":true,"beenHere":{"lastCheckinExpiredAt":0},"specials":{"count":0,"items":[]},"referralId":"v-1483291087","venueChains":[],"hasPerk":false},{"id":"4bc1f2f2461576b0f3877c32","name":"Carpaccio","contact":{"phone":"+49304141088","formattedPhone":"+49 30 4141088"},"location":{"address":"Alt-Wittenau 39","lat":52.592956040288264,"lng":13.323801429784705,"labeledLatLngs":[{"label":"display","lat":52.592956040288264,"lng":13.323801429784705}],"postalCode":"13437","cc":"DE","city":"Berlin","state":"Berlin","country":"Germany","formattedAddress":["Alt-Wittenau 39","13437 Berlin","Germany"]},"categories":[{"id":"4bf58dd8d48988d110941735","name":"Italian Restaurant","pluralName":"Italian Restaurants","shortName":"Italian","icon":{"prefix":"https:\/\/ss3.4sqi.net\/img\/categories_v2\/food\/italian_","suffix":".png"},"primary":true}],"verified":false,"stats":{"checkinsCount":46,"usersCount":27,"tipCount":1},"allowMenuUrlEdit":true,"beenHere":{"lastCheckinExpiredAt":0},"specials":{"count":0,"items":[]},"referralId":"v-1483291087","venueChains":[],"hasPerk":false},{"id":"4bfeeea0ca1920a14311ec81","name":"Restaurant Albert's","contact":{},"location":{"address":"Oraniendamm 11","lat":52.607815089842816,"lng":13.323708344605475,"labeledLatLngs":[{"label":"display","lat":52.607815089842816,"lng":13.323708344605475}],"postalCode":"13469","cc":"DE","city":"Berlin","state":"Berlin","country":"Germany","formattedAddress":["Oraniendamm 11","13469 Berlin","Germany"]},"categories":[{"id":"4bf58dd8d48988d155941735","name":"Gastropub","pluralName":"Gastropubs","shortName":"Gastropub","icon":{"prefix":"https:\/\/ss3.4sqi.net\/img\/categories_v2\/food\/gastropub_","suffix":".png"},"primary":true}],"verified":false,"stats":{"checkinsCount":172,"usersCount":79,"tipCount":5},"url":"http:\/\/www.alberts-restaurants.de\/","allowMenuUrlEdit":true,"beenHere":{"lastCheckinExpiredAt":0},"specials":{"count":0,"items":[]},"referralId":"v-1483291087","venueChains":[],"hasPerk":false},{"id":"56e08006498e7d89d9b942ef","name":"Green House","contact":{},"location":{"lat":52.63093164414398,"lng":13.31047836583661,"labeledLatLngs":[{"label":"display","lat":52.63093164414398,"lng":13.31047836583661}],"cc":"DE","country":"Germany","formattedAddress":["Germany"]},"categories":[{"id":"4bf58dd8d48988d157941735","name":"New American Restaurant","pluralName":"New American Restaurants","shortName":"New American","icon":{"prefix":"https:\/\/ss3.4sqi.net\/img\/categories_v2\/food\/newamerican_","suffix":".png"},"primary":true}],"verified":false,"stats":{"checkinsCount":67,"usersCount":32,"tipCount":2},"allowMenuUrlEdit":true,"beenHere":{"lastCheckinExpiredAt":0},"specials":{"count":0,"items":[]},"referralId":"v-1483291087","venueChains":[],"hasPerk":false},{"id":"4c4b0f1b9e6dbe9a39f77a0b","name":"Eisdiele Angelina Alt-Lübars","contact":{},"location":{"lat":52.617837,"lng":13.35437,"labeledLatLngs":[{"label":"display","lat":52.617837,"lng":13.35437}],"cc":"DE","city":"Berlin","state":"Berlin","country":"Germany","formattedAddress":["Berlin","Germany"]},"categories":[{"id":"4bf58dd8d48988d1c9941735","name":"Ice Cream Shop","pluralName":"Ice Cream Shops","shortName":"Ice Cream","icon":{"prefix":"https:\/\/ss3.4sqi.net\/img\/categories_v2\/food\/icecream_","suffix":".png"},"primary":true}],"verified":false,"stats":{"checkinsCount":113,"usersCount":58,"tipCount":1},"allowMenuUrlEdit":true,"beenHere":{"lastCheckinExpiredAt":0},"specials":{"count":0,"items":[]},"referralId":"v-1483291087","venueChains":[],"hasPerk":false},{"id":"4e21e8e022717a5245d00918","name":"Ristorante Capitano","contact":{"phone":"+49304166148","formattedPhone":"+49 30 4166148"},"location":{"address":"Eichhorster Weg 9","lat":52.597229,"lng":13.346093,"labeledLatLngs":[{"label":"display","lat":52.597229,"lng":13.346093}],"postalCode":"13435","cc":"DE","city":"Berlin","state":"Berlin","country":"Germany","formattedAddress":["Eichhorster Weg 9","13435 Berlin","Germany"]},"categories":[{"id":"4bf58dd8d48988d110941735","name":"Italian Restaurant","pluralName":"Italian Restaurants","shortName":"Italian","icon":{"prefix":"https:\/\/ss3.4sqi.net\/img\/categories_v2\/food\/italian_","suffix":".png"},"primary":true}],"verified":false,"stats":{"checkinsCount":132,"usersCount":20,"tipCount":2},"url":"http:\/\/www.tdcapitano.de","allowMenuUrlEdit":true,"beenHere":{"lastCheckinExpiredAt":0},"specials":{"count":0,"items":[]},"referralId":"v-1483291087","venueChains":[],"hasPerk":false},{"id":"4baa3160f964a5200c523ae3","name":"Aanjal","contact":{"phone":"+493041706572","formattedPhone":"+49 30 41706572"},"location":{"address":"Oranienburger Str. 92","lat":52.59664469373515,"lng":13.332646646310986,"labeledLatLngs":[{"label":"display","lat":52.59664469373515,"lng":13.332646646310986}],"postalCode":"13437","cc":"DE","city":"Berlin","state":"Berlin","country":"Germany","formattedAddress":["Oranienburger Str. 92","13437 Berlin","Germany"]},"categories":[{"id":"4bf58dd8d48988d10f941735","name":"Indian Restaurant","pluralName":"Indian Restaurants","shortName":"Indian","icon":{"prefix":"https:\/\/ss3.4sqi.net\/img\/categories_v2\/food\/indian_","suffix":".png"},"primary":true}],"verified":false,"stats":{"checkinsCount":112,"usersCount":40,"tipCount":4},"allowMenuUrlEdit":true,"beenHere":{"lastCheckinExpiredAt":0},"specials":{"count":0,"items":[]},"referralId":"v-1483291087","venueChains":[],"hasPerk":false},{"id":"4c531012728920a187407c80","name":"Dionysos Griechisches Restaurant","contact":{},"location":{"lat":52.609985776535154,"lng":13.330609,"labeledLatLngs":[{"label":"display","lat":52.609985776535154,"lng":13.330609}],"cc":"DE","city":"Berlin","state":"Berlin","country":"Germany","formattedAddress":["Berlin","Germany"]},"categories":[{"id":"4bf58dd8d48988d10e941735","name":"Greek Restaurant","pluralName":"Greek Restaurants","shortName":"Greek","icon":{"prefix":"https:\/\/ss3.4sqi.net\/img\/categories_v2\/food\/greek_","suffix":".png"},"primary":true}],"verified":false,"stats":{"checkinsCount":104,"usersCount":55,"tipCount":2},"allowMenuUrlEdit":true,"beenHere":{"lastCheckinExpiredAt":0},"specials":{"count":0,"items":[]},"referralId":"v-1483291087","venueChains":[],"hasPerk":false},{"id":"4b588aa5f964a520f15c28e3","name":"Blixen Coffee Shop","contact":{"phone":"+493099197816","formattedPhone":"+49 30 99197816"},"location":{"address":"Wilhelmsruher Damm 140","crossStreet":"Märkisches Zentrum","lat":52.59716978285001,"lng":13.354833185727886,"labeledLatLngs":[{"label":"display","lat":52.59716978285001,"lng":13.354833185727886}],"postalCode":"13439","cc":"DE","city":"Berlin","state":"Berlin","country":"Germany","formattedAddress":["Wilhelmsruher Damm 140 (Märkisches Zentrum)","13439 Berlin","Germany"]},"categories":[{"id":"4bf58dd8d48988d16d941735","name":"Café","pluralName":"Cafés","shortName":"Café","icon":{"prefix":"https:\/\/ss3.4sqi.net\/img\/categories_v2\/food\/cafe_","suffix":".png"},"primary":true}],"verified":false,"stats":{"checkinsCount":140,"usersCount":32,"tipCount":0},"allowMenuUrlEdit":true,"beenHere":{"lastCheckinExpiredAt":0},"specials":{"count":0,"items":[]},"referralId":"v-1483291087","venueChains":[],"hasPerk":false},{"id":"545fc185498ed1b7f6bc7aba","name":"san giorgio","contact":{},"location":{"lat":52.60633323603934,"lng":13.317238042928752,"labeledLatLngs":[{"label":"display","lat":52.60633323603934,"lng":13.317238042928752}],"cc":"DE","city":"Berlin","state":"Berlin","country":"Germany","formattedAddress":["Berlin","Germany"]},"categories":[{"id":"4bf58dd8d48988d110941735","name":"Italian Restaurant","pluralName":"Italian Restaurants","shortName":"Italian","icon":{"prefix":"https:\/\/ss3.4sqi.net\/img\/categories_v2\/food\/italian_","suffix":".png"},"primary":true}],"verified":false,"stats":{"checkinsCount":24,"usersCount":8,"tipCount":0},"allowMenuUrlEdit":true,"beenHere":{"lastCheckinExpiredAt":0},"specials":{"count":0,"items":[]},"referralId":"v-1483291087","venueChains":[],"hasPerk":false},{"id":"4ce8dcb26afd6a3164ded54d","name":"Hotel & Restaurant Waldschlößchen","contact":{"phone":"+493305682000","formattedPhone":"+49 33056 82000"},"location":{"address":"Karl-Liebknecht-Str. 55-57","lat":52.6333100994566,"lng":13.345684650854198,"labeledLatLngs":[{"label":"display","lat":52.6333100994566,"lng":13.345684650854198}],"postalCode":"16548","cc":"DE","city":"Glienicke\/Nordbahn","state":"Brandenburg","country":"Germany","formattedAddress":["Karl-Liebknecht-Str. 55-57","16548 Glienicke\/Nordbahn","Germany"]},"categories":[{"id":"4bf58dd8d48988d147941735","name":"Diner","pluralName":"Diners","shortName":"Diner","icon":{"prefix":"https:\/\/ss3.4sqi.net\/img\/categories_v2\/food\/diner_","suffix":".png"},"primary":true}],"verified":false,"stats":{"checkinsCount":19,"usersCount":15,"tipCount":0},"allowMenuUrlEdit":true,"beenHere":{"lastCheckinExpiredAt":0},"specials":{"count":0,"items":[]},"referralId":"v-1483291087","venueChains":[],"hasPerk":false},{"id":"4be497add4f7c9b609612420","name":"Cascina","contact":{},"location":{"address":"Berliner Str 38","crossStreet":"Augusta-Victoria-Str","lat":52.62026557801463,"lng":13.313849898461594,"labeledLatLngs":[{"label":"display","lat":52.62026557801463,"lng":13.313849898461594}],"postalCode":"13467","cc":"DE","city":"Berlin","state":"Berlin","country":"Germany","formattedAddress":["Berliner Str 38 (Augusta-Victoria-Str)","13467 Berlin","Germany"]},"categories":[{"id":"4bf58dd8d48988d110941735","name":"Italian Restaurant","pluralName":"Italian Restaurants","shortName":"Italian","icon":{"prefix":"https:\/\/ss3.4sqi.net\/img\/categories_v2\/food\/italian_","suffix":".png"},"primary":true}],"verified":false,"stats":{"checkinsCount":114,"usersCount":33,"tipCount":2},"allowMenuUrlEdit":true,"beenHere":{"lastCheckinExpiredAt":0},"specials":{"count":0,"items":[]},"referralId":"v-1483291087","venueChains":[],"hasPerk":false},{"id":"4bab9667f964a520a0b63ae3","name":"Castell","contact":{"phone":"+49304154103","formattedPhone":"+49 30 4154103"},"location":{"address":"Teschendorfer Weg 6","lat":52.5938520644779,"lng":13.357330498839879,"labeledLatLngs":[{"label":"display","lat":52.5938520644779,"lng":13.357330498839879}],"postalCode":"13439","cc":"DE","city":"Berlin","state":"Berlin","country":"Germany","formattedAddress":["Teschendorfer Weg 6","13439 Berlin","Germany"]},"categories":[{"id":"4bf58dd8d48988d1c4941735","name":"Restaurant","pluralName":"Restaurants","shortName":"Restaurant","icon":{"prefix":"https:\/\/ss3.4sqi.net\/img\/categories_v2\/food\/default_","suffix":".png"},"primary":true}],"verified":false,"stats":{"checkinsCount":86,"usersCount":27,"tipCount":0},"allowMenuUrlEdit":true,"beenHere":{"lastCheckinExpiredAt":0},"specials":{"count":0,"items":[]},"referralId":"v-1483291087","venueChains":[],"hasPerk":false},{"id":"4c13b398a9c220a1bc2a569d","name":"Orakel","contact":{},"location":{"address":"Dannenwalder Weg 70","lat":52.5911567,"lng":13.34620065,"labeledLatLngs":[{"label":"display","lat":52.5911567,"lng":13.34620065}],"cc":"DE","city":"Berlin","state":"Berlin","country":"Germany","formattedAddress":["Dannenwalder Weg 70","Berlin","Germany"]},"categories":[{"id":"4bf58dd8d48988d10e941735","name":"Greek Restaurant","pluralName":"Greek Restaurants","shortName":"Greek","icon":{"prefix":"https:\/\/ss3.4sqi.net\/img\/categories_v2\/food\/greek_","suffix":".png"},"primary":true}],"verified":false,"stats":{"checkinsCount":25,"usersCount":13,"tipCount":1},"allowMenuUrlEdit":true,"beenHere":{"lastCheckinExpiredAt":0},"specials":{"count":0,"items":[]},"referralId":"v-1483291087","venueChains":[],"hasPerk":false},{"id":"4e32aa751f6e2137f933d6b2","name":"Ristorante Romano","contact":{},"location":{"address":"Zabel-Krüger-Damm 14","lat":52.60893126229597,"lng":13.327101745329335,"labeledLatLngs":[{"label":"display","lat":52.60893126229597,"lng":13.327101745329335}],"postalCode":"13469","cc":"DE","city":"Berlin","state":"Berlin","country":"Germany","formattedAddress":["Zabel-Krüger-Damm 14","13469 Berlin","Germany"]},"categories":[{"id":"4bf58dd8d48988d110941735","name":"Italian Restaurant","pluralName":"Italian Restaurants","shortName":"Italian","icon":{"prefix":"https:\/\/ss3.4sqi.net\/img\/categories_v2\/food\/italian_","suffix":".png"},"primary":true}],"verified":false,"stats":{"checkinsCount":83,"usersCount":25,"tipCount":1},"allowMenuUrlEdit":true,"beenHere":{"lastCheckinExpiredAt":0},"specials":{"count":0,"items":[]},"referralId":"v-1483291087","venueChains":[],"hasPerk":false},{"id":"4c2f67ef66e40f4731cfc18b","name":"Little Italy","contact":{},"location":{"address":"Wilhelmsruher Damm 148","lat":52.59649302699466,"lng":13.352282599426477,"labeledLatLngs":[{"label":"display","lat":52.59649302699466,"lng":13.352282599426477}],"postalCode":"13439","cc":"DE","city":"Berlin","state":"Berlin","country":"Germany","formattedAddress":["Wilhelmsruher Damm 148","13439 Berlin","Germany"]},"categories":[{"id":"4bf58dd8d48988d110941735","name":"Italian Restaurant","pluralName":"Italian Restaurants","shortName":"Italian","icon":{"prefix":"https:\/\/ss3.4sqi.net\/img\/categories_v2\/food\/italian_","suffix":".png"},"primary":true}],"verified":false,"stats":{"checkinsCount":142,"usersCount":53,"tipCount":3},"allowMenuUrlEdit":true,"beenHere":{"lastCheckinExpiredAt":0},"specials":{"count":0,"items":[]},"referralId":"v-1483291087","venueChains":[{"id":"556f3e00bd6a007c77380506"}],"hasPerk":false}]}}