{"meta":{"code":200,"requestId":"586939ce4c1f676ce9c9d1c8"},"response":{"venues":[{"id":"4fe022e3e4b04f0f47952e00","name":"Kaffemaschine@Küche","contact":{},"location":{"lat":52.61045914234524,"lng":13.418614498962281,"labeledLatLngs":[{"label":"display","lat":52.61045914234524,"lng":13.418614498962281}],"cc":"DE","city":"Berlin","state":"Berlin","country":"Germany","formattedAddress":["Berlin","Germany"]},"categories":[{"id":"4bf58dd8d48988d16d941735","name":"Café","pluralName":"Cafés","shortName":"Café","icon":{"prefix":"https:\/\/ss3.4sqi.net\/img\/categories_v2\/food\/cafe_","suffix":".png"},"primary":true}],"verified":false,"stats":{"checkinsCount":323,"usersCount":4,"tipCount":0},"allowMenuUrlEdit":true,"beenHere":{"lastCheckinExpiredAt":0},"specials":{"count":0,"items":[]},"referralId":"v-1483291086","venueChains":[],"hasPerk":false},{"id":"56f7e153cd10823718a4b9dc","name":"Conjelada","contact":{},"location":{"lat":52.610607,"lng":13.418675,"labeledLatLngs":[{"label":"display","lat":52.610607,"lng":13.418675}],"cc":"DE","country":"Germany","formattedAddress":["Germany"]},"categories":[{"id":"4bf58dd8d48988d1c9941735","name":"Ice Cream Shop","pluralName":"Ice Cream Shops","shortName":"Ice Cream","icon":{"prefix":"https:\/\/ss3.4sqi.net\/img\/categories_v2\/food\/icecream_","suffix":".png"},"primary":true}],"verified":false,"stats":{"checkinsCount":90,"usersCount":1,"tipCount":0},"allowMenuUrlEdit":true,"beenHere":{"lastCheckinExpiredAt":0},"specials":{"count":0,"items":[]},"referralId":"v-1483291086","venueChains":[],"hasPerk":false},{"id":"56ee4f8dcd10d9e2516b0bc7","name":"spagetti bude","contact":{},"location":{"lat":52.610636,"lng":13.418655,"labeledLatLngs":[{"label":"display","lat":52.610636,"lng":13.418655}],"cc":"DE","country":"Germany","formattedAddress":["Germany"]},"categories":[{"id":"4bf58dd8d48988d110941735","name":"Italian Restaurant","pluralName":"Italian Restaurants","shortName":"Italian","icon":{"prefix":"https:\/\/ss3.4sqi.net\/img\/categories_v2\/food\/italian_","suffix":".png"},"primary":true}],"verified":false,"stats":{"checkinsCount":52,"usersCount":4,"tipCount":0},"allowMenuUrlEdit":true,"beenHere":{"lastCheckinExpiredAt":0},"specials":{"count":0,"items":[]},"referralId":"v-1483291086","venueChains":[],"hasPerk":false},{"id":"56f16b58498e998cd9e7c925","name":"Unkraut","contact":{},"location":{"lat":52.610515,"lng":13.418676,"labeledLatLngs":[{"label":"display","lat":52.610515,"lng":13.418676}],"cc":"DE","country":"Germany","formattedAddress":["Germany"]},"categories":[{"id":"4bf58dd8d48988d1d3941735","name":"Vegetarian \/ Vegan Restaurant","pluralName":"Vegetarian \/ Vegan Restaurants","shortName":"Vegetarian \/ Vegan","icon":{"prefix":"https:\/\/ss3.4sqi.net\/img\/categories_v2\/food\/vegetarian_","suffix":".png"},"primary":true}],"verified":false,"stats":{"checkinsCount":67,"usersCount":2,"tipCount":0},"allowMenuUrlEdit":true,"beenHere":{"lastCheckinExpiredAt":0},"specials":{"count":0,"items":[]},"referralId":"v-1483291086","venueChains":[],"hasPerk":false},{"id":"52f52405498e065ca6b52ca0","name":"Trattoria Pasta degli Angeli","contact":{"phone":"+493091425487","formattedPhone":"+49 30 91425487","facebook":"551807571578497","facebookUsername":"trattoria.pasta.degli.angeli","facebookName":"Trattoria Pasta degli Angeli"},"location":{"address":"Dietzgenstrasse 63","crossStreet":"Eichenstrasse 1","lat":52.58655161924798,"lng":13.401992697195537,"labeledLatLngs":[{"label":"display","lat":52.58655161924798,"lng":13.401992697195537}],"postalCode":"13156","cc":"DE","city":"Berlin","state":"Berlin","country":"Germany","formattedAddress":["Dietzgenstrasse 63 (Eichenstrasse 1)","13156 Berlin","Germany"]},"categories":[{"id":"55a5a1ebe4b013909087cb7f","name":"Trattoria\/Osteria","pluralName":"Trattorias\/Osterias","shortName":"Trattoria\/Osteria","icon":{"prefix":"https:\/\/ss3.4sqi.net\/img\/categories_v2\/food\/italian_","suffix":".png"},"primary":true}],"verified":false,"stats":{"checkinsCount":71,"usersCount":26,"tipCount":3},"allowMenuUrlEdit":true,"beenHere":{"lastCheckinExpiredAt":0},"specials":{"count":0,"items":[]},"referralId":"v-1483291086","venueChains":[],"hasPerk":false},{"id":"56ef8df1cd10365745b9ab7c","name":"Frühstückchen","contact":{},"location":{"address":"Hugenottenplatz","lat":52.61046650210036,"lng":13.4184919907732,"labeledLatLngs":[{"label":"display","lat":52.61046650210036,"lng":13.4184919907732}],"postalCode":"13127","cc":"DE","city":"Berlin","state":"Berlin","country":"Germany","formattedAddress":["Hugenottenplatz","13127 Berlin","Germany"]},"categories":[{"id":"4bf58dd8d48988d143941735","name":"Breakfast Spot","pluralName":"Breakfast Spots","shortName":"Breakfast","icon":{"prefix":"https:\/\/ss3.4sqi.net\/img\/categories_v2\/food\/breakfast_","suffix":".png"},"primary":true}],"verified":false,"stats":{"checkinsCount":85,"usersCount":3,"tipCount":0},"allowMenuUrlEdit":true,"beenHere":{"lastCheckinExpiredAt":0},"specials":{"count":0,"items":[]},"referralId":"v-1483291086","venueChains":[],"hasPerk":false},{"id":"5709214e498ed4f91fe7e6d7","name":"Tafelrunde","contact":{},"location":{"lat":52.610494,"lng":13.418651,"labeledLatLngs":[{"label":"display","lat":52.610494,"lng":13.418651}],"cc":"DE","country":"Germany","formattedAddress":["Germany"]},"categories":[{"id":"4bf58dd8d48988d147941735","name":"Diner","pluralName":"Diners","shortName":"Diner","icon":{"prefix":"https:\/\/ss3.4sqi.net\/img\/categories_v2\/food\/diner_","suffix":".png"},"primary":true}],"verified":false,"stats":{"checkinsCount":44,"usersCount":1,"tipCount":0},"allowMenuUrlEdit":true,"beenHere":{"lastCheckinExpiredAt":0},"specials":{"count":0,"items":[]},"referralId":"v-1483291086","venueChains":[],"hasPerk":false},{"id":"5712566d498e63ffacaf6ae0","name":"burger am hugo","contact":{},"location":{"lat":52.61046589004036,"lng":13.418635737038919,"labeledLatLngs":[{"label":"display","lat":52.61046589004036,"lng":13.418635737038919}],"cc":"DE","country":"Germany","formattedAddress":["Germany"]},"categories":[{"id":"4bf58dd8d48988d16c941735","name":"Burger Joint","pluralName":"Burger Joints","shortName":"Burgers","icon":{"prefix":"https:\/\/ss3.4sqi.net\/img\/categories_v2\/food\/burger_","suffix":".png"},"primary":true}],"verified":false,"stats":{"checkinsCount":52,"usersCount":1,"tipCount":0},"allowMenuUrlEdit":true,"beenHere":{"lastCheckinExpiredAt":0},"specials":{"count":0,"items":[]},"referralId":"v-1483291086","venueChains":[],"hasPerk":false},{"id":"4fbf7bdf754aa7148bc687fe","name":"La Casita","contact":{"phone":"+493094863307","formattedPhone":"+49 30 94863307"},"location":{"address":"Hugenottenplatz 1","lat":52.606487837351004,"lng":13.420014381408691,"labeledLatLngs":[{"label":"display","lat":52.606487837351004,"lng":13.420014381408691}],"postalCode":"13127","cc":"DE","city":"Berlin","state":"Berlin","country":"Germany","formattedAddress":["Hugenottenplatz 1","13127 Berlin","Germany"]},"categories":[{"id":"4bf58dd8d48988d107941735","name":"Argentinian Restaurant","pluralName":"Argentinian Restaurants","shortName":"Argentinian","icon":{"prefix":"https:\/\/ss3.4sqi.net\/img\/categories_v2\/food\/argentinian_","suffix":".png"},"primary":true}],"verified":false,"stats":{"checkinsCount":77,"usersCount":13,"tipCount":2},"allowMenuUrlEdit":true,"beenHere":{"lastCheckinExpiredAt":0},"specials":{"count":0,"items":[]},"referralId":"v-1483291086","venueChains":[],"hasPerk":false},{"id":"57092046498e2c6e78eece02","name":"Huhn und Gans","contact":{},"location":{"lat":52.610511,"lng":13.418613,"labeledLatLngs":[{"label":"display","lat":52.610511,"lng":13.418613}],"cc":"DE","country":"Germany","formattedAddress":["Germany"]},"categories":[{"id":"4bf58dd8d48988d14c941735","name":"Wings Joint","pluralName":"Wings Joints","shortName":"Wings","icon":{"prefix":"https:\/\/ss3.4sqi.net\/img\/categories_v2\/food\/wings_","suffix":".png"},"primary":true}],"verified":false,"stats":{"checkinsCount":65,"usersCount":1,"tipCount":0},"allowMenuUrlEdit":true,"beenHere":{"lastCheckinExpiredAt":0},"specials":{"count":0,"items":[]},"referralId":"v-1483291086","venueChains":[],"hasPerk":false},{"id":"5707f302498e54311512d2fe","name":"subway","contact":{},"location":{"lat":52.610466,"lng":13.418675,"labeledLatLngs":[{"label":"display","lat":52.610466,"lng":13.418675}],"cc":"DE","country":"Germany","formattedAddress":["Germany"]},"categories":[{"id":"4bf58dd8d48988d1c5941735","name":"Sandwich Place","pluralName":"Sandwich Places","shortName":"Sandwiches","icon":{"prefix":"https:\/\/ss3.4sqi.net\/img\/categories_v2\/food\/deli_","suffix":".png"},"primary":true}],"verified":false,"stats":{"checkinsCount":53,"usersCount":1,"tipCount":0},"allowMenuUrlEdit":true,"beenHere":{"lastCheckinExpiredAt":0},"specials":{"count":0,"items":[]},"referralId":"v-1483291086","venueChains":[{"id":"556e0bfaa7c82e6b724f552f"}],"hasPerk":false},{"id":"4c9b9496eaa5a143f851d6e4","name":"Thanh Binh","contact":{},"location":{"lat":52.59575700079766,"lng":13.432728894409669,"labeledLatLngs":[{"label":"display","lat":52.59575700079766,"lng":13.432728894409669}],"cc":"DE","city":"Berlin","state":"Berlin","country":"Germany","formattedAddress":["Berlin","Germany"]},"categories":[{"id":"4bf58dd8d48988d142941735","name":"Asian Restaurant","pluralName":"Asian Restaurants","shortName":"Asian","icon":{"prefix":"https:\/\/ss3.4sqi.net\/img\/categories_v2\/food\/asian_","suffix":".png"},"primary":true}],"verified":false,"stats":{"checkinsCount":79,"usersCount":41,"tipCount":1},"allowMenuUrlEdit":true,"beenHere":{"lastCheckinExpiredAt":0},"specials":{"count":0,"items":[]},"referralId":"v-1483291086","venueChains":[],"hasPerk":false},{"id":"57009dcb498e013e4cd05b1e","name":"pizza aus buchholz","contact":{},"location":{"lat":52.610557,"lng":13.418718,"labeledLatLngs":[{"label":"display","lat":52.610557,"lng":13.418718}],"cc":"DE","country":"Germany","formattedAddress":["Germany"]},"categories":[{"id":"4bf58dd8d48988d1ca941735","name":"Pizza Place","pluralName":"Pizza Places","shortName":"Pizza","icon":{"prefix":"https:\/\/ss3.4sqi.net\/img\/categories_v2\/food\/pizza_","suffix":".png"},"primary":true}],"verified":false,"stats":{"checkinsCount":57,"usersCount":1,"tipCount":0},"allowMenuUrlEdit":true,"beenHere":{"lastCheckinExpiredAt":0},"specials":{"count":0,"items":[]},"referralId":"v-1483291086","venueChains":[],"hasPerk":false},{"id":"56e3ceea498e8570a20214ef","name":"Mexican Hat","contact":{},"location":{"lat":52.610519,"lng":13.418696,"labeledLatLngs":[{"label":"display","lat":52.610519,"lng":13.418696}],"cc":"DE","country":"Germany","formattedAddress":["Germany"]},"categories":[{"id":"4bf58dd8d48988d1c1941735","name":"Mexican Restaurant","pluralName":"Mexican Restaurants","shortName":"Mexican","icon":{"prefix":"https:\/\/ss3.4sqi.net\/img\/categories_v2\/food\/mexican_","suffix":".png"},"primary":true}],"verified":false,"stats":{"checkinsCount":66,"usersCount":1,"tipCount":0},"allowMenuUrlEdit":true,"beenHere":{"lastCheckinExpiredAt":0},"specials":{"count":0,"items":[]},"referralId":"v-1483291086","venueChains":[],"hasPerk":false},{"id":"57091464498e071a47fbb23b","name":"steakhaus hugo","contact":{},"location":{"lat":52.610566,"lng":13.418485,"labeledLatLngs":[{"label":"display","lat":52.610566,"lng":13.418485}],"cc":"DE","country":"Germany","formattedAddress":["Germany"]},"categories":[{"id":"4bf58dd8d48988d1cc941735","name":"Steakhouse","pluralName":"Steakhouses","shortName":"Steakhouse","icon":{"prefix":"https:\/\/ss3.4sqi.net\/img\/categories_v2\/food\/steakhouse_","suffix":".png"},"primary":true}],"verified":false,"stats":{"checkinsCount":27,"usersCount":1,"tipCount":0},"allowMenuUrlEdit":true,"beenHere":{"lastCheckinExpiredAt":0},"specials":{"count":0,"items":[]},"referralId":"v-1483291086","venueChains":[],"hasPerk":false},{"id":"56f658b4498e552f770fd771","name":"Fischers Fritz","contact":{},"location":{"lat":52.610523,"lng":13.418704,"labeledLatLngs":[{"label":"display","lat":52.610523,"lng":13.418704}],"cc":"DE","country":"Germany","formattedAddress":["Germany"]},"categories":[{"id":"4bf58dd8d48988d1ce941735","name":"Seafood Restaurant","pluralName":"Seafood Restaurants","shortName":"Seafood","icon":{"prefix":"https:\/\/ss3.4sqi.net\/img\/categories_v2\/food\/seafood_","suffix":".png"},"primary":true}],"verified":false,"stats":{"checkinsCount":46,"usersCount":1,"tipCount":0},"allowMenuUrlEdit":true,"beenHere":{"lastCheckinExpiredAt":0},"specials":{"count":0,"items":[]},"referralId":"v-1483291086","venueChains":[],"hasPerk":false},{"id":"57091432498ee51867084d8c","name":"chinamann buchholz","contact":{},"location":{"lat":52.610574,"lng":13.418358,"labeledLatLngs":[{"label":"display","lat":52.610574,"lng":13.418358}],"cc":"DE","country":"Germany","formattedAddress":["Germany"]},"categories":[{"id":"4bf58dd8d48988d145941735","name":"Chinese Restaurant","pluralName":"Chinese Restaurants","shortName":"Chinese","icon":{"prefix":"https:\/\/ss3.4sqi.net\/img\/categories_v2\/food\/asian_","suffix":".png"},"primary":true}],"verified":false,"stats":{"checkinsCount":71,"usersCount":1,"tipCount":0},"allowMenuUrlEdit":true,"beenHere":{"lastCheckinExpiredAt":0},"specials":{"count":0,"items":[]},"referralId":"v-1483291086","venueChains":[],"hasPerk":false},{"id":"4b2ce4e2f964a5206fca24e3","name":"Syrtaki","contact":{"phone":"+493047485977","formattedPhone":"+49 30 47485977"},"location":{"address":"Alt-Blankenburg 22-24","lat":52.59281512027992,"lng":13.454749097381653,"labeledLatLngs":[{"label":"display","lat":52.59281512027992,"lng":13.454749097381653}],"postalCode":"13129","cc":"DE","city":"Berlin","state":"Berlin","country":"Germany","formattedAddress":["Alt-Blankenburg 22-24","13129 Berlin","Germany"]},"categories":[{"id":"4bf58dd8d48988d10e941735","name":"Greek Restaurant","pluralName":"Greek Restaurants","shortName":"Greek","icon":{"prefix":"https:\/\/ss3.4sqi.net\/img\/categories_v2\/food\/greek_","suffix":".png"},"primary":true}],"verified":false,"stats":{"checkinsCount":123,"usersCount":69,"tipCount":8},"allowMenuUrlEdit":true,"beenHere":{"lastCheckinExpiredAt":0},"specials":{"count":0,"items":[]},"referralId":"v-1483291086","venueChains":[],"hasPerk":false},{"id":"56e3c0ba498e9b4bbb02d484","name":"Sushi Bude","contact":{},"location":{"lat":52.610413,"lng":13.418568,"labeledLatLngs":[{"label":"display","lat":52.610413,"lng":13.418568}],"cc":"DE","country":"Germany","formattedAddress":["Germany"]},"categories":[{"id":"4bf58dd8d48988d111941735","name":"Japanese Restaurant","pluralName":"Japanese Restaurants","shortName":"Japanese","icon":{"prefix":"https:\/\/ss3.4sqi.net\/img\/categories_v2\/food\/japanese_","suffix":".png"},"primary":true}],"verified":false,"stats":{"checkinsCount":38,"usersCount":1,"tipCount":0},"allowMenuUrlEdit":true,"beenHere":{"lastCheckinExpiredAt":0},"specials":{"count":0,"items":[]},"referralId":"v-1483291086","venueChains":[],"hasPerk":false},{"id":"4c5ea73e6147be9a7d599509","name":"Centenario","contact":{"phone":"+493047036303","formattedPhone":"+49 30 47036303"},"location":{"address":"Dietzgenstr. 119-121","lat":52.593549681258665,"lng":13.40269386535551,"labeledLatLngs":[{"label":"display","lat":52.593549681258665,"lng":13.40269386535551}],"postalCode":"13158","cc":"DE","city":"Berlin","state":"Berlin","country":"Germany","formattedAddress":["Dietzgenstr. 119-121","13158 Berlin","Germany"]},"categories":[{"id":"4bf58dd8d48988d1c1941735","name":"Mexican Restaurant","pluralName":"Mexican Restaurants","shortName":"Mexican","icon":{"prefix":"https:\/\/ss3.4sqi.net\/img\/categories_v2\/food\/mexican_","suffix":".png"},"primary":true}],"verified":false,"stats":{"checkinsCount":137,"usersCount":72,"tipCount":2},"allowMenuUrlEdit":true,"beenHere":{"lastCheckinExpiredAt":0},"specials":{"count":0,"items":[]},"referralId":"v-1483291086","venueChains":[],"hasPerk":false},{"id":"51dbcf98498e788e09cffaf8","name":"Buchholzer Kelterei Breitbarth","contact":{"phone":"+493047471760","formattedPhone":"+49 30 47471760"},"location":{"address":"Triftstr. 2","lat":52.60859065502125,"lng":13.430373072624207,"labeledLatLngs":[{"label":"display","lat":52.60859065502125,"lng":13.430373072624207}],"postalCode":"13129","cc":"DE","city":"Berlin","state":"Berlin","country":"Germany","formattedAddress":["Triftstr. 2","13129 Berlin","Germany"]},"categories":[{"id":"4bf58dd8d48988d1f9941735","name":"Food & Drink Shop","pluralName":"Food & Drink Shops","shortName":"Food & Drink","icon":{"prefix":"https:\/\/ss3.4sqi.net\/img\/categories_v2\/shops\/foodanddrink_","suffix":".png"},"primary":true}],"verified":false,"stats":{"checkinsCount":53,"usersCount":4,"tipCount":0},"url":"http:\/\/www.buchholzer-kelterei.de","allowMenuUrlEdit":true,"beenHere":{"lastCheckinExpiredAt":0},"specials":{"count":0,"items":[]},"referralId":"v-1483291086","venueChains":[],"hasPerk":false}]}}