{"meta":{"code":200,"requestId":"586939d0dd57972f6709e08c"},"response":{"venues":[{"id":"4b939812f964a5208c4934e3","name":"Himmelspagode","contact":{"phone":"+4949330321270","formattedPhone":"+49 4933 0321270"},"location":{"address":"Oranienburger Straße 3","lat":52.67519814248213,"lng":13.281269073486328,"labeledLatLngs":[{"label":"display","lat":52.67519814248213,"lng":13.281269073486328}],"postalCode":"16540","cc":"DE","city":"Hohen Neuendorf","state":"Brandenburg","country":"Germany","formattedAddress":["Oranienburger Straße 3","16540 Hohen Neuendorf","Germany"]},"categories":[{"id":"4bf58dd8d48988d145941735","name":"Chinese Restaurant","pluralName":"Chinese Restaurants","shortName":"Chinese","icon":{"prefix":"https:\/\/ss3.4sqi.net\/img\/categories_v2\/food\/asian_","suffix":".png"},"primary":true}],"verified":false,"stats":{"checkinsCount":682,"usersCount":509,"tipCount":11},"allowMenuUrlEdit":true,"beenHere":{"lastCheckinExpiredAt":0},"specials":{"count":0,"items":[]},"referralId":"v-1483291088","venueChains":[],"hasPerk":false},{"id":"565acbc3498e831636063981","name":"Tomasa Landhaus","contact":{},"location":{"lat":52.60053505464021,"lng":13.302940536706606,"labeledLatLngs":[{"label":"display","lat":52.60053505464021,"lng":13.302940536706606}],"cc":"DE","city":"Berlin","state":"Berlin","country":"Germany","formattedAddress":["Berlin","Germany"]},"categories":[{"id":"4bf58dd8d48988d1c4941735","name":"Restaurant","pluralName":"Restaurants","shortName":"Restaurant","icon":{"prefix":"https:\/\/ss3.4sqi.net\/img\/categories_v2\/food\/default_","suffix":".png"},"primary":true}],"verified":false,"stats":{"checkinsCount":22,"usersCount":13,"tipCount":0},"allowMenuUrlEdit":true,"beenHere":{"lastCheckinExpiredAt":0},"specials":{"count":0,"items":[]},"referralId":"v-1483291088","venueChains":[],"hasPerk":false},{"id":"566c72c1498eb34bc2340af8","name":"Micha's Grillport","contact":{},"location":{"lat":52.643686,"lng":13.285246,"labeledLatLngs":[{"label":"display","lat":52.643686,"lng":13.285246}],"cc":"DE","country":"Germany","formattedAddress":["Germany"]},"categories":[{"id":"4bf58dd8d48988d16c941735","name":"Burger Joint","pluralName":"Burger Joints","shortName":"Burgers","icon":{"prefix":"https:\/\/ss3.4sqi.net\/img\/categories_v2\/food\/burger_","suffix":".png"},"primary":true}],"verified":false,"stats":{"checkinsCount":131,"usersCount":1,"tipCount":0},"allowMenuUrlEdit":true,"beenHere":{"lastCheckinExpiredAt":0},"specials":{"count":0,"items":[]},"referralId":"v-1483291088","venueChains":[],"hasPerk":false},{"id":"4d76378d004b3704f49bff93","name":"Laventes Grill","contact":{},"location":{"address":"Berliner Straße 95","crossStreet":"Grußdorfstraße","lat":52.588831842432256,"lng":13.284436585758595,"labeledLatLngs":[{"label":"display","lat":52.588831842432256,"lng":13.284436585758595}],"postalCode":"13507","cc":"DE","city":"Berlin","state":"Berlin","country":"Germany","formattedAddress":["Berliner Straße 95 (Grußdorfstraße)","13507 Berlin","Germany"]},"categories":[{"id":"4bf58dd8d48988d1c4941735","name":"Restaurant","pluralName":"Restaurants","shortName":"Restaurant","icon":{"prefix":"https:\/\/ss3.4sqi.net\/img\/categories_v2\/food\/default_","suffix":".png"},"primary":true}],"verified":false,"stats":{"checkinsCount":332,"usersCount":19,"tipCount":1},"allowMenuUrlEdit":true,"beenHere":{"lastCheckinExpiredAt":0},"specials":{"count":0,"items":[]},"referralId":"v-1483291088","venueChains":[],"hasPerk":false},{"id":"4d7100287760a1cd77b4b7a9","name":"Eiscafé Busse","contact":{},"location":{"address":"Berliner Str. 34","lat":52.67003267343294,"lng":13.28073263168335,"labeledLatLngs":[{"label":"display","lat":52.67003267343294,"lng":13.28073263168335}],"postalCode":"16540","cc":"DE","city":"Hohen Neuendorf","state":"Brandenburg","country":"Germany","formattedAddress":["Berliner Str. 34","16540 Hohen Neuendorf","Germany"]},"categories":[{"id":"4bf58dd8d48988d16d941735","name":"Café","pluralName":"Cafés","shortName":"Café","icon":{"prefix":"https:\/\/ss3.4sqi.net\/img\/categories_v2\/food\/cafe_","suffix":".png"},"primary":true}],"verified":false,"stats":{"checkinsCount":78,"usersCount":18,"tipCount":0},"allowMenuUrlEdit":true,"beenHere":{"lastCheckinExpiredAt":0},"specials":{"count":0,"items":[]},"referralId":"v-1483291088","venueChains":[],"hasPerk":false},{"id":"4f758049e4b02125ab18a464","name":"Tafelfürst","contact":{},"location":{"address":"Fürstendamm","lat":52.6327291040547,"lng":13.292297864278366,"labeledLatLngs":[{"label":"display","lat":52.6327291040547,"lng":13.292297864278366}],"postalCode":"13465","cc":"DE","city":"Berlin","state":"Berlin","country":"Germany","formattedAddress":["Fürstendamm","13465 Berlin","Germany"]},"categories":[{"id":"4bf58dd8d48988d146941735","name":"Deli \/ Bodega","pluralName":"Delis \/ Bodegas","shortName":"Deli \/ Bodega","icon":{"prefix":"https:\/\/ss3.4sqi.net\/img\/categories_v2\/food\/deli_","suffix":".png"},"primary":true}],"verified":false,"stats":{"checkinsCount":94,"usersCount":18,"tipCount":2},"allowMenuUrlEdit":true,"beenHere":{"lastCheckinExpiredAt":0},"specials":{"count":0,"items":[]},"referralId":"v-1483291088","venueChains":[],"hasPerk":false},{"id":"4bf829d48d30d13a18420018","name":"Arno's Biergarten","contact":{},"location":{"lat":52.61955595489253,"lng":13.30467274910586,"labeledLatLngs":[{"label":"display","lat":52.61955595489253,"lng":13.30467274910586}],"cc":"DE","country":"Germany","formattedAddress":["Germany"]},"categories":[{"id":"4bf58dd8d48988d10d941735","name":"German Restaurant","pluralName":"German Restaurants","shortName":"German","icon":{"prefix":"https:\/\/ss3.4sqi.net\/img\/categories_v2\/food\/german_","suffix":".png"},"primary":true}],"verified":false,"stats":{"checkinsCount":145,"usersCount":16,"tipCount":0},"allowMenuUrlEdit":true,"beenHere":{"lastCheckinExpiredAt":0},"specials":{"count":0,"items":[]},"referralId":"v-1483291088","venueChains":[],"hasPerk":false},{"id":"4c4c749546240f47bf97d2f4","name":"China-Restaurant Schatzkammer","contact":{"phone":"+49304044397","formattedPhone":"+49 30 4044397"},"location":{"address":"Heinsestr. 42-44","lat":52.61809075396872,"lng":13.306320392387486,"labeledLatLngs":[{"label":"display","lat":52.61809075396872,"lng":13.306320392387486}],"postalCode":"13467","cc":"DE","city":"Berlin","state":"Berlin","country":"Germany","formattedAddress":["Heinsestr. 42-44","13467 Berlin","Germany"]},"categories":[{"id":"4bf58dd8d48988d145941735","name":"Chinese Restaurant","pluralName":"Chinese Restaurants","shortName":"Chinese","icon":{"prefix":"https:\/\/ss3.4sqi.net\/img\/categories_v2\/food\/asian_","suffix":".png"},"primary":true}],"verified":false,"stats":{"checkinsCount":92,"usersCount":37,"tipCount":1},"allowMenuUrlEdit":true,"beenHere":{"lastCheckinExpiredAt":0},"specials":{"count":0,"items":[]},"referralId":"v-1483291088","venueChains":[],"hasPerk":false},{"id":"4cf6ca0e55e13704babaceb6","name":"Raststätte Stolper Heide Ost","contact":{"phone":"+493302493844","formattedPhone":"+49 3302 493844"},"location":{"address":"A 111","lat":52.64087461969609,"lng":13.243701373791543,"labeledLatLngs":[{"label":"display","lat":52.64087461969609,"lng":13.243701373791543}],"postalCode":"16540","cc":"DE","city":"Stolpe","state":"Brandenburg","country":"Germany","formattedAddress":["A 111","16540 Stolpe","Germany"]},"categories":[{"id":"4d954b16a243a5684b65b473","name":"Rest Area","pluralName":"Rest Areas","shortName":"Rest Areas","icon":{"prefix":"https:\/\/ss3.4sqi.net\/img\/categories_v2\/travel\/restarea_","suffix":".png"},"primary":true}],"verified":false,"stats":{"checkinsCount":351,"usersCount":205,"tipCount":0},"url":"https:\/\/stau.info\/rastplatz\/stolper-heide-ost","allowMenuUrlEdit":true,"beenHere":{"lastCheckinExpiredAt":0},"specials":{"count":0,"items":[]},"referralId":"v-1483291088","venueChains":[],"hasPerk":false},{"id":"4bf058ab8bf5c9287c0797fe","name":"Krumme Linde","contact":{},"location":{"lat":52.660161,"lng":13.259173,"labeledLatLngs":[{"label":"display","lat":52.660161,"lng":13.259173}],"cc":"DE","city":"Hohen Neuendorf","state":"Brandenburg","country":"Germany","formattedAddress":["Hohen Neuendorf","Germany"]},"categories":[{"id":"4bf58dd8d48988d10d941735","name":"German Restaurant","pluralName":"German Restaurants","shortName":"German","icon":{"prefix":"https:\/\/ss3.4sqi.net\/img\/categories_v2\/food\/german_","suffix":".png"},"primary":true}],"verified":false,"stats":{"checkinsCount":83,"usersCount":64,"tipCount":7},"allowMenuUrlEdit":true,"beenHere":{"lastCheckinExpiredAt":0},"specials":{"count":0,"items":[]},"referralId":"v-1483291088","venueChains":[],"hasPerk":false},{"id":"4c6bffd523c1a1cd074618cf","name":"McDonald's","contact":{"twitter":"mcdonaldsdenews","facebook":"296270482587","facebookUsername":"mcd","facebookName":"McDonald's"},"location":{"address":"Nohlstr. 31-32","lat":52.63552417455955,"lng":13.307769298553467,"labeledLatLngs":[{"label":"display","lat":52.63552417455955,"lng":13.307769298553467}],"postalCode":"16548","cc":"DE","city":"Glienicke","state":"Brandenburg","country":"Germany","formattedAddress":["Nohlstr. 31-32","16548 Glienicke","Germany"]},"categories":[{"id":"4bf58dd8d48988d16e941735","name":"Fast Food Restaurant","pluralName":"Fast Food Restaurants","shortName":"Fast Food","icon":{"prefix":"https:\/\/ss3.4sqi.net\/img\/categories_v2\/food\/fastfood_","suffix":".png"},"primary":true}],"verified":true,"stats":{"checkinsCount":281,"usersCount":97,"tipCount":1},"url":"http:\/\/www.mcdonalds.de","allowMenuUrlEdit":true,"beenHere":{"lastCheckinExpiredAt":0},"specials":{"count":0,"items":[]},"storeId":"1106","referralId":"v-1483291088","venueChains":[{"id":"556f7a12bd6a75a9903bddb2"}],"hasPerk":false},{"id":"4d5d105a3f92236ab26ce51d","name":"bianco nero","contact":{"phone":"+493043746800","formattedPhone":"+49 30 43746800"},"location":{"address":"Gorkistr. 11-21","crossStreet":"im Tegel Center","lat":52.590184,"lng":13.287066,"labeledLatLngs":[{"label":"display","lat":52.590184,"lng":13.287066}],"postalCode":"13507","cc":"DE","city":"Berlin","state":"Berlin","country":"Germany","formattedAddress":["Gorkistr. 11-21 (im Tegel Center)","13507 Berlin","Germany"]},"categories":[{"id":"4bf58dd8d48988d16d941735","name":"Café","pluralName":"Cafés","shortName":"Café","icon":{"prefix":"https:\/\/ss3.4sqi.net\/img\/categories_v2\/food\/cafe_","suffix":".png"},"primary":true}],"verified":false,"stats":{"checkinsCount":288,"usersCount":33,"tipCount":2},"url":"http:\/\/www.feihl-berlin.de","allowMenuUrlEdit":true,"beenHere":{"lastCheckinExpiredAt":0},"specials":{"count":0,"items":[]},"referralId":"v-1483291088","venueChains":[],"hasPerk":false},{"id":"4de78ea9c65b4e07db027784","name":"Morgenrot","contact":{},"location":{"address":"Scharfschwerdtstraße 1","lat":52.6652832628308,"lng":13.286610910779167,"labeledLatLngs":[{"label":"display","lat":52.6652832628308,"lng":13.286610910779167}],"postalCode":"16540","cc":"DE","city":"Hohen Neuendorf","state":"Brandenburg","country":"Germany","formattedAddress":["Scharfschwerdtstraße 1","16540 Hohen Neuendorf","Germany"]},"categories":[{"id":"4bf58dd8d48988d16d941735","name":"Café","pluralName":"Cafés","shortName":"Café","icon":{"prefix":"https:\/\/ss3.4sqi.net\/img\/categories_v2\/food\/cafe_","suffix":".png"},"primary":true}],"verified":false,"stats":{"checkinsCount":17,"usersCount":10,"tipCount":0},"allowMenuUrlEdit":true,"beenHere":{"lastCheckinExpiredAt":0},"specials":{"count":0,"items":[]},"referralId":"v-1483291088","venueChains":[],"hasPerk":false},{"id":"4b5b2884f964a52057e728e3","name":"Adriatic","contact":{},"location":{"address":"Edelhofdamm","lat":52.63379859042674,"lng":13.293950451938024,"labeledLatLngs":[{"label":"display","lat":52.63379859042674,"lng":13.293950451938024}],"cc":"DE","city":"Berlin","state":"Berlin","country":"Germany","formattedAddress":["Edelhofdamm","Berlin","Germany"]},"categories":[{"id":"4bf58dd8d48988d1c4941735","name":"Restaurant","pluralName":"Restaurants","shortName":"Restaurant","icon":{"prefix":"https:\/\/ss3.4sqi.net\/img\/categories_v2\/food\/default_","suffix":".png"},"primary":true}],"verified":false,"stats":{"checkinsCount":257,"usersCount":33,"tipCount":2},"allowMenuUrlEdit":true,"beenHere":{"lastCheckinExpiredAt":0},"specials":{"count":0,"items":[]},"referralId":"v-1483291088","venueChains":[],"hasPerk":false},{"id":"4bd88260f645c9b61a1da8e0","name":"Bocadito","contact":{},"location":{"lat":52.62874042171238,"lng":13.277368396002187,"labeledLatLngs":[{"label":"display","lat":52.62874042171238,"lng":13.277368396002187}],"cc":"DE","country":"Germany","formattedAddress":["Germany"]},"categories":[{"id":"4bf58dd8d48988d1c1941735","name":"Mexican Restaurant","pluralName":"Mexican Restaurants","shortName":"Mexican","icon":{"prefix":"https:\/\/ss3.4sqi.net\/img\/categories_v2\/food\/mexican_","suffix":".png"},"primary":true}],"verified":false,"stats":{"checkinsCount":106,"usersCount":47,"tipCount":4},"allowMenuUrlEdit":true,"beenHere":{"lastCheckinExpiredAt":0},"specials":{"count":0,"items":[]},"referralId":"v-1483291088","venueChains":[],"hasPerk":false},{"id":"4cb1a802eb65b1f7624c76cd","name":"Hax'nhaus","contact":{"phone":"+49304339034","formattedPhone":"+49 30 4339034"},"location":{"address":"Alt-Tegel 2","lat":52.58976821093037,"lng":13.282629863061599,"labeledLatLngs":[{"label":"display","lat":52.58976821093037,"lng":13.282629863061599}],"postalCode":"13507","cc":"DE","city":"Berlin","state":"Berlin","country":"Germany","formattedAddress":["Alt-Tegel 2","13507 Berlin","Germany"]},"categories":[{"id":"4bf58dd8d48988d10d941735","name":"German Restaurant","pluralName":"German Restaurants","shortName":"German","icon":{"prefix":"https:\/\/ss3.4sqi.net\/img\/categories_v2\/food\/german_","suffix":".png"},"primary":true}],"verified":false,"stats":{"checkinsCount":250,"usersCount":108,"tipCount":4},"url":"http:\/\/www.haxnhaus-tegel.de","allowMenuUrlEdit":true,"beenHere":{"lastCheckinExpiredAt":0},"specials":{"count":0,"items":[]},"referralId":"v-1483291088","venueChains":[],"hasPerk":false},{"id":"4d948c1fcf46224b37f79694","name":"Konditorei Röttgen","contact":{"phone":"+49304342178","formattedPhone":"+49 30 4342178"},"location":{"address":"Berliner Str. 3","lat":52.58932650638991,"lng":13.283876824507262,"labeledLatLngs":[{"label":"display","lat":52.58932650638991,"lng":13.283876824507262}],"postalCode":"13507","cc":"DE","city":"Berlin","state":"Berlin","country":"Germany","formattedAddress":["Berliner Str. 3","13507 Berlin","Germany"]},"categories":[{"id":"4bf58dd8d48988d16d941735","name":"Café","pluralName":"Cafés","shortName":"Café","icon":{"prefix":"https:\/\/ss3.4sqi.net\/img\/categories_v2\/food\/cafe_","suffix":".png"},"primary":true}],"verified":false,"stats":{"checkinsCount":43,"usersCount":33,"tipCount":0},"url":"http:\/\/konditorei-roettgen.de","allowMenuUrlEdit":true,"beenHere":{"lastCheckinExpiredAt":0},"specials":{"count":0,"items":[]},"referralId":"v-1483291088","venueChains":[],"hasPerk":false},{"id":"4d74fa6594985481f4e7307e","name":"China Garden","contact":{"phone":"+49493023627617","formattedPhone":"+49 4930 23627617"},"location":{"address":"Hermsdorfer Damm 134","crossStreet":"Martin-Luther-Straße","lat":52.614747,"lng":13.299729,"labeledLatLngs":[{"label":"display","lat":52.614747,"lng":13.299729}],"postalCode":"13467","cc":"DE","city":"Berlin","state":"Berlin","country":"Germany","formattedAddress":["Hermsdorfer Damm 134 (Martin-Luther-Straße)","13467 Berlin","Germany"]},"categories":[{"id":"4bf58dd8d48988d145941735","name":"Chinese Restaurant","pluralName":"Chinese Restaurants","shortName":"Chinese","icon":{"prefix":"https:\/\/ss3.4sqi.net\/img\/categories_v2\/food\/asian_","suffix":".png"},"primary":true}],"verified":false,"stats":{"checkinsCount":135,"usersCount":31,"tipCount":0},"allowMenuUrlEdit":true,"beenHere":{"lastCheckinExpiredAt":0},"specials":{"count":0,"items":[]},"referralId":"v-1483291088","venueChains":[],"hasPerk":false},{"id":"4b76dea6f964a520ba652ee3","name":"Cafe Zeltinger","contact":{},"location":{"address":"Frohnauer Brücke","lat":52.633403,"lng":13.289911,"labeledLatLngs":[{"label":"display","lat":52.633403,"lng":13.289911}],"postalCode":"13465","cc":"DE","city":"Berlin","state":"Berlin","country":"Germany","formattedAddress":["Frohnauer Brücke","13465 Berlin","Germany"]},"categories":[{"id":"4bf58dd8d48988d16d941735","name":"Café","pluralName":"Cafés","shortName":"Café","icon":{"prefix":"https:\/\/ss3.4sqi.net\/img\/categories_v2\/food\/cafe_","suffix":".png"},"primary":true}],"verified":false,"stats":{"checkinsCount":69,"usersCount":31,"tipCount":3},"allowMenuUrlEdit":true,"beenHere":{"lastCheckinExpiredAt":0},"specials":{"count":0,"items":[]},"referralId":"v-1483291088","venueChains":[],"hasPerk":false},{"id":"4b521301f964a520ca6527e3","name":"Restaurant Weil","contact":{},"location":{"address":"Alt-Tegel 6","lat":52.58945308524193,"lng":13.281848430633545,"labeledLatLngs":[{"label":"display","lat":52.58945308524193,"lng":13.281848430633545}],"postalCode":"13507","cc":"DE","city":"Berlin","state":"Berlin","country":"Germany","formattedAddress":["Alt-Tegel 6","13507 Berlin","Germany"]},"categories":[{"id":"4bf58dd8d48988d1c4941735","name":"Restaurant","pluralName":"Restaurants","shortName":"Restaurant","icon":{"prefix":"https:\/\/ss3.4sqi.net\/img\/categories_v2\/food\/default_","suffix":".png"},"primary":true}],"verified":false,"stats":{"checkinsCount":773,"usersCount":98,"tipCount":4},"allowMenuUrlEdit":true,"beenHere":{"lastCheckinExpiredAt":0},"specials":{"count":0,"items":[]},"referralId":"v-1483291088","venueChains":[],"hasPerk":false},{"id":"4dbd864aa86e0e98a1fc93ca","name":"Waldhütte am See","contact":{"phone":"+4949304334888","formattedPhone":"+49 4930 4334888","facebook":"325296700881956","facebookName":"Waldhütte am See - Berlin Tegel"},"location":{"address":"Schwarzer Weg 5","lat":52.59373681838783,"lng":13.264020799696405,"labeledLatLngs":[{"label":"display","lat":52.59373681838783,"lng":13.264020799696405}],"postalCode":"13505","cc":"DE","city":"Berlin","state":"Berlin","country":"Germany","formattedAddress":["Schwarzer Weg 5","13505 Berlin","Germany"]},"categories":[{"id":"4bf58dd8d48988d10d941735","name":"German Restaurant","pluralName":"German Restaurants","shortName":"German","icon":{"prefix":"https:\/\/ss3.4sqi.net\/img\/categories_v2\/food\/german_","suffix":".png"},"primary":true}],"verified":false,"stats":{"checkinsCount":92,"usersCount":65,"tipCount":3},"allowMenuUrlEdit":true,"beenHere":{"lastCheckinExpiredAt":0},"specials":{"count":0,"items":[]},"referralId":"v-1483291088","venueChains":[],"hasPerk":false},{"id":"4d7ce55a34f7721ed6a0cd25","name":"Kaffeehaus Zeltinger","contact":{"phone":"+49304011017","formattedPhone":"+49 30 4011017"},"location":{"address":"Zeltinger Platz 1a","lat":52.63334577394046,"lng":13.289981135981614,"labeledLatLngs":[{"label":"display","lat":52.63334577394046,"lng":13.289981135981614}],"postalCode":"13465","cc":"DE","city":"Berlin","state":"Berlin","country":"Germany","formattedAddress":["Zeltinger Platz 1a","13465 Berlin","Germany"]},"categories":[{"id":"4bf58dd8d48988d16d941735","name":"Café","pluralName":"Cafés","shortName":"Café","icon":{"prefix":"https:\/\/ss3.4sqi.net\/img\/categories_v2\/food\/cafe_","suffix":".png"},"primary":true}],"verified":false,"stats":{"checkinsCount":152,"usersCount":62,"tipCount":2},"allowMenuUrlEdit":true,"beenHere":{"lastCheckinExpiredAt":0},"specials":{"count":0,"items":[]},"referralId":"v-1483291088","venueChains":[],"hasPerk":false},{"id":"51c3234e498e83bd2f7d4d84","name":"Il Castello del Gelato","contact":{},"location":{"address":"Gorkistraße","lat":52.590018637890886,"lng":13.286418098308143,"labeledLatLngs":[{"label":"display","lat":52.590018637890886,"lng":13.286418098308143}],"cc":"DE","city":"Berlin","state":"Berlin","country":"Germany","formattedAddress":["Gorkistraße","Berlin","Germany"]},"categories":[{"id":"4bf58dd8d48988d1c9941735","name":"Ice Cream Shop","pluralName":"Ice Cream Shops","shortName":"Ice Cream","icon":{"prefix":"https:\/\/ss3.4sqi.net\/img\/categories_v2\/food\/icecream_","suffix":".png"},"primary":true}],"verified":false,"stats":{"checkinsCount":53,"usersCount":8,"tipCount":2},"allowMenuUrlEdit":true,"beenHere":{"lastCheckinExpiredAt":0},"specials":{"count":0,"items":[]},"referralId":"v-1483291088","venueChains":[],"hasPerk":false},{"id":"4d2218a06e8c3704a6a208a0","name":"Villa Felice","contact":{},"location":{"address":"Schulzendorfer Str. 3","lat":52.61398420398148,"lng":13.24372636846166,"labeledLatLngs":[{"label":"display","lat":52.61398420398148,"lng":13.24372636846166}],"postalCode":"13503","cc":"DE","city":"Berlin","state":"Berlin","country":"Germany","formattedAddress":["Schulzendorfer Str. 3","13503 Berlin","Germany"]},"categories":[{"id":"4bf58dd8d48988d110941735","name":"Italian Restaurant","pluralName":"Italian Restaurants","shortName":"Italian","icon":{"prefix":"https:\/\/ss3.4sqi.net\/img\/categories_v2\/food\/italian_","suffix":".png"},"primary":true}],"verified":false,"stats":{"checkinsCount":134,"usersCount":45,"tipCount":1},"allowMenuUrlEdit":true,"beenHere":{"lastCheckinExpiredAt":0},"specials":{"count":0,"items":[]},"referralId":"v-1483291088","venueChains":[],"hasPerk":false},{"id":"54958ee0498ee0902b4f5d7f","name":"Cafe Wetterstein","contact":{"phone":"+493042099403","formattedPhone":"+49 30 42099403","facebook":"538861406258888","facebookName":"Café Wetterstein"},"location":{"address":"Alt-Tegel 18","lat":52.588935,"lng":13.280048,"labeledLatLngs":[{"label":"display","lat":52.588935,"lng":13.280048}],"postalCode":"13507","cc":"DE","city":"Berlin","state":"Berlin","country":"Germany","formattedAddress":["Alt-Tegel 18","13507 Berlin","Germany"]},"categories":[{"id":"4bf58dd8d48988d16d941735","name":"Café","pluralName":"Cafés","shortName":"Café","icon":{"prefix":"https:\/\/ss3.4sqi.net\/img\/categories_v2\/food\/cafe_","suffix":".png"},"primary":true}],"verified":false,"stats":{"checkinsCount":47,"usersCount":38,"tipCount":2},"allowMenuUrlEdit":true,"beenHere":{"lastCheckinExpiredAt":0},"specials":{"count":0,"items":[]},"referralId":"v-1483291088","venueChains":[],"hasPerk":false}]}}