{"meta":{"code":200,"requestId":"586939cc1ed21945649170e7"},"response":{"venues":[{"id":"4b977319f964a520240435e3","name":"McDonald's","contact":{"twitter":"mcdonaldsdenews","facebook":"296270482587","facebookUsername":"mcd","facebookName":"McDonald's"},"location":{"address":"Zeppelinstr. 2","lat":52.59574902539118,"lng":13.599003553390503,"labeledLatLngs":[{"label":"display","lat":52.59574902539118,"lng":13.599003553390503}],"postalCode":"16356","cc":"DE","city":"Ahrensfelde-Ot Blumberg","state":"Brandenburg","country":"Germany","formattedAddress":["Zeppelinstr. 2","16356 Ahrensfelde-Ot Blumberg","Germany"]},"categories":[{"id":"4bf58dd8d48988d16e941735","name":"Fast Food Restaurant","pluralName":"Fast Food Restaurants","shortName":"Fast Food","icon":{"prefix":"https:\/\/ss3.4sqi.net\/img\/categories_v2\/food\/fastfood_","suffix":".png"},"primary":true}],"verified":true,"stats":{"checkinsCount":357,"usersCount":151,"tipCount":1},"url":"http:\/\/www.mcdonalds.de","allowMenuUrlEdit":true,"beenHere":{"lastCheckinExpiredAt":0},"specials":{"count":0,"items":[]},"storeId":"625","referralId":"v-1483291084","venueChains":[{"id":"556f7a12bd6a75a9903bddb2"}],"hasPerk":false},{"id":"4f0c9186e4b006589a193e1b","name":"Casa Vicina","contact":{},"location":{"address":"Breitscheidstraße 51","lat":52.675347881281276,"lng":13.585832410958089,"labeledLatLngs":[{"label":"display","lat":52.675347881281276,"lng":13.585832410958089}],"postalCode":"16321","cc":"DE","city":"Bernau bei Berlin","state":"Brandenburg","country":"Germany","formattedAddress":["Breitscheidstraße 51","16321 Bernau bei Berlin","Germany"]},"categories":[{"id":"4bf58dd8d48988d110941735","name":"Italian Restaurant","pluralName":"Italian Restaurants","shortName":"Italian","icon":{"prefix":"https:\/\/ss3.4sqi.net\/img\/categories_v2\/food\/italian_","suffix":".png"},"primary":true}],"verified":false,"stats":{"checkinsCount":111,"usersCount":29,"tipCount":1},"allowMenuUrlEdit":true,"beenHere":{"lastCheckinExpiredAt":0},"specials":{"count":0,"items":[]},"referralId":"v-1483291084","venueChains":[],"hasPerk":false},{"id":"50f2a2c9e4b0f740442da172","name":"Zum fleißigen Lieschen","contact":{"phone":"+4933394445","formattedPhone":"+49 33394 445"},"location":{"address":"Kietz 2a","lat":52.60608733039853,"lng":13.618738394074478,"labeledLatLngs":[{"label":"display","lat":52.60608733039853,"lng":13.618738394074478}],"postalCode":"16356","cc":"DE","city":"Blumberg","state":"Brandenburg","country":"Germany","formattedAddress":["Kietz 2a","16356 Blumberg","Germany"]},"categories":[{"id":"4bf58dd8d48988d155941735","name":"Gastropub","pluralName":"Gastropubs","shortName":"Gastropub","icon":{"prefix":"https:\/\/ss3.4sqi.net\/img\/categories_v2\/food\/gastropub_","suffix":".png"},"primary":true}],"verified":false,"stats":{"checkinsCount":5,"usersCount":5,"tipCount":0},"url":"http:\/\/www.hotel-aragon.de\/index-gasthaus.php","allowMenuUrlEdit":true,"beenHere":{"lastCheckinExpiredAt":0},"specials":{"count":0,"items":[]},"referralId":"v-1483291084","venueChains":[],"hasPerk":false}]}}