{"meta":{"code":200,"requestId":"5864047c9fb6b73c3b7f0e6c"},"response":{"venues":[{"id":"4ca85d4ef47ea1434a587421","name":"Markthalle Neun","contact":{"phone":"+493061073473","formattedPhone":"+49 30 61073473","twitter":"markthalle9","facebook":"156083111089062","facebookUsername":"MarkthalleNeun","facebookName":"Markthalle Neun"},"location":{"address":"Eisenbahnstr. 42 \/ 43","lat":52.50202476100858,"lng":13.431494235992432,"labeledLatLngs":[{"label":"display","lat":52.50202476100858,"lng":13.431494235992432}],"distance":2690,"postalCode":"10997","cc":"DE","city":"Berlin","state":"Berlin","country":"Germany","formattedAddress":["Eisenbahnstr. 42 \/ 43","10997 Berlin","Germany"]},"categories":[{"id":"4bf58dd8d48988d120951735","name":"Food Court","pluralName":"Food Courts","shortName":"Food Court","icon":{"prefix":"https:\/\/ss3.4sqi.net\/img\/categories_v2\/shops\/food_foodcourt_","suffix":".png"},"primary":true}],"verified":false,"stats":{"checkinsCount":15148,"usersCount":6920,"tipCount":340},"url":"http:\/\/www.markthalleneun.de","allowMenuUrlEdit":true,"beenHere":{"lastCheckinExpiredAt":0},"specials":{"count":0,"items":[]},"referralId":"v-1482949756","venueChains":[],"hasPerk":false},{"id":"5413399c498e8fde9fde0365","name":"Kaschk","contact":{"facebook":"821297414567940","facebookUsername":"kaschk","facebookName":"KASCHK"},"location":{"address":"Linienstr. 40","lat":52.52835639708895,"lng":13.409950733184814,"labeledLatLngs":[{"label":"display","lat":52.52835639708895,"lng":13.409950733184814}],"distance":989,"postalCode":"10119","cc":"DE","city":"Berlin","state":"Berlin","country":"Germany","formattedAddress":["Linienstr. 40","10119 Berlin","Germany"]},"categories":[{"id":"56aa371ce4b08b9a8d57356c","name":"Beer Bar","pluralName":"Beer Bars","shortName":"Beer Bar","icon":{"prefix":"https:\/\/ss3.4sqi.net\/img\/categories_v2\/nightlife\/pub_","suffix":".png"},"primary":true}],"verified":true,"stats":{"checkinsCount":7995,"usersCount":2511,"tipCount":189},"url":"http:\/\/kaschk.de","allowMenuUrlEdit":true,"beenHere":{"lastCheckinExpiredAt":0},"specials":{"count":0,"items":[]},"venuePage":{"id":"98151871"},"storeId":"","referralId":"v-1482949756","venueChains":[],"hasPerk":false},{"id":"4adcf782f964a520016321e3","name":"St. Oberholz","contact":{"phone":"+493021461311","formattedPhone":"+49 30 21461311","twitter":"oberholz","facebook":"29602913894","facebookUsername":"sanktoberholz","facebookName":"Sankt Oberholz"},"location":{"address":"Rosenthaler Str. 72","crossStreet":"Torstr.","lat":52.529550348488,"lng":13.40174065247993,"labeledLatLngs":[{"label":"display","lat":52.529550348488,"lng":13.40174065247993}],"distance":1084,"postalCode":"10119","cc":"DE","city":"Berlin","state":"Berlin","country":"Germany","formattedAddress":["Rosenthaler Str. 72 (Torstr.)","10119 Berlin","Germany"]},"categories":[{"id":"4bf58dd8d48988d16d941735","name":"Café","pluralName":"Cafés","shortName":"Café","icon":{"prefix":"https:\/\/ss3.4sqi.net\/img\/categories_v2\/food\/cafe_","suffix":".png"},"primary":true}],"verified":false,"stats":{"checkinsCount":31209,"usersCount":9870,"tipCount":434},"url":"http:\/\/www.sanktoberholz.de","allowMenuUrlEdit":true,"beenHere":{"lastCheckinExpiredAt":0},"specials":{"count":0,"items":[]},"referralId":"v-1482949756","venueChains":[],"hasPerk":false},{"id":"4af5697df964a52014f921e3","name":"Mustafas Gemüse Kebap","contact":{"facebook":"99281434765","facebookUsername":"mustafasgemuesekebap","facebookName":"The Real Mustafa's Gemüse Kebap"},"location":{"address":"Mehringdamm 32-34","lat":52.49381779259905,"lng":13.388020992279053,"labeledLatLngs":[{"label":"display","lat":52.49381779259905,"lng":13.388020992279053}],"distance":3132,"postalCode":"10961","cc":"DE","city":"Berlin","state":"Berlin","country":"Germany","formattedAddress":["Mehringdamm 32-34","10961 Berlin","Germany"]},"categories":[{"id":"5283c7b4e4b094cb91ec88d8","name":"Doner Restaurant","pluralName":"Doner Restaurants","shortName":"Doner","icon":{"prefix":"https:\/\/ss3.4sqi.net\/img\/categories_v2\/food\/turkish_","suffix":".png"},"primary":true}],"verified":false,"stats":{"checkinsCount":9055,"usersCount":6467,"tipCount":439},"url":"http:\/\/www.mustafas.de","allowMenuUrlEdit":true,"beenHere":{"lastCheckinExpiredAt":0},"specials":{"count":0,"items":[]},"referralId":"v-1482949756","venueChains":[],"hasPerk":false},{"id":"4adf77c3f964a520df7a21e3","name":"Starbucks","contact":{"phone":"+493020629540","formattedPhone":"+49 30 20629540","twitter":"starbucksde","facebook":"216331155420","facebookUsername":"StarbucksDeutschland","facebookName":"Starbucks Deutschland"},"location":{"address":"Friedrichstr. 96","lat":52.51958011300408,"lng":13.388397667116019,"labeledLatLngs":[{"label":"display","lat":52.51958011300408,"lng":13.388397667116019}],"distance":1122,"postalCode":"10117","cc":"DE","city":"Berlin","state":"Berlin","country":"Germany","formattedAddress":["Friedrichstr. 96","10117 Berlin","Germany"]},"categories":[{"id":"4bf58dd8d48988d1e0931735","name":"Coffee Shop","pluralName":"Coffee Shops","shortName":"Coffee Shop","icon":{"prefix":"https:\/\/ss3.4sqi.net\/img\/categories_v2\/food\/coffeeshop_","suffix":".png"},"primary":true}],"verified":false,"stats":{"checkinsCount":8875,"usersCount":5625,"tipCount":42},"url":"http:\/\/www.starbucks.de","menu":{"type":"Menu","label":"Menu","anchor":"View Menu","url":"http:\/\/www.starbucks.de\/menu-list","mobileUrl":"http:\/\/www.starbucks.de\/menu-list","externalUrl":"http:\/\/www.starbucks.de\/menu-list"},"allowMenuUrlEdit":true,"beenHere":{"lastCheckinExpiredAt":0},"specials":{"count":0,"items":[]},"referralId":"v-1482949756","venueChains":[{"id":"556f676fbd6a75a99038d8ec"}],"hasPerk":false},{"id":"55f7e40b498ee90313fc2a49","name":"Burgermeister","contact":{"twitter":"burgermeisterb"},"location":{"address":"Skalitzer Str. 136","lat":52.49929791464096,"lng":13.418201825076789,"labeledLatLngs":[{"label":"display","lat":52.49929791464096,"lng":13.418201825076789}],"distance":2473,"postalCode":"10999","cc":"DE","city":"Berlin","state":"Berlin","country":"Germany","formattedAddress":["Skalitzer Str. 136","10999 Berlin","Germany"]},"categories":[{"id":"4bf58dd8d48988d16c941735","name":"Burger Joint","pluralName":"Burger Joints","shortName":"Burgers","icon":{"prefix":"https:\/\/ss3.4sqi.net\/img\/categories_v2\/food\/burger_","suffix":".png"},"primary":true}],"verified":false,"stats":{"checkinsCount":2582,"usersCount":1329,"tipCount":105},"url":"http:\/\/www.burgermeister.berlin","allowMenuUrlEdit":true,"beenHere":{"lastCheckinExpiredAt":0},"specials":{"count":0,"items":[]},"referralId":"v-1482949756","venueChains":[],"hasPerk":false},{"id":"4adcda88f964a520854921e3","name":"dolores*","contact":{"phone":"+493028099597","formattedPhone":"+49 30 28099597","facebook":"404789902901742","facebookUsername":"DoloresBurritos","facebookName":"Dolores California Burritos"},"location":{"address":"Rosa-Luxemburg-Str. 7","lat":52.523818618340115,"lng":13.409599228868172,"labeledLatLngs":[{"label":"display","lat":52.523818618340115,"lng":13.409599228868172}],"distance":528,"postalCode":"10178","cc":"DE","city":"Berlin","state":"Berlin","country":"Germany","formattedAddress":["Rosa-Luxemburg-Str. 7","10178 Berlin","Germany"]},"categories":[{"id":"4bf58dd8d48988d153941735","name":"Burrito Place","pluralName":"Burrito Places","shortName":"Burritos","icon":{"prefix":"https:\/\/ss3.4sqi.net\/img\/categories_v2\/food\/burrito_","suffix":".png"},"primary":true}],"verified":false,"stats":{"checkinsCount":15769,"usersCount":5526,"tipCount":394},"url":"http:\/\/www.dolores-online.de\/1000.html","allowMenuUrlEdit":true,"beenHere":{"lastCheckinExpiredAt":0},"specials":{"count":0,"items":[]},"referralId":"v-1482949756","venueChains":[],"hasPerk":false},{"id":"4ead71856da1a0e3a47abe19","name":"Hofbräuhaus Berlin","contact":{"phone":"+493023459820","formattedPhone":"+49 30 23459820","facebook":"301371453218384","facebookName":"Hofbräu Berlin"},"location":{"address":"Karl-Liebknecht-Str. 30","lat":52.52491107460195,"lng":13.413100791906366,"labeledLatLngs":[{"label":"display","lat":52.52491107460195,"lng":13.413100791906366}],"distance":776,"postalCode":"10178","cc":"DE","city":"Berlin","state":"Berlin","country":"Germany","formattedAddress":["Karl-Liebknecht-Str. 30","10178 Berlin","Germany"]},"categories":[{"id":"56aa371ce4b08b9a8d573572","name":"Bavarian Restaurant","pluralName":"Bavarian Restaurants","shortName":"Bavarian","icon":{"prefix":"https:\/\/ss3.4sqi.net\/img\/categories_v2\/food\/german_","suffix":".png"},"primary":true}],"verified":false,"stats":{"checkinsCount":9280,"usersCount":6573,"tipCount":171},"url":"http:\/\/www.hofbraeuhaus-berlin.de\/","allowMenuUrlEdit":true,"beenHere":{"lastCheckinExpiredAt":0},"specials":{"count":0,"items":[]},"referralId":"v-1482949756","venueChains":[],"hasPerk":false},{"id":"4ade123bf964a520d87221e3","name":"Burgermeister","contact":{"phone":"+493026348764","formattedPhone":"+49 30 26348764","twitter":"burgermeisterb","facebook":"101393369900462","facebookUsername":"burgermeister.berlin","facebookName":"Burgermeister"},"location":{"address":"Oberbaumstr. 8","lat":52.50101751364385,"lng":13.44235387610027,"labeledLatLngs":[{"label":"display","lat":52.50101751364385,"lng":13.44235387610027}],"distance":3299,"postalCode":"10997","cc":"DE","city":"Berlin","state":"Berlin","country":"Germany","formattedAddress":["Oberbaumstr. 8","10997 Berlin","Germany"]},"categories":[{"id":"4bf58dd8d48988d16c941735","name":"Burger Joint","pluralName":"Burger Joints","shortName":"Burgers","icon":{"prefix":"https:\/\/ss3.4sqi.net\/img\/categories_v2\/food\/burger_","suffix":".png"},"primary":true}],"verified":false,"stats":{"checkinsCount":12314,"usersCount":7354,"tipCount":604},"url":"http:\/\/www.burger-meister.de","menu":{"type":"Menu","label":"Menu","anchor":"View Menu","url":"http:\/\/burger-meister.de\/downloads\/BURGERMEISTER_MENU.pdf","mobileUrl":"http:\/\/burger-meister.de\/downloads\/BURGERMEISTER_MENU.pdf","externalUrl":"http:\/\/burger-meister.de\/downloads\/BURGERMEISTER_MENU.pdf"},"allowMenuUrlEdit":true,"beenHere":{"lastCheckinExpiredAt":0},"specials":{"count":0,"items":[]},"referralId":"v-1482949756","venueChains":[],"hasPerk":false},{"id":"4b742a06f964a520bbca2de3","name":"Rausch Schokoladenhaus","contact":{"phone":"+498000301918","formattedPhone":"+49 800 0301918","twitter":"rauschberlin","facebook":"109364772491952","facebookUsername":"rauschberlin","facebookName":"Rausch Schokoladenhaus Berlin"},"location":{"address":"Charlottenstr.  60","crossStreet":"Mohrenstr.","lat":52.51224950279729,"lng":13.3913801208568,"labeledLatLngs":[{"label":"display","lat":52.51224950279729,"lng":13.3913801208568}],"distance":1261,"postalCode":"10117","cc":"DE","city":"Berlin","state":"Berlin","country":"Germany","formattedAddress":["Charlottenstr.  60 (Mohrenstr.)","10117 Berlin","Germany"]},"categories":[{"id":"52f2ab2ebcbc57f1066b8b31","name":"Chocolate Shop","pluralName":"Chocolate Shops","shortName":"Chocolate Shop","icon":{"prefix":"https:\/\/ss3.4sqi.net\/img\/categories_v2\/shops\/candystore_","suffix":".png"},"primary":true}],"verified":true,"stats":{"checkinsCount":4756,"usersCount":3898,"tipCount":141},"url":"http:\/\/www.rausch.de","allowMenuUrlEdit":true,"beenHere":{"lastCheckinExpiredAt":0},"specials":{"count":0,"items":[]},"venuePage":{"id":"133640121"},"storeId":"","referralId":"v-1482949756","venueChains":[],"hasPerk":false},{"id":"4b2b4426f964a52077b524e3","name":"Mein Haus am See","contact":{"phone":"+493027590873","formattedPhone":"+49 30 27590873"},"location":{"address":"Brunnenstr 197-198","lat":52.53005328942082,"lng":13.401022038972988,"labeledLatLngs":[{"label":"display","lat":52.53005328942082,"lng":13.401022038972988}],"distance":1149,"postalCode":"10119","cc":"DE","city":"Berlin","state":"Berlin","country":"Germany","formattedAddress":["Brunnenstr 197-198","10119 Berlin","Germany"]},"categories":[{"id":"4bf58dd8d48988d116941735","name":"Bar","pluralName":"Bars","shortName":"Bar","icon":{"prefix":"https:\/\/ss3.4sqi.net\/img\/categories_v2\/nightlife\/pub_","suffix":".png"},"primary":true}],"verified":false,"stats":{"checkinsCount":11647,"usersCount":6578,"tipCount":234},"url":"http:\/\/mein-haus-am-see.com","allowMenuUrlEdit":true,"beenHere":{"lastCheckinExpiredAt":0},"specials":{"count":0,"items":[]},"referralId":"v-1482949756","venueChains":[],"hasPerk":false},{"id":"4afa6086f964a520c91722e3","name":"Café Einstein","contact":{"phone":"+49302043","formattedPhone":"+49 30 2043"},"location":{"address":"Unter den Linden 42","lat":52.51700538433862,"lng":13.385784627006817,"labeledLatLngs":[{"label":"display","lat":52.51700538433862,"lng":13.385784627006817}],"distance":1340,"postalCode":"10117","cc":"DE","city":"Berlin","state":"Berlin","country":"Germany","formattedAddress":["Unter den Linden 42","10117 Berlin","Germany"]},"categories":[{"id":"4bf58dd8d48988d16d941735","name":"Café","pluralName":"Cafés","shortName":"Café","icon":{"prefix":"https:\/\/ss3.4sqi.net\/img\/categories_v2\/food\/cafe_","suffix":".png"},"primary":true}],"verified":false,"stats":{"checkinsCount":6297,"usersCount":4727,"tipCount":147},"url":"http:\/\/www.einsteinudl.com","allowMenuUrlEdit":true,"beenHere":{"lastCheckinExpiredAt":0},"specials":{"count":0,"items":[]},"referralId":"v-1482949756","venueChains":[],"hasPerk":false},{"id":"4adcda91f964a520744b21e3","name":"Marheineke Markthalle","contact":{"phone":"+493061286146","formattedPhone":"+49 30 61286146"},"location":{"address":"Marheinekeplatz","lat":52.489252,"lng":13.394498,"labeledLatLngs":[{"label":"display","lat":52.489252,"lng":13.394498}],"distance":3496,"postalCode":"10961","cc":"DE","city":"Berlin","state":"Berlin","country":"Germany","formattedAddress":["Marheinekeplatz","10961 Berlin","Germany"]},"categories":[{"id":"50be8ee891d4fa8dcc7199a7","name":"Market","pluralName":"Markets","shortName":"Market","icon":{"prefix":"https:\/\/ss3.4sqi.net\/img\/categories_v2\/shops\/market_","suffix":".png"},"primary":true}],"verified":false,"stats":{"checkinsCount":8070,"usersCount":2420,"tipCount":69},"url":"http:\/\/www.meine-markthalle.de","allowMenuUrlEdit":true,"beenHere":{"lastCheckinExpiredAt":0},"specials":{"count":0,"items":[]},"referralId":"v-1482949756","venueChains":[],"hasPerk":false},{"id":"4b54ad4af964a5208bc627e3","name":"I Due Forni","contact":{"phone":"+493044017333","formattedPhone":"+49 30 44017333","facebook":"154460154586282","facebookName":"I Due Forni"},"location":{"address":"Schönhauser Allee 12","lat":52.53094591842299,"lng":13.412266146205607,"labeledLatLngs":[{"label":"display","lat":52.53094591842299,"lng":13.412266146205607}],"distance":1314,"postalCode":"10119","cc":"DE","city":"Berlin","state":"Berlin","country":"Germany","formattedAddress":["Schönhauser Allee 12","10119 Berlin","Germany"]},"categories":[{"id":"4bf58dd8d48988d110941735","name":"Italian Restaurant","pluralName":"Italian Restaurants","shortName":"Italian","icon":{"prefix":"https:\/\/ss3.4sqi.net\/img\/categories_v2\/food\/italian_","suffix":".png"},"primary":true}],"verified":false,"stats":{"checkinsCount":9527,"usersCount":4188,"tipCount":240},"allowMenuUrlEdit":true,"beenHere":{"lastCheckinExpiredAt":0},"specials":{"count":0,"items":[]},"referralId":"v-1482949756","venueChains":[],"hasPerk":false},{"id":"4fd0f671e4b0044b25a40009","name":"Oslo Kaffebar","contact":{"phone":"+4915785206625","formattedPhone":"+49 1578 5206625","twitter":"coffeeberlin","facebook":"391694090872640","facebookUsername":"OsloKaffebar","facebookName":"Oslo Kaffebar"},"location":{"address":"Eichendorffstr. 13","crossStreet":"Invalidenstr.","lat":52.53080398695847,"lng":13.38707685470581,"labeledLatLngs":[{"label":"display","lat":52.53080398695847,"lng":13.38707685470581}],"distance":1706,"postalCode":"10115","cc":"DE","city":"Berlin","state":"Berlin","country":"Germany","formattedAddress":["Eichendorffstr. 13 (Invalidenstr.)","10115 Berlin","Germany"]},"categories":[{"id":"4bf58dd8d48988d16d941735","name":"Café","pluralName":"Cafés","shortName":"Café","icon":{"prefix":"https:\/\/ss3.4sqi.net\/img\/categories_v2\/food\/cafe_","suffix":".png"},"primary":true}],"verified":false,"stats":{"checkinsCount":8568,"usersCount":1935,"tipCount":210},"url":"http:\/\/www.oslokaffebar.com","allowMenuUrlEdit":true,"beenHere":{"lastCheckinExpiredAt":0},"specials":{"count":0,"items":[]},"referralId":"v-1482949756","venueChains":[],"hasPerk":false},{"id":"54bd1e28498eec46cfc17c24","name":"Father Carpenter Coffee Brewers","contact":{"phone":"+493040044289","formattedPhone":"+49 30 40044289","twitter":"fathercarpenter","facebook":"266507380216521","facebookUsername":"fathercarpentercoffee","facebookName":"Father Carpenter Coffee Brewers"},"location":{"address":"Münzstr. 21","crossStreet":"1. Hof","lat":52.52464503533578,"lng":13.406656842312538,"labeledLatLngs":[{"label":"display","lat":52.52464503533578,"lng":13.406656842312538}],"distance":529,"postalCode":"10178","cc":"DE","city":"Berlin","state":"Berlin","country":"Germany","formattedAddress":["Münzstr. 21 (1. Hof)","10178 Berlin","Germany"]},"categories":[{"id":"4bf58dd8d48988d16d941735","name":"Café","pluralName":"Cafés","shortName":"Café","icon":{"prefix":"https:\/\/ss3.4sqi.net\/img\/categories_v2\/food\/cafe_","suffix":".png"},"primary":true}],"verified":false,"stats":{"checkinsCount":3285,"usersCount":1640,"tipCount":204},"url":"http:\/\/fathercarpenter.com","allowMenuUrlEdit":true,"beenHere":{"lastCheckinExpiredAt":0},"specials":{"count":0,"items":[]},"referralId":"v-1482949756","venueChains":[],"hasPerk":false},{"id":"4f7d9f5be4b09d309a10e8c0","name":"Zeit für Brot","contact":{"phone":"+493028046780","formattedPhone":"+49 30 28046780","facebook":"426973540662310","facebookUsername":"zeitfuerbrot.berlin","facebookName":"Zeit Für Brot"},"location":{"address":"Alte Schönhauser Str. 4","lat":52.527858520308946,"lng":13.40874718172153,"labeledLatLngs":[{"label":"display","lat":52.527858520308946,"lng":13.40874718172153}],"distance":911,"postalCode":"10119","cc":"DE","city":"Berlin","state":"Berlin","country":"Germany","formattedAddress":["Alte Schönhauser Str. 4","10119 Berlin","Germany"]},"categories":[{"id":"4bf58dd8d48988d16a941735","name":"Bakery","pluralName":"Bakeries","shortName":"Bakery","icon":{"prefix":"https:\/\/ss3.4sqi.net\/img\/categories_v2\/food\/bakery_","suffix":".png"},"primary":true}],"verified":false,"stats":{"checkinsCount":6607,"usersCount":2471,"tipCount":244},"url":"http:\/\/www.zeitfuerbrot.com","allowMenuUrlEdit":true,"beenHere":{"lastCheckinExpiredAt":0},"specials":{"count":0,"items":[]},"referralId":"v-1482949756","venueChains":[],"hasPerk":false},{"id":"4bc57a696936952133238488","name":"Hard Rock Cafe Berlin","contact":{"phone":"+4930884620","formattedPhone":"+49 30 884620","twitter":"hardrockberlin","facebook":"227394447561","facebookName":"Hard Rock Cafe Berlin"},"location":{"address":"Kurfürstendamm 224","crossStreet":"Meinekestr.","lat":52.50310236292835,"lng":13.329473733901978,"labeledLatLngs":[{"label":"display","lat":52.50310236292835,"lng":13.329473733901978}],"distance":5448,"postalCode":"10719","cc":"DE","city":"Berlin","state":"Berlin","country":"Germany","formattedAddress":["Kurfürstendamm 224 (Meinekestr.)","10719 Berlin","Germany"]},"categories":[{"id":"4bf58dd8d48988d14e941735","name":"American Restaurant","pluralName":"American Restaurants","shortName":"American","icon":{"prefix":"https:\/\/ss3.4sqi.net\/img\/categories_v2\/food\/default_","suffix":".png"},"primary":true}],"verified":true,"stats":{"checkinsCount":17029,"usersCount":13815,"tipCount":236},"url":"http:\/\/www.facebook.com\/hardrock","menu":{"type":"Menu","label":"Menu","anchor":"View Menu","url":"http:\/\/www.hardrock.com\/cafes\/berlin\/menu.aspx","mobileUrl":"http:\/\/www.hardrock.com\/cafes\/berlin\/menu.aspx","externalUrl":"http:\/\/www.hardrock.com\/cafes\/berlin\/menu.aspx"},"allowMenuUrlEdit":true,"beenHere":{"lastCheckinExpiredAt":0},"specials":{"count":0,"items":[]},"storeId":"","referralId":"v-1482949756","venueChains":[{"id":"556a337ba7c8957d73d4b6b4"}],"hasPerk":false},{"id":"4adcda7af964a520e24621e3","name":"La Pausa","contact":{"phone":"+493024083108","formattedPhone":"+49 30 24083108"},"location":{"address":"Torstr. 125","lat":52.52974011798833,"lng":13.400852680206299,"labeledLatLngs":[{"label":"display","lat":52.52974011798833,"lng":13.400852680206299}],"distance":1118,"postalCode":"10119","cc":"DE","city":"Berlin","state":"Berlin","country":"Germany","formattedAddress":["Torstr. 125","10119 Berlin","Germany"]},"categories":[{"id":"4bf58dd8d48988d1ca941735","name":"Pizza Place","pluralName":"Pizza Places","shortName":"Pizza","icon":{"prefix":"https:\/\/ss3.4sqi.net\/img\/categories_v2\/food\/pizza_","suffix":".png"},"primary":true}],"verified":false,"stats":{"checkinsCount":5751,"usersCount":1880,"tipCount":106},"url":"http:\/\/www.lapausa.de","allowMenuUrlEdit":true,"beenHere":{"lastCheckinExpiredAt":0},"specials":{"count":0,"items":[]},"referralId":"v-1482949756","venueChains":[],"hasPerk":false},{"id":"4adcda88f964a520824921e3","name":"Monsieur Vuong","contact":{"phone":"+493099296924","formattedPhone":"+49 30 99296924","twitter":"monsieurvuong","facebook":"169618269756125","facebookUsername":"monsieurvuong","facebookName":"Monsieur Vuong"},"location":{"address":"Alte Schönhauser Str. 46","lat":52.52671806739541,"lng":13.407890796661377,"labeledLatLngs":[{"label":"display","lat":52.52671806739541,"lng":13.407890796661377}],"distance":773,"postalCode":"10119","cc":"DE","city":"Berlin","state":"Berlin","country":"Germany","formattedAddress":["Alte Schönhauser Str. 46","10119 Berlin","Germany"]},"categories":[{"id":"4bf58dd8d48988d14a941735","name":"Vietnamese Restaurant","pluralName":"Vietnamese Restaurants","shortName":"Vietnamese","icon":{"prefix":"https:\/\/ss3.4sqi.net\/img\/categories_v2\/food\/vietnamese_","suffix":".png"},"primary":true}],"verified":false,"stats":{"checkinsCount":11132,"usersCount":6399,"tipCount":479},"url":"http:\/\/www.monsieurvuong.de\/","menu":{"type":"Menu","label":"Menu","anchor":"View Menu","url":"https:\/\/www.foodora.de\/restaurant\/kg6y\/monsieur-vuong","mobileUrl":"https:\/\/www.foodora.de\/restaurant\/kg6y\/monsieur-vuong","externalUrl":"https:\/\/www.foodora.de\/restaurant\/kg6y\/monsieur-vuong"},"allowMenuUrlEdit":true,"beenHere":{"lastCheckinExpiredAt":0},"specials":{"count":0,"items":[]},"referralId":"v-1482949756","venueChains":[],"hasPerk":false},{"id":"528a4e3411d24e4d2d087a64","name":"Tommi's Burger Joint","contact":{"twitter":"burgerjointde","facebook":"577579718968883","facebookUsername":"tommisburgerjointgermany","facebookName":"Tommi's Burger Joint"},"location":{"address":"Invalidenstr. 160","lat":52.53242258479098,"lng":13.397730588912962,"labeledLatLngs":[{"label":"display","lat":52.53242258479098,"lng":13.397730588912962}],"distance":1466,"postalCode":"10115","cc":"DE","city":"Berlin","state":"Berlin","country":"Germany","formattedAddress":["Invalidenstr. 160","10115 Berlin","Germany"]},"categories":[{"id":"4bf58dd8d48988d16c941735","name":"Burger Joint","pluralName":"Burger Joints","shortName":"Burgers","icon":{"prefix":"https:\/\/ss3.4sqi.net\/img\/categories_v2\/food\/burger_","suffix":".png"},"primary":true}],"verified":false,"stats":{"checkinsCount":5538,"usersCount":1983,"tipCount":222},"url":"http:\/\/burgerjoint.de","allowMenuUrlEdit":true,"beenHere":{"lastCheckinExpiredAt":0},"specials":{"count":0,"items":[]},"referralId":"v-1482949756","venueChains":[],"hasPerk":false},{"id":"51c333e9498e066fed760789","name":"Cocolo Ramen","contact":{"phone":"+493098339073","formattedPhone":"+49 30 98339073","facebook":"158282120881273","facebookUsername":"kuchi.berlin","facebookName":"Kuchi"},"location":{"address":"Paul-Lincke-Ufer 39-40","lat":52.495903087061606,"lng":13.42228026085584,"labeledLatLngs":[{"label":"display","lat":52.495903087061606,"lng":13.42228026085584}],"distance":2928,"postalCode":"10999","cc":"DE","city":"Berlin","state":"Berlin","country":"Germany","formattedAddress":["Paul-Lincke-Ufer 39-40","10999 Berlin","Germany"]},"categories":[{"id":"55a59bace4b013909087cb24","name":"Ramen Restaurant","pluralName":"Ramen Restaurants","shortName":"Ramen","icon":{"prefix":"https:\/\/ss3.4sqi.net\/img\/categories_v2\/food\/ramen_","suffix":".png"},"primary":true}],"verified":false,"stats":{"checkinsCount":7323,"usersCount":3038,"tipCount":284},"url":"http:\/\/kuchi.de\/restaurant\/cocolo-x-berg\/","allowMenuUrlEdit":true,"beenHere":{"lastCheckinExpiredAt":0},"specials":{"count":0,"items":[]},"referralId":"v-1482949756","venueChains":[],"hasPerk":false},{"id":"4adcda7af964a520e74621e3","name":"Kaffeemitte","contact":{"phone":"+493024083204","formattedPhone":"+49 30 24083204","twitter":"kaffeemitte"},"location":{"address":"Weinmeisterstr. 9a","lat":52.52507116063537,"lng":13.406030936430014,"labeledLatLngs":[{"label":"display","lat":52.52507116063537,"lng":13.406030936430014}],"distance":568,"postalCode":"10178","cc":"DE","city":"Berlin","state":"Berlin","country":"Germany","formattedAddress":["Weinmeisterstr. 9a","10178 Berlin","Germany"]},"categories":[{"id":"4bf58dd8d48988d16d941735","name":"Café","pluralName":"Cafés","shortName":"Café","icon":{"prefix":"https:\/\/ss3.4sqi.net\/img\/categories_v2\/food\/cafe_","suffix":".png"},"primary":true}],"verified":false,"stats":{"checkinsCount":7426,"usersCount":4082,"tipCount":144},"url":"http:\/\/kaffeemitte.de","allowMenuUrlEdit":true,"beenHere":{"lastCheckinExpiredAt":0},"specials":{"count":0,"items":[]},"referralId":"v-1482949756","venueChains":[],"hasPerk":false},{"id":"4af57bd7f964a5205bf921e3","name":"Starbucks","contact":{"phone":"+493027890230","formattedPhone":"+49 30 27890230","twitter":"starbucksde","facebook":"216331155420","facebookUsername":"StarbucksDeutschland","facebookName":"Starbucks Deutschland"},"location":{"address":"Rosenthaler Str. 40-41","lat":52.52397277309695,"lng":13.402844628700208,"labeledLatLngs":[{"label":"display","lat":52.52397277309695,"lng":13.402844628700208}],"distance":464,"postalCode":"10178","cc":"DE","city":"Berlin","state":"Berlin","country":"Germany","formattedAddress":["Rosenthaler Str. 40-41","10178 Berlin","Germany"]},"categories":[{"id":"4bf58dd8d48988d1e0931735","name":"Coffee Shop","pluralName":"Coffee Shops","shortName":"Coffee Shop","icon":{"prefix":"https:\/\/ss3.4sqi.net\/img\/categories_v2\/food\/coffeeshop_","suffix":".png"},"primary":true}],"verified":false,"stats":{"checkinsCount":8560,"usersCount":4756,"tipCount":95},"url":"http:\/\/www.starbucks.de","allowMenuUrlEdit":true,"beenHere":{"lastCheckinExpiredAt":0},"specials":{"count":0,"items":[]},"referralId":"v-1482949756","venueChains":[{"id":"556f676fbd6a75a99038d8ec"}],"hasPerk":false},{"id":"4c2344c213c00f47f2b388de","name":"The Barn","contact":{"phone":"+4915124105136","formattedPhone":"+49 1512 4105136","twitter":"thebarnberlin","facebook":"120381017975163","facebookUsername":"THEBARNBERLIN","facebookName":"THE BARN"},"location":{"address":"Auguststr. 58","crossStreet":"Koppenplatz","lat":52.52733523088492,"lng":13.39797848911107,"labeledLatLngs":[{"label":"display","lat":52.52733523088492,"lng":13.39797848911107}],"distance":942,"postalCode":"10115","cc":"DE","city":"Berlin","state":"Berlin","country":"Germany","formattedAddress":["Auguststr. 58 (Koppenplatz)","10115 Berlin","Germany"]},"categories":[{"id":"4bf58dd8d48988d1e0931735","name":"Coffee Shop","pluralName":"Coffee Shops","shortName":"Coffee Shop","icon":{"prefix":"https:\/\/ss3.4sqi.net\/img\/categories_v2\/food\/coffeeshop_","suffix":".png"},"primary":true}],"verified":true,"stats":{"checkinsCount":11638,"usersCount":4738,"tipCount":366},"url":"http:\/\/barn.bigcartel.com","allowMenuUrlEdit":true,"beenHere":{"lastCheckinExpiredAt":0},"specials":{"count":0,"items":[]},"referralId":"v-1482949756","venueChains":[],"hasPerk":false},{"id":"50813986e4b0ba1a30a13d60","name":"westberlin","contact":{"phone":"+493025922745","formattedPhone":"+49 30 25922745"},"location":{"address":"Friedrichstr. 215","lat":52.505730800223624,"lng":13.39064007895999,"labeledLatLngs":[{"label":"display","lat":52.505730800223624,"lng":13.39064007895999}],"distance":1861,"postalCode":"10969","cc":"DE","city":"Berlin","state":"Berlin","country":"Germany","formattedAddress":["Friedrichstr. 215","10969 Berlin","Germany"]},"categories":[{"id":"4bf58dd8d48988d1e0931735","name":"Coffee Shop","pluralName":"Coffee Shops","shortName":"Coffee Shop","icon":{"prefix":"https:\/\/ss3.4sqi.net\/img\/categories_v2\/food\/coffeeshop_","suffix":".png"},"primary":true}],"verified":true,"stats":{"checkinsCount":4757,"usersCount":2585,"tipCount":228},"url":"http:\/\/www.westberlin-bar-shop.de","allowMenuUrlEdit":true,"beenHere":{"lastCheckinExpiredAt":0},"specials":{"count":0,"items":[]},"venuePage":{"id":"50177224"},"storeId":"","referralId":"v-1482949756","venueChains":[],"hasPerk":false},{"id":"4be303d0d27a20a116ff905b","name":"Augustiner am Gendarmenmarkt","contact":{"phone":"+493020454020","formattedPhone":"+49 30 20454020","facebook":"184958934903401","facebookUsername":"augustiner.gendarmenmarkt.berlin","facebookName":"Augustiner am Gendarmenmarkt"},"location":{"address":"Charlottenstr. 55","lat":52.51397577847675,"lng":13.391084168003829,"labeledLatLngs":[{"label":"display","lat":52.51397577847675,"lng":13.391084168003829}],"distance":1154,"postalCode":"10117","cc":"DE","city":"Berlin","state":"Berlin","country":"Germany","formattedAddress":["Charlottenstr. 55","10117 Berlin","Germany"]},"categories":[{"id":"4bf58dd8d48988d10d941735","name":"German Restaurant","pluralName":"German Restaurants","shortName":"German","icon":{"prefix":"https:\/\/ss3.4sqi.net\/img\/categories_v2\/food\/german_","suffix":".png"},"primary":true}],"verified":false,"stats":{"checkinsCount":6362,"usersCount":4781,"tipCount":188},"url":"http:\/\/www.augustiner-braeu-berlin.de\/","menu":{"type":"Menu","label":"Menu","anchor":"View Menu","url":"http:\/\/www.augustiner-braeu-berlin.de\/speisen.html","mobileUrl":"http:\/\/www.augustiner-braeu-berlin.de\/speisen.html","externalUrl":"http:\/\/www.augustiner-braeu-berlin.de\/speisen.html"},"allowMenuUrlEdit":true,"beenHere":{"lastCheckinExpiredAt":0},"specials":{"count":0,"items":[]},"referralId":"v-1482949756","venueChains":[],"hasPerk":false},{"id":"4ba898d4f964a520c4e139e3","name":"Impala Coffee","contact":{"phone":"+493040505485","formattedPhone":"+49 30 40505485"},"location":{"address":"Schönhauser Allee 173","crossStreet":"Schwedter Str.","lat":52.532540061343774,"lng":13.412246704101562,"labeledLatLngs":[{"label":"display","lat":52.532540061343774,"lng":13.412246704101562}],"distance":1480,"postalCode":"10119","cc":"DE","city":"Berlin","state":"Berlin","country":"Germany","formattedAddress":["Schönhauser Allee 173 (Schwedter Str.)","10119 Berlin","Germany"]},"categories":[{"id":"4bf58dd8d48988d1e0931735","name":"Coffee Shop","pluralName":"Coffee Shops","shortName":"Coffee Shop","icon":{"prefix":"https:\/\/ss3.4sqi.net\/img\/categories_v2\/food\/coffeeshop_","suffix":".png"},"primary":true}],"verified":false,"stats":{"checkinsCount":3330,"usersCount":1200,"tipCount":67},"url":"http:\/\/www.impala-coffee.com","allowMenuUrlEdit":true,"beenHere":{"lastCheckinExpiredAt":0},"specials":{"count":0,"items":[]},"referralId":"v-1482949756","venueChains":[],"hasPerk":false},{"id":"4adf6065f964a520097a21e3","name":"Curry 36","contact":{"phone":"+49302517368","formattedPhone":"+49 30 2517368"},"location":{"address":"Mehringdamm 36","lat":52.49338993011078,"lng":13.387742042541502,"labeledLatLngs":[{"label":"display","lat":52.49338993011078,"lng":13.387742042541502}],"distance":3184,"postalCode":"10961","cc":"DE","city":"Berlin","state":"Berlin","country":"Germany","formattedAddress":["Mehringdamm 36","10961 Berlin","Germany"]},"categories":[{"id":"56aa371ce4b08b9a8d57358b","name":"Currywurst Joint","pluralName":"Currywurst Joints","shortName":"Currywurst","icon":{"prefix":"https:\/\/ss3.4sqi.net\/img\/categories_v2\/food\/bbqalt_","suffix":".png"},"primary":true}],"verified":true,"stats":{"checkinsCount":8205,"usersCount":5374,"tipCount":236},"url":"http:\/\/curry36.de","allowMenuUrlEdit":true,"beenHere":{"lastCheckinExpiredAt":0},"specials":{"count":0,"items":[]},"referralId":"v-1482949756","venueChains":[{"id":"5568ed3ca7c8a9cf8ec3a187"}],"hasPerk":false},{"id":"4af586f8f964a52098f921e3","name":"Starbucks","contact":{"phone":"+493088001790","formattedPhone":"+49 30 88001790","twitter":"starbucksde","facebook":"216331155420","facebookUsername":"StarbucksDeutschland","facebookName":"Starbucks Deutschland"},"location":{"address":"Kurfürstendamm 26a","crossStreet":"Fasanenstr.","lat":52.50324604118854,"lng":13.327724933624268,"labeledLatLngs":[{"label":"display","lat":52.50324604118854,"lng":13.327724933624268}],"distance":5554,"postalCode":"10719","cc":"DE","city":"Berlin","state":"Berlin","country":"Germany","formattedAddress":["Kurfürstendamm 26a (Fasanenstr.)","10719 Berlin","Germany"]},"categories":[{"id":"4bf58dd8d48988d1e0931735","name":"Coffee Shop","pluralName":"Coffee Shops","shortName":"Coffee Shop","icon":{"prefix":"https:\/\/ss3.4sqi.net\/img\/categories_v2\/food\/coffeeshop_","suffix":".png"},"primary":true}],"verified":false,"stats":{"checkinsCount":9782,"usersCount":5685,"tipCount":96},"url":"http:\/\/www.starbucks.de","allowMenuUrlEdit":true,"beenHere":{"lastCheckinExpiredAt":0},"specials":{"count":0,"items":[]},"referralId":"v-1482949756","venueChains":[{"id":"556f676fbd6a75a99038d8ec"}],"hasPerk":false}]}}