id,name,url,hasMenu,phone,address,city,state,country,lat,lon,categories,checkinsCount,usersCount,tipCount
4bb3b48a42959c74e253222c,"Dippin Dots",,0,,"5475 E Carson St","Long Beach","CA","United States","33.68812861666666691462523886","-118.349983183333336000941926613",4bf58dd8d48988d1c9941735,0,0,0
4dfa7485aeb785aedbf1cda7,"Beachwood BBQ & Brewing",http://beachwoodbbq.com,1,(562) 436-4020,"210 E 3rd St","Long Beach","CA","United States","33.7699860801013329592024092562","-118.191028114998999853924033232",50327c8591d4c4b30a586d5d,10768,4088,118
4b48af0ef964a520c15226e3,"Renaissance Long Beach Hotel",http://www.renhotels.com/,0,(562) 437-5900,"111 E Ocean Blvd","Long Beach","CA","United States","33.7674822277212811627578048501","-118.1916904449462890625",4bf58dd8d48988d1fa931735,5551,2493,26
4bf763a45317a593d119fe7e,"Yard House",http://www.yardhouse.com,1,(562) 628-0455,"401 Shoreline Village Dr","Long Beach","CA","United States","33.7614617699999968181145959534","-118.190177700000006666414265055",4bf58dd8d48988d14e941735,15067,9456,117
51437cafebca5cf063767bca,"The Federal Bar",http://thefederalbar.com,1,(562) 435-2000,"102 Pine Ave","Long Beach","CA","United States","33.7682782342447964651910297107","-118.19233417510986328125",4bf58dd8d48988d116941735,3740,2254,55
4ab53694f964a520497320e3,"Rock Bottom Restaurant & Brewery",http://rockbottom.com,0,(562) 308-2255,"1 Pine Ave","Long Beach","CA","United States","33.7672307491244794164231279865","-118.192484767305842296991613694",50327c8591d4c4b30a586d5d,7586,4572,80
54415abf498e91ee7ccbacc1,"Starbucks",http://www.starbucks.com,0,(562) 495-9527,"421 West Broadway","Long Beach","CA","United States","33.7695580000000035170160117559","-118.197715999999999780811776873",4bf58dd8d48988d1e0931735,537,245,5
4c1d09e4fcf8c9b6260cab0b,"7-Eleven",http://www.7-eleven.com,0,(562) 951-5989,"805 E Ocean Blvd","Long Beach","CA","United States","33.7668480000000030827322916593","-118.182536999999996396581991576",4d954b0ea243a5684a65b473,1513,461,5
52cdd60f11d214b303b7e494,"Northgate Gonzalez Markets",http://www.northgatemarkets.com,0,(562) 438-1064,"2040 E 10th St","Long Beach","CA","United States","33.7784784145567229529660835396","-118.167062995603401986954850145",4bf58dd8d48988d118951735,248,67,2
4bea4268b3352d7f1e0855d2,"Congregation Ale House",http://congregationalehouse.com,1,(562) 434-2337,"201 E Broadway","Long Beach","CA","United States","33.7693777006957560615774127655","-118.191125225534833020901714917",4bf58dd8d48988d117941735,12449,5339,109
4aada260f964a520156120e3,"Parkers' Lighthouse",http://www.parkerslighthouse.com,1,(562) 432-6500,"435 Shoreline Village Dr","Long Beach","CA","United States","33.7600303310231026898691197857","-118.191999217901496876947931014",4bf58dd8d48988d1ce941735,4537,3287,46
57fd4580498e4cdc9d94d53e,"Starbucks",,0,(562) 335-1122,"707 E Ocean Blvd","Long Beach","CA","United States","33.7664260000000027162059268449","-118.183846000000002618435246404",4bf58dd8d48988d1e0931735,120,55,1
56269afd498e6e27f5b7b896,"Recreational Coffee",,0,(562) 436-4954,"237 Long Beach Blvd Ste A","Long Beach","CA","United States","33.7702686216964096388437610585","-118.189639999609156006954435725",4bf58dd8d48988d16d941735,566,210,6
56e30a2c498ec3afbf0eebde,"Starbucks",http://www.starbucks.com/store/1014276,0,(562) 233-4674,"11 The Paseo","Long Beach","CA","United States","33.7653645005295146575008402579","-118.193170246494531738790101372",4bf58dd8d48988d1e0931735,420,250,2
4bdb3f552a3a0f47a91caeb6,"Hooters of Long Beach",http://www.westcoasthooters.com,1,(562) 983-1010,"71 Aquarium Way","Long Beach","CA","United States","33.7631363608250438801405834965","-118.19472398925077527565008495",4bf58dd8d48988d14c941735,7243,4411,70
49cbaebdf964a5200d591fe3,"Portfolio Coffeehouse",http://www.portfoliocoffeehouse.com,1,(562) 434-2486,"2300 E 4th St","Long Beach","CA","United States","33.7716149999999970532371662557","-118.1642997264862060546875",4bf58dd8d48988d1e0931735,7893,2221,75
4c081a09009a0f47ed91e5bf,"Starbucks",http://www.starbucks.com/,1,(562) 437-5900,"111 E Ocean Blvd","Long Beach","CA","United States","33.7676265718654207148574641906","-118.191010977839937368116807193",4bf58dd8d48988d1e0931735,4640,881,30
52747a92498ef7c7ccdf3e66,"The Breakfast Bar",http://www.the-breakfast-bar.com,1,,"70 Atlantic Ave","Long Beach","CA","United States","33.7672860120921072279998043086","-118.184909820556640625",4bf58dd8d48988d143941735,1259,915,34
4b635b2ef964a5202b742ae3,"McDonald's",http://mcdonalds.com,1,(562) 435-1808,"1000 E 4th St","Long Beach","CA","United States","33.7714546697927175955555867404","-118.179642954703211898959125392",4bf58dd8d48988d16e941735,1698,535,15
4b6fbbbef964a52023fb2ce3,"Louis Burgers III",,1,,"555 Atlantic Ave","Long Beach","CA","United States","33.7738875900000010688017937355","-118.185338973995584410658921115",4bf58dd8d48988d16c941735,1809,654,27
49d8e61df964a520d45d1fe3,"Starbucks",http://www.starbucks.com/,1,(562) 436-6883,"242 Pine Avenue","Long Beach","CA","United States","33.7701589999999995939106156584","-118.19219499999999811734596733",4bf58dd8d48988d1e0931735,5802,1550,15
56a93553498e3e4613cda451,"Dog Haus Biergarten Long Beach",http://doghaus.com,0,(562) 901-4287,"210 East 3rd Street","Long Beach","CA","United States","33.7703365185854096353068598546","-118.190922747885110766219440848",4bf58dd8d48988d16c941735,487,271,9
4a2014fcf964a520477c1fe3,"Roscoe's House of Chicken and Waffles - Long Beach",http://www.roscoeschickenandwaffles.com,1,(562) 437-8355,"730 E Broadway","Long Beach","CA","United States","33.7691556166217949908059381414","-118.1831435859203338623046875",4bf58dd8d48988d14f941735,13566,9593,120
518027a6498ec494a73aceed,"Pier 76 Fish Grill",http://pier76fishgrill.com,0,(562) 983-1776,"95 Pine Ave","Long Beach","CA","United States","33.7679456149730086167437548283","-118.192513328993030086166982073",4bf58dd8d48988d1ce941735,1776,994,39
4d71a459ff6ba35d1417628a,"Berlin",http://www.berlinbistro.com,1,(562) 435-0600,"420 E 4th St","Long Beach","CA","United States","33.7715609999999983870111464057","-118.187089000000000282852852251",52e81612bcbc57f1066b79f1,3551,1361,43
4ca99863d971b1f760d41fe1,"McDonald's",http://mcdonalds.com,0,(562) 437-6186,"640 Long Beach Blvd","Long Beach","CA","United States","33.7749905394706928518644417636","-118.189011630951938514044741169",4bf58dd8d48988d16e941735,1396,471,10
4b0ca0c4f964a5205b4023e3,"Starbucks",http://www.starbucks.com/,1,(562) 590-5996,"500 Long Beach Blvd","Long Beach","CA","United States","33.7729140772681972748614498414","-118.188977356232172155614534859",4bf58dd8d48988d1e0931735,3807,1101,24
5567cea4498e41d1bc30f690,"Long Beach Thai",,0,,"3109 E Anaheim St","Long Beach","CA","United States","33.7826549999999983242560119834","-118.155443000000005326910468284",4bf58dd8d48988d149941735,287,127,3
4a8860aaf964a5201b0620e3,"Bubba Gump Shrimp Co.",http://www.bubbagump.com/,1,(562) 437-2434,"87 Aquarium Way","Long Beach","CA","United States","33.7632724120053140381969569717","-118.19576740264892578125",4bf58dd8d48988d1ce941735,5365,4596,52
4a1eee3cf964a520ea7b1fe3,"George's Greek Cafe",http://www.georgesgreekcafe.com/,1,(562) 437-1184,"135 Pine Ave","Long Beach","CA","United States","33.7687703858735730477746983524","-118.192387657534155209759774152",4bf58dd8d48988d10e941735,4312,2625,64
44a8f9fbf964a520f8341fe3,"Pike Bar & Fish Grill",http://pikelongbeach.com,1,(562) 437-4453,"1836 E 4th St","Long Beach","CA","United States","33.7715738379176642069978697691","-118.169159718873885367429465987",4bf58dd8d48988d11b941735,7304,2543,60
4aee2139f964a52063d221e3,"Whole Foods Market",http://www.wholefoodsmarket.com/stores/torrance,0,(310) 257-8700,"2655 Pacific Coast Hwy","Torrance","CA","United States","33.7925004976450509275309741497","-118.331041932105961222987389192",4bf58dd8d48988d118951735,6349,1686,29
4b3e5bc4f964a520da9b25e3,"Starbucks",http://www.starbucks.com/,1,(310) 519-3496,"438 S Gaffey St","San Pedro","CA","United States","33.7398910000000000763975549489","-118.292107000000001448825059924",4bf58dd8d48988d1e0931735,2893,780,22
4b565c48f964a5201e0d28e3,"In-N-Out Burger",http://www.in-n-out.com,1,(800) 786-1000,"1090 N Western Ave","San Pedro","CA","United States","33.7534009478574148488405626267","-118.308560225735106996580725536",4bf58dd8d48988d16c941735,3654,1621,23
4b48fe38f964a520226126e3,"Starbucks",http://www.starbucks.com/,1,(310) 514-2550,"28166 S Western Ave","San Pedro","CA","United States","33.7632629415589988752799399663","-118.310883556001115834988013376",4bf58dd8d48988d1e0931735,3178,631,6
4bfdda17f7c82d7fb1df8e04,"7-Eleven",http://www.7-eleven.com,0,(310) 539-3730,"1878 Pacific Coast Hwy","Lomita","CA","United States","33.7891060150115478677435021382","-118.311838262591905390763713513",4d954b0ea243a5684a65b473,867,207,2
4b65b70af964a52055fb2ae3,"Port of San Pedro",,0,,"","San Pedro","CA","United States","33.7430937285129104452607862186","-118.279370327060334489033266436",4bf58dd8d48988d163941735,2423,1491,11
4be1a2478ea562b5a41a2170,"Starbucks",http://www.starbucks.com/,1,(310) 534-1961,"26650 Western Ave","Harbor City","CA","United States","33.7794030000000020663719624281","-118.309062999999994758582033683",4bf58dd8d48988d1e0931735,3974,597,20
4bca2e5ccc8cd13af529bdcf,"San Pedro Fish Market and Restaurant",http://sanpedrofish.com,1,(310) 327-4384,"1190 Nagoya Way","San Pedro","CA","United States","33.7337965094966634183037967887","-118.277377718517456628433137666",4bf58dd8d48988d1ce941735,3559,2914,34
4ba3a4fcf964a520644f38e3,"Starbucks",http://www.starbucks.com/,1,(310) 514-0047,"2470 S Western Ave","San Pedro","CA","United States","33.7233400000000003160494088661","-118.312054000000003384229785297",4bf58dd8d48988d1e0931735,3648,629,14
4b380aaef964a520b54a25e3,"McDonald's",http://mcdonalds.com,1,(310) 530-9520,"1712 Pacific Coast Hwy","Lomita","CA","United States","33.7892431798468564352333487477","-118.307949418641882743941096123",4bf58dd8d48988d16e941735,959,443,7
4bb039eef964a520433d3ce3,"McDonald's",http://mcdonalds.com,1,(310) 514-8616,"303 S Gaffey St","San Pedro","CA","United States","33.7410332547409552716999314725","-118.292718490623087745916564018",4bf58dd8d48988d16e941735,1194,431,7
4b5b7825f964a520940029e3,"Starbucks",http://www.starbucks.com/,1,(310) 534-4835,"25348 Crenshaw Blvd","Torrance","CA","United States","33.7936520000000015784280549269","-118.330084999999996853148331866",4bf58dd8d48988d1e0931735,3193,909,12
4bae8330f964a5204ebb3be3,"Ports O' Call Waterfront Dining Restaurant",http://portsocalldining.com,1,(310) 833-3553,"Berth 76","San Pedro","CA","United States","33.7325487693212053841307351831","-118.276619911193833445395284798",4bf58dd8d48988d1ce941735,4893,2810,32
4b0afbb2f964a5201b2b23e3,"Panera Bread",http://www.panerabread.com,1,(310) 517-0324,"2733 Pacific Coast Hwy","Torrance","CA","United States","33.7931737016966451392363524064","-118.333744112826963146289926954",4bf58dd8d48988d1c5941735,2834,1115,26
4d4c5d33a22c224b7181f993,"Veggie Grill",http://veggiegrill.com,1,(310) 325-6689,"2533 Pacific Coast Hwy Ste D","Torrance","CA","United States","33.7912099999999995247890183236","-118.328994083333327580476179719",4bf58dd8d48988d1d3941735,3105,1201,34
4c698b1a8e7c0f4722e8df0f,"Islands Restaurant",http://www.islandsrestaurants.com,0,(310) 530-5383,"2647 Pacific Coast Hwy","Torrance","CA","United States","33.792185070000002156120899599","-118.3303801999999933514118311",4bf58dd8d48988d16c941735,3776,1805,23
4ad8e774f964a520db1521e3,"California Pizza Kitchen",http://cpk.com,1,(310) 539-5410,"25304 Crenshaw Blvd.","Torrance","CA","United States","33.794158619999997483773768181","-118.32936300000000073850969784",4bf58dd8d48988d1ca941735,2021,1021,9
4a5ebdbff964a52022bf1fe3,"Norm's Restaurant",http://www.normsrestaurants.com,0,(310) 530-5516,"2448 Pacific Coast Highway","Torrance","CA","United States","33.7894025519311753669171594083","-118.327379998059853960512555204",4bf58dd8d48988d147941735,3031,1090,32
4a8d9599f964a520221020e3,"Hot n' Tot",,0,(310) 326-9626,"2347 Pacific Coast Hwy","Lomita","CA","United States","33.7897809999999978458617988508","-118.324342999999998937710188329",4bf58dd8d48988d143941735,1329,520,23
4ae4f240f964a5209c9f21e3,"The Coffee Bean & Tea Leaf",http://www.coffeebean.com,1,(310) 530-5443,"25345 Crenshaw Blvd Ste B","Torrance","CA","United States","33.7933889899999968520205584355","-118.331755200000003469540388323",4bf58dd8d48988d1e0931735,1738,599,12
5553f24a498e0ec205e97dc0,"King Poke",,0,(310) 784-1851,"2366 Pacific Coast Hwy","Lomita","CA","United States","33.7891838175291994161852926482","-118.325028354298936505983874667",52e81612bcbc57f1066b79fe,341,161,5
4d7e624ab25d6dcbe0a9b842,"7-Eleven",http://www.7-eleven.com,0,(310) 519-7009,"1831 S Pacific Ave","San Pedro","CA","United States","33.7273255924180759279806807172","-118.2883451879024505615234375",4d954b0ea243a5684a65b473,623,147,5
4bba2d9b935e95211cd62790,"Panda Express",https://pandaexpress.com,1,(800) 877-8989,"1500 Pacific Coast Hwy.","Harbor City","CA","United States","33.7891946012001156418591563124","-118.304490039813330781726108398",4bf58dd8d48988d145941735,820,399,8
4e5ed689d4c08cf7f593caef,"Tacos El Gallito",http://www.tacoselgallito.com/,0,(310) 530-0060,"Pacific Coast Hwy","Harbor City","CA","United States","33.7912139999999965311872074381","-118.290588659999997389604686759",4bf58dd8d48988d151941735,1357,500,14
51d0ea07498e8744fa22d696,"Blaze Pizza",http://t.co/ixuY5oJd0O,0,,"2625 Pacific Coast Hwy","Torrance","CA","United States","33.7918239999999983069756126497","-118.330476000000004432877176441",4bf58dd8d48988d1ca941735,1253,551,15
4b6a46f8f964a52069d02be3,"Chuck E. Cheese's",http://www.chuckecheese.com/storedetails/ca/torrance/358,1,(310) 326-8470,"2821 Pacific Coast Hwy.","Torrance","CA","United States","33.7947766099999995503821992315","-118.335513300000002345768734813",4bf58dd8d48988d171941735,810,555,5
4bd75c995cf276b079179b00,"7-Eleven",http://www.7-eleven.com,0,(310) 548-5086,"1700 W 25th St","San Pedro","CA","United States","33.7243704343568140302522806451","-118.315026959952589891145180445",4d954b0ea243a5684a65b473,471,168,0
4be215551dd22d7f3b5693bd,"Del Taco",http://www.deltaco.net/,1,(310) 257-6861,"1229 Pacific Coast Hwy","Harbor City","CA","United States","33.7899200000000021759660739917","-118.298609999999996489350451156",4bf58dd8d48988d16e941735,742,281,3
4b5cb3faf964a520683f29e3,"PV Palace Seafood Restaurant",,0,(310) 326-3228,"2166 Pacific Coast Hwy","Lomita","CA","United States","33.7893139999999974065758578945","-118.319407999999995695361576509",4bf58dd8d48988d1f5931735,865,415,9
4bc9301e3740b713a66e5e65,"7-Eleven",http://www.7-eleven.com,0,(310) 547-3757,"1519 N Gaffey St","San Pedro","CA","United States","33.7588128732479120230891567189","-118.293113507360615699326444883",4d954b0ea243a5684a65b473,1057,245,1
528921e4498e0e48af11e7fc,"Starbucks",http://www.starbucks.com,0,(310) 265-7230,"31202 Palos Verdes Dr. West","Rancho Palos Verdes","CA","United States","33.748828170000003012773959199","-118.407113300000006006484909449",4bf58dd8d48988d16d941735,1867,719,15
4a8b4a5bf964a520110c20e3,"Starbucks",http://www.starbucks.com/,1,(310) 265-8071,"550 Deep Valley Dr","Rolling Hills Estates","CA","United States","33.7713439999999991414370015264","-118.373031999999994923200574704",4bf58dd8d48988d1e0931735,2975,735,10
4bfd763ef7c82d7f2d398e04,"Starbucks",http://www.starbucks.com/,1,(310) 544-3942,"7 Peninsula Ctr","Rolling Hills Estates","CA","United States","33.7748387056928578431325149722","-118.376009446001631886247196235",4bf58dd8d48988d1e0931735,2577,609,7
4a861c3cf964a5207a0020e3,"Red Onion",http://originalredonion.com/,1,(310) 377-5660,"736 Silver Spur Rd","Rolling Hills Estates","CA","United States","33.7709629666666657499263237696","-118.368921180000000958898453973",4bf58dd8d48988d1c1941735,1925,797,25
4b78afeaf964a520d2dd2ee3,"Nelson's",http://www.terranea.com/palos-verdes-restaurant.php,1,(310) 265-2800,"100 Terranea Way","Rancho Palos Verdes","CA","United States","33.7367244053132608883061038796","-118.39901447296142578125",4bf58dd8d48988d14e941735,4220,2893,59
4b37b830f964a520fe4425e3,"Trump National Golf Club",http://www.trumpnationallosangeles.com,1,(310) 265-5000,"1 Ocean Trails Dr.","Rancho Palos Verdes","CA","United States","33.7299880527206354940972232725","-118.349547770619381026335759088",4bf58dd8d48988d1e6941735,3946,2701,24
57317880498ebf2e97f4901e,"The Habit Burger Grill",http://t.co/PuJauMBn4S,0,(310) 377-2044,"4-B Peninsula Center","Rolling Hills Estates","CA","United States","33.7760582499999983951965987217","-118.376292599999999310966813937",4bf58dd8d48988d16c941735,124,58,0
55f5ac9f498ef67f38a0e6e9,"Good Stuff Restaurant",,0,,"550 Deep Valley Dr Ste 151","Rolling Hills Estates","CA","United States","33.7720429099713044251984683797","-118.373789724092873143490578514",4bf58dd8d48988d157941735,228,120,5
4bb80cdeb35776b05d99c801,"mar'sel",http://www.mar-sel.com,1,(310) 265-2836,"100 Terranea Way","Rancho Palos Verdes","CA","United States","33.7387586158948096226595225744","-118.39691162109375",4bf58dd8d48988d14e941735,952,737,20
4cb5f1c364998cfa0fb811a2,"Starbucks",http://www.starbucks.com/,1,(310) 530-2034,"24427 Crenshaw Blvd","Torrance","CA","United States","33.7892038903896150259242858738","-118.340553165064548579721304122",4bf58dd8d48988d1e0931735,454,42,1
4b36f3aff964a520883e25e3,"7-Eleven",http://www.7-eleven.com,0,(310) 541-8051,"28041 Hawthorne Blvd","Rancho Palos Verdes","CA","United States","33.7793509698973082322481786832","-118.390930465636841972809634171",4d954b0ea243a5684a65b473,560,144,2
4b9c54e9f964a520336036e3,"Pho Hana",,0,(310) 541-1227,"55 Peninsula Ctr","Rolling Hills Estates","CA","United States","33.7737513660962704875601048116","-118.376306167531922142188705038",4bf58dd8d48988d14a941735,635,205,5
4ecc5167cc21561611c55159,"Chicken Maison",http://chickenmaison.com,1,(310) 541-8080,"50 Peninsula Ctr","Rolling Hills Estates","CA","United States","33.7744686600200481052524992265","-118.375204871524076111199974548",4bf58dd8d48988d1c0941735,936,246,10
4bc75d5d15a7ef3b904279da,"Palos Verdes Golf Club",,0,,"","Palos Verdes Peninsula","CA","United States","33.7953196901096930560015607625","-118.373447347924823702669527847",4bf58dd8d48988d1e6941735,712,391,1
4b23fb71f964a520555e24e3,"The Appetizer",http://theappetizerrollinghills.com,1,(310) 541-1411,"700 Deep Valley Dr","Rolling Hills Estates","CA","United States","33.7702404738612571577505150344","-118.37069119438012876344146207",4bf58dd8d48988d110941735,593,219,13
4fa1d951e4b0ff8e7fc0b042,"Bashi",,1,,"100 Terranea Way Rancho Palos Verdes","Rancho Palos Verdes","CA","United States","33.7381680000000017116690287367","-118.397148000000001388798409607",4bf58dd8d48988d142941735,610,478,10
5155006be4b04d96b378729a,"Avenue Italy",http://www.avenueitaly.com,0,(310) 377-3940,"31243 Palos Verdes Dr W","Rancho Palos Verdes","CA","United States","33.748200371746946757411933504","-118.406443494839464847245835699",4bf58dd8d48988d110941735,254,192,8
4fd4dba8e4b0d4325552c604,"Yellow Vase",,1,,"","Rancho Palos Verdes","CA","United States","33.7480208101563192713001626544","-118.406991188619102217671752442",4bf58dd8d48988d16a941735,672,358,13
4b3fe428f964a52069b125e3,"Saint Honore Bistro Caffe",,0,(310) 544-3100,"2201 Palos Verdes Dr W","Palos Verdes Estates","CA","United States","33.7758886814117431640625","-118.41782899999999756346369395",4bf58dd8d48988d16d941735,375,175,7
4b4534b3f964a520f50726e3,"Sea Beans",,0,(310) 698-1470,"6610 Palos Verdes Dr S","Rancho Palos Verdes","CA","United States","33.7386845259413021835825929884","-118.397845608660631455677503254",4bf58dd8d48988d1e0931735,973,486,10
4c16bdca955976b00b0ca5f6,"HoneyBaked Ham Company",http://www.honeybaked.com,1,(310) 326-7603,"2861 Pacific Coast Hwy","Torrance","CA","United States","33.795017792845754911468247883","-118.336352474548192503789323382",4bf58dd8d48988d14e941735,200,149,2
4b5a0a08f964a52056a928e3,"Lamppost Pizza",http://www.lamppost-backstreet.com,1,(310) 325-4864,"2955 Rolling Hills Rd","Torrance","CA","United States","33.7905378128673845594676095061","-118.341340782911771611907170154",4bf58dd8d48988d1ca941735,1121,368,15
4bc0b415b492d13aa2afa460,"Catalina Kitchen",http://www.terranea.com,1,(310) 265-2836,"100 Terranea Way","Rancho Palos Verdes","CA","United States","33.7384374279571090937679400668","-118.39729785919189453125",4bf58dd8d48988d14e941735,2497,1597,33
5253110811d254ca4a0f2f49,"Starbucks",http://www.starbucks.com/,0,(310) 377-6941,"30019 Hawthorne Blvd","Rancho Palos Verdes","CA","United States","33.7606039518690081990826001856","-118.394439422872054024082899559",4bf58dd8d48988d1e0931735,72,29,1
4bae7e07f964a52006b93be3,"Yummy Yogurt",,0,(310) 377-0595,"5314 Drybank Dr","Rolling Hills Estates","CA","United States","33.7717129999999983169800543692","-118.372147999999995704456523526",4bf58dd8d48988d1d0941735,413,155,2
5775c455498e7af40dcb0987,"Chipotle Mexican Grill",,0,,"4C Peninsula Center","Rolling Hills Estates","CA","United States","33.7761240000000029226612241473","-118.375600000000005707079253625",4bf58dd8d48988d153941735,37,15,0
55670e81498e7537791015d1,"El Pollo Inka",,0,(310) 377-3477,"550 Deep Valley Dr","Rolling Hills Estates","CA","United States","33.77285158213282301176150213","-118.374503005537050626116979402",4eb1bfa43b7b52c0e1adc2e8,73,63,4
4bf6929b4d5f20a1e18199fe,"Noah's Bagels",http://www.noahs.com,1,(310) 541-7824,"895 Silver Spur Rd","Rolling Hills Estates","CA","United States","33.7694293300000012436612450983","-118.366845999999995342477632221",4bf58dd8d48988d179941735,833,286,3
4b65f865f964a520c10b2be3,"Rubio's",http://www.rubios.com,1,(310) 265-7718,"550 Deep Valley Dr","Rolling Hills Estates","CA","United States","33.7721090000000003783497959375","-118.373509999999996011865732726",4bf58dd8d48988d1c1941735,856,346,3
4be9f1ad61aca593f1388300,"Tomatillo Mexican Grill",,1,,"","Rancho Palos Verdes","CA","United States","33.7486165430904847539750335272","-118.405918619951734171991120093",4bf58dd8d48988d1c1941735,154,81,3
56ea0520498e79b8ae0c7937,"Tacos Super Gallito",,0,,"","San Pedro","CA","United States","33.7333009477470682213606778532","-118.4364327920148127759603085",4bf58dd8d48988d151941735,9,8,0
4ea7a753dab48494d885e545,"In-N-Out Burger",http://www.in-n-out.com,1,(800) 786-1000,"799 E Spring St","Signal Hill","CA","United States","33.8120628597698384965042350814","-118.183441899832985200191615149",4bf58dd8d48988d16c941735,6808,2996,47
4b645b19f964a520e7ac2ae3,"Starbucks",http://www.starbucks.com/,1,(562) 595-9336,"1788 E Willow St","Signal Hill","CA","United States","33.8041180000000025529516278766","-118.169934999999995284269971307",4bf58dd8d48988d1e0931735,7661,1582,29
54667f0b498e762c1d972631,"Starbucks",http://www.starbucks.com,0,(562) 988-9304,"999 Spring Street","Signal Hill","CA","United States","33.8119960000000006061782187317","-118.181110000000003878994903062",4bf58dd8d48988d1e0931735,833,239,6
4a58f43cf964a52049b81fe3,"Jongewaard's Bake N Broil",http://www.bakenbroil.com/,1,(562) 595-0396,"3697 Atlantic Ave","Long Beach","CA","United States","33.824164805139680822776426794","-118.185184245259762292334926315",4bf58dd8d48988d16a941735,4538,1697,95
4ac7f20df964a520c4ba20e3,"Starbucks",http://www.starbucks.com/,1,(562) 290-0711,"141 E Willow St","Long Beach","CA","United States","33.8054229999999975575519783888","-118.190653999999994994141161442",4bf58dd8d48988d1e0931735,3462,980,19
4b72dd63f964a520468c2de3,"Starbucks",http://www.starbucks.com/,1,(562) 423-7900,"4406 Atlantic Ave","Long Beach","CA","United States","33.837238999999996735823515337","-118.184724000000002774868335109",4bf58dd8d48988d1e0931735,3515,832,13
4b57c1eef964a520923f28e3,"McDonald's",http://mcdonalds.com,1,(562) 426-8440,"2599 Long Beach Blvd","Long Beach","CA","United States","33.8041410251676737175330345053","-118.189822797335025938991748262",4bf58dd8d48988d16e941735,1374,426,9
4baa3b6df964a520e1553ae3,"McDonald's",http://mcdonalds.com,1,(562) 421-5526,"2727 Carson St","Long Beach-Lakewood","CA","United States","33.832703462295768304102239199","-118.159611225128173828125",4bf58dd8d48988d16e941735,985,358,7
4cb27fe33f0676b07472fd0c,"Northgate Gonzalez Markets",http://www.northgatemarkets.com,1,(562) 599-5075,"2120 Pacific Ave","Long Beach","CA","United States","33.7957953487334776809802860953","-118.193158821863676166685763747",4bf58dd8d48988d118951735,848,210,6
4bd888e151170f472c9033e4,"7-Eleven",http://www.7-eleven.com,0,(562) 634-0424,"5315 Paramount Blvd","Lakewood","CA","United States","33.8540561965012614109582500532","-118.160578930337763381430704612",4d954b0ea243a5684a65b473,738,212,5
551f89d8498ee3db6d0dedb0,"Weiland Brewery Restaurant",http://weilandbrewery-hub.com,0,(562) 595-5700,"4354 Atlantic Ave","Long Beach","CA","United States","33.8357005391970062646578298882","-118.184824352396802282783028204",4bf58dd8d48988d14e941735,279,135,6
4c40bbd7ff711b8d35da1005,"Pho Long Beach",,0,,"511 W Willow St","Long Beach","CA","United States","33.804456389121440906819771044","-118.198488330092374098967411555",4bf58dd8d48988d14a941735,1216,314,17
53219c27498ea23c1b3ccf4e,"7-Eleven",http://www.7-eleven.com,0,(310) 933-8570,"1560 S Long Beach Blvd","Compton","CA","United States","33.8815586190978592640021815896","-118.204451559042311714620154817",4d954b0ea243a5684a65b473,106,28,0
4bf74774c07c9c74579dbbef,"7-Eleven",http://www.7-eleven.com,0,(562) 595-9113,"4550 Orange Ave","Long Beach","CA","United States","33.8415578985308727055780764204","-118.176186699102771626712637953",4d954b0ea243a5684a65b473,413,150,4
4bf1cda33fa220a114bc1820,"Del Taco",http://www.deltaco.net/,1,(562) 997-9454,"1801 E Willow St","Signal Hill","CA","United States","33.8048976834087184784038981888","-118.16958904266357421875",4bf58dd8d48988d16e941735,1355,463,11
4c7c09a0df08a1cd7f44e25d,"Del Taco",http://www.deltaco.com,1,(562) 997-2968,"2120 E Carson St","Long Beach","CA","United States","33.8321798755209499631746439263","-118.165863454341888427734375",4bf58dd8d48988d151941735,794,287,8
4ae4d70bf964a520a99e21e3,"I Luv Sushi",http://iluvsushi.com,1,(562) 421-8917,"3215 Carson St","Lakewood","CA","United States","33.8326988377285005071826162748","-118.15564769254083898886165116",4bf58dd8d48988d1d2941735,3175,1265,46
552adc5b498e7628b33c2d09,"steelhead coffee",,0,,"1208 E Wardlow Rd","Signal Hill","CA","United States","33.8188230000000018549144442659","-118.175983999999999696228769608",4bf58dd8d48988d1e0931735,480,159,7
4c112660ce640f4792173b52,"7-Eleven",http://www.7-eleven.com,0,(562) 423-8874,"5000 Long Beach Blvd","Long Beach","CA","United States","33.8471529194751212799019413069","-118.193430665825644609867595136",4d954b0ea243a5684a65b473,814,191,3
4d2e98cfb97cb1f780eb9048,"Papa John's Pizza",http://www.papajohns.com,1,(562) 424-6900,"141 E Willow St","Long Beach","CA","United States","33.805202409843090549657063093","-118.191022402612830433099588845",4bf58dd8d48988d1ca941735,167,53,2
555906f0498e63ff8da0af72,"Long Beach Creamery",http://longbeachcreamery.com,0,(562) 513-3493,"4141 Long Beach Blvd","Long Beach","CA","United States","33.8334682252709697536374733318","-118.189434351936441203179128934",4bf58dd8d48988d1c9941735,480,177,10
4e551e3322710ebb5a92a025,"Blackbird Cafe",,0,(562) 490-2473,"3405 Orange Ave","Long Beach","CA","United States","33.8190319999999999822648533154","-118.176322999999996454789652489",4bf58dd8d48988d14e941735,2055,972,46
53934f9f498e1437ff564e2a,"Starbucks",http://www.starbucks.com,0,(310) 608-4835,"1759 South Alameda","Compton","CA","United States","33.8768528200000034189542930108","-118.217885999999992918674251996",4bf58dd8d48988d1e0931735,352,123,1
561970b7498eb6bec1de89cc,"Fish-O-Licious",,0,,"2594 Cherry Ave","Signal Hill","CA","United States","33.8038236582052391554498171899","-118.167217251312919756855990272",4bf58dd8d48988d1ce941735,198,71,2
5490ace6498e12011ad89f53,"Black Bear Diner",http://t.co/IB9EDAf8xZ,1,(562) 513-7001,"1898 E Willow St","Signal Hill","CA","United States","33.8040483034789431826538930181","-118.168992150926214890205301344",4bf58dd8d48988d14e941735,2246,1025,42
4bafb726f964a520571a3ce3,"Polly's Pies - Long Beach, Atlantic Blvd.",http://www.pollyspies.com,1,(562) 595-5651,"3490 Atlantic Ave.","Long Beach","CA","United States","33.8199851999999978602318151388","-118.184691299999997227132553235",4bf58dd8d48988d14e941735,1646,589,22
58031c75d67c4ebf6901e651,"Rasselbock",,0,(562) 912-4949,"4020 Atlantic Ave","Long Beach","CA","United States","33.8313220774909524379836511798","-118.1848253309726715087890625",4bf58dd8d48988d10d941735,50,35,0
4b730521f964a5203e962de3,"Carl's Jr.",http://carlsjr.com,1,(562) 981-9192,"271 E Willow St","Long Beach","CA","United States","33.8046816661261217973333259579","-118.189668561766552556946408004",4bf58dd8d48988d16e941735,773,327,4
4b369f8cf964a520533925e3,"Heritage Family Pantry",,0,(562) 421-1442,"2601 Carson St","Lakewood","CA","United States","33.8326165693933802458559512161","-118.16085040569305419921875",4bf58dd8d48988d147941735,2188,910,40
4bb0a3b1f964a52059513ce3,"McDonald's",http://mcdonalds.com,1,(562) 424-8500,"2599 Cherry Ave","Signal Hill","CA","United States","33.803951913677309448758023791","-118.168217053510645087044395041",4bf58dd8d48988d16e941735,1038,456,11
4a664ad8f964a52057c81fe3,"Mitsuwa Marketplace",http://www.mitsuwa.com/,0,(310) 782-0335,"21515 S Western Ave","Torrance","CA","United States","33.8338571355256405581712897401","-118.30989029339082208025502041",4bf58dd8d48988d118951735,13564,4795,50
4bb26ed9715eef3b743885bb,"Starbucks",http://www.starbucks.com/,1,(310) 618-8339,"1450 W 190th St","Torrance","CA","United States","33.858027999999997348368196981","-118.302987000000001671651261859",4bf58dd8d48988d1e0931735,6557,1594,14
4b731a3ef964a5208f9b2de3,"Starbucks",http://www.starbucks.com/,1,(310) 816-2972,"208 Sepulveda Blvd.","Carson","CA","United States","33.8077699999999978786036081146","-118.272137000000000739419192541",4bf58dd8d48988d1e0931735,4436,773,5
4ad8dacef964a520521521e3,"Nijiya Market",http://www.nijiya.com,0,(310) 366-7200,"2121 W 182nd St","Torrance","CA","United States","33.8660184442146601213607937098","-118.316871550496472309532691725",4bf58dd8d48988d118951735,3245,727,15
4b748f8df964a52024e42de3,"Starbucks",http://www.starbucks.com/,0,(310) 530-2034,"24325 Crenshaw Blvd","Torrance","CA","United States","33.8043633550549955657515965868","-118.330005581137683634551649448",4bf58dd8d48988d1e0931735,3924,762,18
4bb4cb79613fb713213294e6,"Starbucks",http://www.starbucks.com/,1,(310) 891-1915,"898 Sepulveda Blvd","Harbor City","CA","United States","33.8097929999999990968717611395","-118.290023000000005026777216699",4bf58dd8d48988d1e0931735,4940,1287,24
4ac7a06bf964a52094b820e3,"Krispy Kreme Doughnuts",http://www.krispykreme.com,1,(310) 532-5281,"1199 W Artesia Blvd","Gardena","CA","United States","33.8729097977140085617975273635","-118.2929706573486328125",4bf58dd8d48988d148941735,4061,2089,38
5679824a498e64cc8c41f328,"In-N-Out Burger",http://www.in-n-out.com,0,(800) 786-1000,"1701 W Artesia Blvd","Gardena","CA","United States","33.8731175165226403578344616108","-118.307584075031201109595713206",4bf58dd8d48988d16c941735,510,255,1
4aec7fd8f964a520f1c721e3,"King's Hawaiian Bakery & Restaurant",http://www.kingshawaiian.com,1,(310) 530-0050,"2808 Sepulveda Blvd","Torrance","CA","United States","33.822899603362593268229829846","-118.334885537624359130859375",4bf58dd8d48988d16a941735,9940,4927,95
4a5a49b9f964a52013ba1fe3,"In-N-Out Burger",http://www.in-n-out.com,1,(800) 786-1000,"24445 Crenshaw Blvd","Torrance","CA","United States","33.8028566099999991934055287857","-118.328546160000001918888301589",4bf58dd8d48988d16c941735,7008,3018,56
56ec46eb498e574e06650854,"The Coffee Bean & Tea Leaf",http://www.coffeebean.com,0,(310) 257-4903,"1307 Sepulveda Blvd","Torrance","CA","United States","33.8141922137308625906371162273","-118.299911677674373322588508017",4bf58dd8d48988d1e0931735,256,68,0
5241aaad11d23fcc6c91ae89,"Starbucks",http://www.starbucks.com/,0,(310) 534-4907,"1680 Lomita Blvd","Harbor City","CA","United States","33.7975124071404735559553955682","-118.307093143316450323254684918",4bf58dd8d48988d1e0931735,1312,187,3
4b54ddcaf964a52072d027e3,"Vons",,0,(310) 784-1020,"24325 Crenshaw Blvd","Torrance","CA","United States","33.8051874199607027549063786864","-118.33002269268035888671875",52f2ab2ebcbc57f1066b8b46,4375,923,9
4b29ad23f964a52071a224e3,"The Local Place Bakery & Cafe",http://www.kingshawaiianrestaurants.com,1,(310) 523-3233,"18605 S Western Ave","Gardena","CA","United States","33.8617200699999969515374687035","-118.309467999999995413418218959",4bf58dd8d48988d16d941735,4751,1989,38
4b5d0e4df964a520ab5029e3,"Starbucks",http://www.starbucks.com/,1,(310) 769-5849,"20810 Avalon Blvd","Carson","CA","United States","33.8416309999999995739017322194","-118.262325000000004138200893067",4bf58dd8d48988d1e0931735,3804,1271,22
53f156a2498e96ff1055ce29,"Gen Korean BBQ",,0,(424) 328-0388,"24301 Crenshaw Blvd","Torrance","CA","United States","33.8054961467666217345140466932","-118.328356034786040140716067981",4bf58dd8d48988d113941735,1780,974,24
4b23d46af964a520a85a24e3,"Starbucks",http://www.starbucks.com/,1,(310) 771-0524,"1759 W. Artesia Blvd.","Gardena","CA","United States","33.8731549999999970168573781848","-118.308848999999995044163370039",4bf58dd8d48988d1e0931735,5089,1173,12
4b55db5af964a5202af327e3,"Starbucks",http://www.starbucks.com/,1,(310) 324-4012,"20240 Avalon Blvd","Carson","CA","United States","33.8477850000000017871570889838","-118.264379000000005248693923932",4bf58dd8d48988d1e0931735,1957,675,10
4b550fc3f964a520bad927e3,"Starbucks",http://www.starbucks.com/,0,(310) 516-6449,"335 E Albertoni St","Carson","CA","United States","33.8718349999999972510522638913","-118.270444999999995161488186568",4bf58dd8d48988d1e0931735,2772,690,9
4af0e0d5f964a520dddf21e3,"Starbucks",http://www.starbucks.com/,1,(310) 212-3150,"2370 Crenshaw Blvd","Torrance","CA","United States","33.8236169999999987112460075878","-118.3282329999999973324520397",4bf58dd8d48988d1e0931735,3926,971,9
4bcb8047511f9521b1a2b1c7,"Food 4 Less",http://www.food4less.com/,0,(310) 768-3095,"1299 W Artesia Blvd","Gardena","CA","United States","33.8734498013308851227520790417","-118.294442599681886463258706499",4bf58dd8d48988d118951735,1350,484,12
4b50d345f964a520d93327e3,"McDonald's",http://mcdonalds.com,1,(310) 538-4977,"1398 W Artesia Blvd","Gardena","CA","United States","33.8725436668397321682277834043","-118.298478773410707276525499765",4bf58dd8d48988d16e941735,1368,540,5
4be4644b910020a1dba5d114,"McDonalds",http://mcdonalds.com,1,(310) 539-3102,"931 Sepulveda Blvd","Torrance","CA","United States","33.8109384568595601194829214364","-118.29126268957048750962712802",4bf58dd8d48988d16e941735,1160,377,6
4b800f7bf964a5208d4e30e3,"Giuliano's Delicatessen & Bakery",http://www.giulianosgardena.com,1,(310) 323-6990,"1138 W Gardena Blvd","Gardena","CA","United States","33.8814073399030846189816656988","-118.294710919719236130731587764",4bf58dd8d48988d146941735,2723,829,29
4b6da3aef964a5206f822ce3,"California Fish Grill",http://www.cafishgrill.com,1,(310) 225-2777,"1425 Artesia Blvd","Gardena","CA","United States","33.8729099999999974102138367016","-118.299869999999998526618583128",4bf58dd8d48988d1ce941735,3349,1317,42
5740af19498eb87fd2d8dfcb,"Green Door Powered by Intelligentsia",,0,(424) 570-0095,"714 E Carson St","Carson","CA","United States","33.8314824975171362098080862779","-118.263195455074310302734375",4bf58dd8d48988d1e0931735,258,76,0
4cfd536bdccef04d7bf0c49c,"Rascals Teriyaki Grill",http://rascalsteriyaki.com,1,(310) 516-8814,"1540 W Artesia Blvd","Gardena","CA","United States","33.8726750000000009777068044059","-118.303970000000006734808266629",4bf58dd8d48988d16e941735,2994,1136,29
4b7c5641f964a5202e8d2fe3,"Starbucks",http://www.starbucks.com/,1,(310) 618-1899,"20806 Figeroa Street","Carson","CA","United States","33.8413129999999995334292179905","-118.285422999999994431163941044",4bf58dd8d48988d1e0931735,3970,911,16
57981c41498e04a35ca350f0,"Kang Ho-Dong Baekjeong",,0,,"1725 W Carson St Ste A","Torrance","CA","United States","33.8319600000000022532731236424","-118.310061000000004582943802234",4bf58dd8d48988d113941735,179,148,3
4b9aacbef964a520e4cb35e3,"McDonald's",http://mcdonalds.com,1,(310) 320-2097,"1452 W Carson St","Torrance","CA","United States","33.83116932000000076641299529","-118.303439999999994824975146912",4bf58dd8d48988d16e941735,1018,429,9
581e88ba8d169071e5914a8c,"Din Tai Fung",,0,,"21540 Hawthorne Blvd Ste 519","Torrance","CA","United States","33.8333099999999973306330502965","-118.350440000000006079972081352",4bf58dd8d48988d142941735,328,214,3
4e9cf90d77c815a0f5999883,"In-N-Out Burger",http://www.in-n-out.com,1,(800) 786-1000,"20150 Hawthorne Blvd","Torrance","CA","United States","33.8488729163251562681580253411","-118.35326671600341796875",4bf58dd8d48988d16c941735,6295,3194,42
4ee802d94901e2d619170b9f,"Chick-fil-A South Bay",https://www.chick-fil-a.com/Locations/CA/South-Bay,1,(310) 371-7320,"18200 Hawthorne Blvd","Torrance","CA","United States","33.8652644300160261536802863702","-118.352146778895289003230573144",4bf58dd8d48988d16e941735,5192,2029,42
4aafb98ff964a520936420e3,"Starbucks",http://www.starbucks.com/,1,(310) 542-1072,"5050 190th Street","Torrance","CA","United States","33.8577599999999989677235134877","-118.365179999999995175130607095",4bf58dd8d48988d1e0931735,5069,1291,14
4c2199e413c00f47644686de,"Whole Foods Market",http://www.wholefoodsmarket.com/stores/redondobeach?s=RDB,0,(310) 376-6931,"405 N Pacific Coast Hwy","Redondo Beach","CA","United States","33.8476455789332462131824286189","-118.389241575492761171517486218",4bf58dd8d48988d118951735,3988,1255,17
45184de2f964a520513a1fe3,"The Kettle Restaurant",http://thekettle.net,1,(310) 545-8511,"1138 Highland Ave","Manhattan Beach","CA","United States","33.8853140000000010445546649862","-118.40973900000000185173121281",4bf58dd8d48988d14e941735,9582,5596,104
4f77b311e4b0f52db96210ab,"Chick-fil-A Del Amo",https://www.chick-fil-a.com/Locations/CA/Del-Amo-In-Line,1,(310) 542-4636,"21821 Hawthorne Blvd","Torrance","CA","United States","33.8297144162183514026764896698","-118.352729476696396204715711065",4d4ae6fc7a7b7dea34424761,2601,1076,19
4e3dfd751838cb1b82f92cf4,"The Strand House",http://www.thestrandhousemb.com,1,(310) 545-7470,"117 Manhattan Beach Blvd","Manhattan Beach","CA","United States","33.8846227344905983613898570184","-118.411230049624023763499280903",4bf58dd8d48988d14e941735,7080,4793,73
4ed6b31af9f4cc24481d61e8,"Two Guns Espresso",http://twogunsespresso.com,1,(310) 318-2537,"350 N Sepulveda Blvd Ste 7","Manhattan Beach","CA","United States","33.8813026318478804910228063818","-118.395586236873128882507444359",4bf58dd8d48988d1e0931735,3662,1145,42
4ecbe190754a4b6910d56833,"UFC Gym",http://www.ufcgym.com/locations/torrance,0,(310) 697-8090,"19800 Hawthorne Blvd #224","Torrance","CA","United States","33.8521875215215857224393403158","-118.35343837738037109375",4bf58dd8d48988d176941735,10966,654,14
4be04bd698f2a593b5a6c15a,"McDonald's",http://mcdonalds.com,1,(310) 370-6511,"19009 Hawthorne Blvd","Torrance","CA","United States","33.8579085143424975967718637548","-118.35425605002849636093742447",4bf58dd8d48988d16e941735,1651,783,13
542223d9498e7f9729057b20,"The Cheesecake Factory",http://locations.thecheesecakefactory.com/ca/redondo-beach-3.html,0,(310) 376-0466,"604 N. Harbor","Redondo Beach","CA","United States","33.8468033257408080771710956469","-118.395124088891236624476732686",4bf58dd8d48988d14e941735,1247,857,14
46487f39f964a520a2461fe3,"Starbucks",http://www.starbucks.com/,1,(310) 316-2719,"21035 Hawthorne Blvd","Torrance","CA","United States","33.837124355137177644792245701","-118.355420258849392212141538039",4bf58dd8d48988d1e0931735,6209,1659,14
4b8da213f964a520780533e3,"Starbucks",http://www.starbucks.com/,1,(310) 214-7808,"1815 Hawthorne Blvd","Redondo Beach","CA","United States","33.8725558312823977757943794131","-118.352178716283788162400014699",4bf58dd8d48988d1e0931735,6407,2203,19
52869068498e3289da674680,"Starbucks",http://www.starbucks.com/,1,(310) 372-7599,"1100 Pacific Coast Hwy","Hermosa Beach","CA","United States","33.8634273228822522128211858217","-118.3921229487719841699799872",4bf58dd8d48988d1e0931735,1433,351,4
4d9a5b907fedb60c8f1eef46,"Manhattan Beach Post",http://www.eatmbpost.com,1,(310) 545-5405,"1142 Manhattan Ave","Manhattan Beach","CA","United States","33.885232702639420665491343243","-118.410807879859135027800220996",4bf58dd8d48988d157941735,9133,5849,131
4a458036f964a52046a81fe3,"Lazy Dog Restaurant & Bar",http://www.lazydogrestaurants.com,0,(310) 921-6080,"3525 W Carson St #162","Torrance","CA","United States","33.8334030583426965677062980831","-118.347194194793701171875",4bf58dd8d48988d14e941735,7609,3535,91
4ada7b4bf964a520f02221e3,"BJ's Restaurant and Brewhouse",http://t.co/bl46gcjDLN,1,(310) 802-6440,"3525 W Carson St","Torrance","CA","United States","33.8323870799999966152427077759","-118.347344399999997222039382905",4bf58dd8d48988d14e941735,9053,4275,74
4b0d85e5f964a520214a23e3,"The Coffee Bean & Tea Leaf",http://www.coffeebean.com,1,(310) 542-5401,"20301 Hawthorne Blvd","Torrance","CA","United States","33.8483781799999974282400216907","-118.354032300000000077488948591",4bf58dd8d48988d1e0931735,4529,1034,20
4ae8d1c3f964a52098b221e3,"Starbucks",http://www.starbucks.com/,1,(310) 540-2806,"4437 Sepulveda Blvd","Torrance","CA","United States","33.8263820000000023924258130137","-118.359561999999996828591974918",4bf58dd8d48988d1e0931735,4815,956,25
4b1742cef964a52054c423e3,"Starbucks",http://www.starbucks.com/,1,(310) 798-1567,"300 N Pacific Coast Hwy","Redondo Beach","CA","United States","33.8453629999999989763637131546","-118.387054000000006226400728337",4bf58dd8d48988d1e0931735,4641,1097,14
432a0b00f964a520d4271fe3,"Baja Sharkeez",http://sharkeez.net/hermosa-beach,1,(310) 318-0004,"52 Pier Ave","Hermosa Beach","CA","United States","33.8620299384147998011940217111","-118.40056708422255837831471581",4bf58dd8d48988d1c1941735,15202,6414,85
4b09847bf964a520a01823e3,"Starbucks",http://www.starbucks.com/,1,(310) 318-5886,"1904 Artesia Blvd","Redondo Beach","CA","United States","33.8726500748312773225734417792","-118.378485913482592195578035899",4bf58dd8d48988d1e0931735,5389,987,19
42893400f964a52076231fe3,"Starbucks",http://www.starbucks.com/,1,(310) 540-9080,"1749 S Elena Ave","Redondo Beach","CA","United States","33.8185052079214329978640307672","-118.38564121576287391235382529",4bf58dd8d48988d1e0931735,3910,1045,16
4b5739bdf964a520fe2b28e3,"Del Taco",http://deltaco.com/,1,(800) 852-7204,"20135 Hawthorne Blvd","Torrance","CA","United States","33.8489203789141868128353962675","-118.354284584654507739287510049",4bf58dd8d48988d1c1941735,2150,657,12
563e767ccd10564a7f45b25e,"Great Maple",http://thegreatmaple.com,0,(310) 542-1001,"21434 Hawthorne Blvd","Torrance","CA","United States","33.8341504919526556705022812821","-118.351168574970088798181677703",52e81612bcbc57f1066b79f1,627,419,7
4aa017d1f964a520403e20e3,"Starbucks",http://www.starbucks.com/,1,(310) 791-9966,"3737 Pacific Coast Hwy","Torrance","CA","United States","33.805165000000002351043804083","-118.350736999999995191501511727",4bf58dd8d48988d1e0931735,4608,1174,11
4a9abeccf964a520753220e3,"The Original Pancake House",http://originalpancakehouse.com/,1,(310) 543-9875,"1756 S Pacific Coast Hwy","Redondo Beach","CA","United States","33.8178056092790413345028355252","-118.381633758544921875",4bf58dd8d48988d143941735,3977,2079,64
4b04880df964a520ec5422e3,"Starbucks",http://www.starbucks.com/,0,(310) 406-8569,"1303 Hermosa Avenue","Hermosa Beach","CA","United States","33.8630550000000027921487344429","-118.400409999999993715391610749",4bf58dd8d48988d1e0931735,3923,1477,8
4b5b607df964a5200bf928e3,"Marukai Market Place",http://www.marukai-market.com,1,,"3832 Sepulveda Blvd","Torrance","CA","United States","33.8250801800000004959656507708","-118.352617895443074758077273145",52f2ab2ebcbc57f1066b8b46,2356,866,8
5005edade4b052ccd45e9925,"Hosteria",,0,,"","Santa Monica","CA","United States","33.8390337038337492003847728483","-118.473283081296699492668267339",4bf58dd8d48988d110941735,12,12,1
523256792fc673ebf3ab6297,"In-N-Out Burger",http://www.in-n-out.com,0,(800) 786-1000,"4601 Firestone Blvd","South Gate","CA","United States","33.9528192811820375140996475238","-118.188240448114015634928364307",4bf58dd8d48988d16c941735,770,488,8
5700e34f498eed2c9bdec26a,"7-Eleven",http://www.7-eleven.com,0,(310) 638-1694,"2614 N Wilmington Ave","Compton","CA","United States","33.9159596930270694770115369465","-118.238476216793060302734375",4d954b0ea243a5684a65b473,66,18,0
4ba40632f964a520ed7838e3,"Starbucks",http://www.starbucks.com/,1,(323) 560-6355,"7000 Eastern Ave Ste F","Bell Gardens","CA","United States","33.9692112506338403932204528246","-118.164240663218521376620628871",4bf58dd8d48988d1e0931735,1836,557,8
4b652807f964a520cbe62ae3,"Starbucks",http://www.starbucks.com/,1,(562) 272-8038,"16280 Paramount Blvd Ste C","Paramount","CA","United States","33.8858740000000011605152394623","-118.159758999999993989149515983",4bf58dd8d48988d1e0931735,1913,477,2
4fd99b55e4b04149bc6aa277,"Starbucks",http://www.starbucks.com/,0,(310) 764-1321,"3801 Martin Luther King Jr Blvd","Lynwood","CA","United States","33.9283915856170921188095235266","-118.198773936821098118343797978",4bf58dd8d48988d1e0931735,1020,233,5
4b9d148df964a520d48d36e3,"Starbucks",http://www.starbucks.com/,1,(310) 764-4969,"10925 Atlantic Avenue","Lynwood","CA","United States","33.9320170000000018717400962487","-118.183349000000006867594493087",4bf58dd8d48988d1e0931735,2374,646,22
4b9a71fcf964a520f9b535e3,"Northgate Gonzalez Markets",http://www.northgatemarkets.com,0,(562) 259-9950,"16259 Paramount Blvd","Paramount","CA","United States","33.8865982998571055873071600217","-118.161361151282136461304617114",52f2ab2ebcbc57f1066b8b46,520,224,3
4b2e9f09f964a520bde324e3,"Starbucks",http://www.starbucks.com/,1,(323) 569-0274,"8924 Long Beach Blvd.","Southgate","CA","United States","33.9551650000000009299583325628","-118.219044999999994161044014618",4bf58dd8d48988d1e0931735,2192,533,10
4cbc579f7a5d9eb05a6131e9,"Jack in the Box",http://www.jackinthebox.com,1,(310) 631-6933,"11390 Atlantic Ave","Lynwood","CA","United States","33.9213829799999970759927236941","-118.187085980000006202317308635",4bf58dd8d48988d16c941735,299,111,1
57426f03498e85c56af63145,"Tacos El Gavilan",,0,,"","South Gate","CA","United States","33.9487799999999992905941326171","-118.16473600000000487852958031",4bf58dd8d48988d151941735,59,35,0
4bf0828d17880f47fa6b2937,"McDonald's",http://mcdonalds.com,1,(562) 928-1324,"5730 Firestone Blvd","South Gate","CA","United States","33.9488113495047230117052095011","-118.165734708309173583984375",4bf58dd8d48988d16e941735,708,302,3
4bf3523a706e20a1a62aa898,"Northgate Gonzalez Markets",http://www.northgatemarkets.com,0,(323) 562-2188,"6801 Atlantic Ave","Bell","CA","United States","33.9743637605605712792566919234","-118.188021183013916015625",4bf58dd8d48988d118951735,453,158,2
4b9cc4d3f964a520a87a36e3,"McDonald's",http://mcdonalds.com,1,(323) 587-2449,"2303 E Florence Ave","Huntington Park","CA","United States","33.9750349999999983197085384745","-118.231251999999997792656358797",4bf58dd8d48988d16e941735,392,135,2
4d7d670eea35236a00fa6a23,"Hercules Char Broiled Burgers",,0,,"","","California","United States","33.9304912090301513671875","-118.220843540000004168177838437",4bf58dd8d48988d16c941735,271,102,5
4b606aecf964a520b9e429e3,"Starbucks",http://www.starbucks.com/,1,(562) 806-8009,"8620 Garfield Ave","South Gate","CA","United States","33.9521590000000017539605323691","-118.163921999999999457031663042",4bf58dd8d48988d1e0931735,2309,626,6
549739a5498e427c85227043,"Hooters West Coast",,0,,"8730 Garfield Ave","South Gate","CA","United States","33.9511544513723180216402397491","-118.164126397782311528317222837",4bf58dd8d48988d14c941735,189,100,2
540a82d8498e51f0a4f796cf,"TGI Fridays",http://tgifridays.com,0,,"Firestone","South Gate","CA","United States","33.9525354861236863257545337547","-118.18662380922199872657074593",4bf58dd8d48988d14e941735,269,170,6
4c845b65dc018cfae4a6e06c,"Super A Foods",,0,,"8116 California Ave","South Gate","CA","United States","33.9618949932256981583122978918","-118.204331749647863603058794979",4bf58dd8d48988d118951735,585,126,4
4b68ea40f964a520f0922be3,"McDonald's",http://mcdonalds.com,1,(562) 630-1444,"7357 Alondra Blvd","Paramount","CA","United States","33.8893830805182147969389916398","-118.169216849943296665514935739",4bf58dd8d48988d16e941735,666,230,10
4c040f38f423a5932f16d116,"T&A Tacos",,0,,"7707 Wilcox Ave","Cudahy","CA","United States","33.9643698285750090803958300967","-118.178540388097346180984459352",4bf58dd8d48988d151941735,115,37,2
4b775dfff964a52098952ee3,"Starbucks",http://www.starbucks.com/,1,(323) 560-4458,"7121 Atlantic Ave","Bell","CA","United States","33.9705920000000034519871405791","-118.188383000000001743501343299",4bf58dd8d48988d1e0931735,1742,563,12
4b7f2ecef964a5203a1d30e3,"McDonald's",http://mcdonalds.com,1,,"4135 Firestone Blvd","South Gate","CA","United States","33.9535496112393317957867111545","-118.197026016237217049820173997",4bf58dd8d48988d16e941735,330,160,2
4c6f5226d7fab1f799505bc9,"McDonald's",http://mcdonalds.com,1,(323) 876-8844,"2931 E Florence Ave","Huntington Park","CA","United States","33.973616384772711285222612787","-118.21679592132568359375",4bf58dd8d48988d16e941735,1458,179,4
4bb49f245148d13adcb8523b,"Tierra Mia Coffee",http://tierramiacoffee.com,0,(323) 563-3948,"4914 Firestone Blvd","South Gate","CA","United States","33.9515809999999973456397128757","-118.182274399999997172017174307",4bf58dd8d48988d1e0931735,2873,1036,62
524b969a11d2c949b514bd2a,"Tierra Mia Coffee",http://tierramiacoffee.com,0,,"11004 Atlantic Ave","Lynwood","CA","United States","33.9301717827176148034595826175","-118.183413336646964353349176235",4bf58dd8d48988d1e0931735,680,282,19
4b81afbaf964a520d4b730e3,"El Gallo Giro",http://gallogiro.com/,1,(323) 585-4433,"7148 Pacific Blvd","Huntington Park","CA","United States","33.9743261344432596615661168471","-118.224705055614037974009988829",4bf58dd8d48988d1c1941735,517,346,12
53339ded11d2a77c6e2b1f2a,"The Buffalo Spot",,0,(310) 627-9524,"961 S Long Beach Blvd Ste 103","Compton","CA","United States","33.8880780370843410764791769907","-118.20747900307270583653007634",4bf58dd8d48988d14c941735,94,51,5
4b74c0b1f964a5202bf02de3,"Pete's Hamburgers",http://www.petes.sg.menuclub.com,0,(562) 531-7775,"13235 Paramount Blvd","South Gate","CA","United States","33.914934999999999831743480172","-118.158964999999994915924617089",4bf58dd8d48988d16c941735,555,191,6
4cd85abb8f949eb0dd2775ae,"7-Eleven",http://www.7-eleven.com,0,(323) 569-7787,"3507-11 Liberty Blvd","South Gate","CA","United States","33.9604291994591420689175720327","-118.204880445948560918623115867",4d954b0ea243a5684a65b473,489,129,0
506ca130e4b0f735c0439bc8,"Tom's Jr",,0,(310) 885-3636,"1725 N Long Beach Blvd","Compton","CA","United States","33.9076233651836531635126448236","-118.209049752341826433621463366",4bf58dd8d48988d16c941735,127,57,3
4e911c7902d5ee38b70e72a0,"Boiling Point",http://bpgroupusa.com,0,(310) 225-5533,"15488 S Western Ave Ste 112","Gardena","CA","United States","33.88916778564453125","-118.3087615966796875",52af0bd33cf9994f4e043bdd,3537,1302,34
412a8500f964a520780c1fe3,"Shin-Sen-Gumi Hakata Ramen",http://www.shinsengumiusa.com,1,(310) 329-1335,"2015 W Redondo Beach Blvd","Gardena","CA","United States","33.88762214337553047016626806","-118.314007222652435302734375",55a59bace4b013909087cb24,7831,3624,80
4ae365b7f964a5207f9421e3,"In-N-Out Burger",http://www.in-n-out.com,1,(800) 786-1000,"3411 W Century Blvd","Inglewood","CA","United States","33.9458571755644911149829567876","-118.332305786749031994986580685",4bf58dd8d48988d16c941735,4093,2660,34
4bc8cce2ab62d13aea0f18d4,"7-Eleven",http://www.7-eleven.com,0,(310) 676-4700,"3300 W 135th St","Hawthorne","CA","United States","33.9088886851919113496478530578","-118.331026217086375140752352308",4d954b0ea243a5684a65b473,751,179,7
4baeb21ff964a520abcf3be3,"Fresh and Meaty Burgers",,1,(323) 751-2247,"3016 W Florence Ave","Los Angeles","CA","United States","33.9743744735669039869208063465","-118.326244135369719856498704758",4bf58dd8d48988d14e941735,676,260,15
4b6bb36bf964a52011162ce3,"Kindle's Donuts",,0,(323) 756-8548,"10003 S Normandie Ave","Los Angeles","CA","United States","33.9452951898153543197622639127","-118.300065814066911684676597361",4bf58dd8d48988d148941735,509,181,6
55e84231498e8a2a85223a7a,"Starbucks",http://www.starbucks.com,0,(310) 508-8117,"1346 West Rosecrans Avenue","Gardena","CA","United States","33.9016949999999965825736580882","-118.300139999999998963176039979",4bf58dd8d48988d1e0931735,195,74,1
4b75769ef964a520ee0d2ee3,"Starbucks",http://www.starbucks.com/,1,(323) 756-1898,"2909 W 120th St","Hawthorne","CA","United States","33.9242080000000001405169314239","-118.32588099999999542433215538",4bf58dd8d48988d1e0931735,4312,1345,31
4c427416e26920a1242d60e7,"Food 4 Less",http://www.food4less.com/,0,(310) 609-3385,"1900 W Rosecrans Ave","Compton","CA","United States","33.9017986604089145430407370441","-118.252162645813129415728326421",4bf58dd8d48988d118951735,1033,266,4
4bfeea56369476b06f0e8d1f,"Eatalian Cafe",http://www.eataliancafe.com,1,(310) 532-8880,"15500 S Broadway","Gardena","CA","United States","33.8908305986002389431632764172","-118.27824532985687255859375",4bf58dd8d48988d110941735,4851,2411,103
4e1b9277b61cb7bbd0d40fc6,"SUBWAY",http://subway.com,0,,"","Los Angeles","CA","United States","33.9167521021272051484629628249","-118.282464819090890273400873411",4bf58dd8d48988d1c5941735,225,46,1
4be17eab8e2962b5d8579b0a,"Starbucks",http://www.starbucks.com/,1,(310) 412-1620,"3351 W Century Blvd","Inglewood","CA","United States","33.945841000000001486114342697","-118.331114999999996939550328534",4bf58dd8d48988d1e0931735,3325,850,18
4be0848f4f15c9282d82cb0b,"Popeyes Louisiana Kitchen",www.popeyes.com,1,(323) 751-9801,"8530 S Figueroa St","Los Angeles","CA","United States","33.9603314679250374297225789633","-118.282390597614877947307832073",4d4ae6fc7a7b7dea34424761,420,218,10
4aa56414f964a5202a4820e3,"Sea Empress",http://gardenaseaempress.com,1,(310) 538-6868,"1636 W Redondo Beach Blvd","Gardena","CA","United States","33.8891206249922092297310882714","-118.30524444580078125",4bf58dd8d48988d145941735,3039,1613,19
4b08aa40f964a520731023e3,"Starbucks",http://www.starbucks.com/,1,(310) 532-2262,"1258 W Redondo Beach Blvd","Gardena","CA","United States","33.891863999999998213752405718","-118.297825000000003115019353572",4bf58dd8d48988d1e0931735,2888,824,16
4b36f456f964a520953e25e3,"Lomeli's Italian Restaurant",http://www.lomelis.com,1,(310) 323-7993,"2223 W Redondo Beach Blvd","Gardena","CA","United States","33.8859321451544346359696646687","-118.31850528717041015625",4bf58dd8d48988d110941735,1686,767,16
4bafa140f964a520aa113ce3,"Burnt Tortilla",http://theburnttortilla.com,1,(310) 217-2382,"1427 W Redondo Beach Blvd","Gardena","CA","United States","33.8915948345928157436901528854","-118.301470161427332072889839765",4bf58dd8d48988d1c1941735,1388,504,14
4c1fd7d063750f47b7bfbb67,"M'Dears Bakery & Bistro",http://mdears.com,1,(323) 759-2020,"7717 S Western Ave","Los Angeles","CA","United States","33.9694280000000006225491233636","-118.309102999999993244273355231",4bf58dd8d48988d16a941735,238,110,9
4ad8bf50f964a5204b1421e3,"Spoon House",,1,(310) 538-0376,"1601 W Redondo Beach Blvd","Gardena","CA","United States","33.8900250000000013983481039759","-118.304963920000005828114808537",4bf58dd8d48988d110941735,2722,1267,49
4ca1f0f7d3c2b60c15b1e9bc,"McDonald's",http://mcdonalds.com,1,(323) 752-9363,"1420 W Manchester Ave","Los Angeles","CA","United States","33.9597667053520879676398180891","-118.300745154279582038725493476",4bf58dd8d48988d16e941735,484,195,1
4b70ab62f964a520bc282de3,"Jack in the Box",http://www.jackinthebox.com,1,(323) 242-9499,"11306 Crenshaw Blvd","Inglewood","CA","United States","33.9322046206959697656202479266","-118.32621395587921142578125",4bf58dd8d48988d16c941735,490,188,3
4bb24e2a42959c74a9a7202c,"McDonald's",http://mcdonalds.com,1,(310) 329-5511,"15235 S Figueroa St","Gardena","CA","United States","33.8930993833333360498727415688","-118.283439999999998804014467169",4bf58dd8d48988d16e941735,655,255,1
53af186d498e513b90443198,"McDonald's",,0,,"","Hawthorne","CA","United States","33.9025396140933068522826943081","-118.335091105523019905376713723",4bf58dd8d48988d16e941735,151,40,1
51911ddd498ede00b0a982ae,"Eureka! *Tasting Kitchen",http://eurekarestaurantgroup.com,1,(310) 331-8233,"12101 Crenshaw Blvd","Hawthorne","CA","United States","33.9224269579010737629687355366","-118.327054651233908089125179686",4bf58dd8d48988d14e941735,1289,508,23
4f206397e4b0b9814749be88,"7-Eleven",http://www.7-eleven.com,0,(310) 965-9892,"14219 S Western Ave","Gardena","CA","United States","33.9021443020158272929620579816","-118.309268074196822340127255302",4d954b0ea243a5684a65b473,460,134,1
4ae26386f964a520e98d21e3,"Chili's Grill & Bar",http://chilis.com,1,(310) 674-2505,"3490 W Century Blvd","Inglewood","CA","United States","33.9451609999999988076524459757","-118.332352999999997678060026374",56aa371ae4b08b9a8d5734ba,2788,1593,38
4bcbc45a68f976b0fac66183,"El Pollo Loco",http://www.elpolloloco.com,1,(310) 532-0060,"12800 Avalon Blvd","Los Angeles","CA","United States","33.9161890761751507739063526969","-118.264746713493067886702192482",4bf58dd8d48988d16e941735,302,144,3
4c165c767fd00f474617fab6,"Jack in the Box",http://www.jackinthebox.com,1,(323) 751-5074,"805 W Manchester Ave","Los Angeles","CA","United States","33.9602559344306413890990370419","-118.28737556934356689453125",4bf58dd8d48988d16c941735,419,120,1
4b83203af964a52033f930e3,"McDonald's",http://mcdonalds.com,1,(323) 777-9062,"2900 W Imperial Hwy","Inglewood","CA","United States","33.9305958002316216948202054482","-118.326095730636325242812745273",4bf58dd8d48988d16e941735,653,282,6
4bc4e56fc839ef3b6158304e,"7-Eleven",http://www.7-eleven.com,0,(310) 419-9736,"3311 W Century Blvd","Inglewood","CA","United States","33.946128000000001634361979086","-118.329660000000004060893843416",4d954b0ea243a5684a65b473,963,219,2
3fd66200f964a52092ee1ee3,"In-N-Out Burger",http://www.in-n-out.com,0,(800) 786-1000,"9149 S Sepulveda Blvd","Los Angeles","CA","United States","33.9536939525489742663921788335","-118.3967681229114532470703125",4bf58dd8d48988d16c941735,41635,27145,314
49d02698f964a520035b1fe3,"Whole Foods Market",http://www.wholefoodsmarket.com/stores/elsegundo,0,(310) 333-1900,"760 South Sepulveda Blvd.","El Segundo","CA","United States","33.9065393767245737421944795642","-118.39275419712066650390625",4bf58dd8d48988d118951735,21548,5720,106
55d631df498ed45ed4a11721,"In-N-Out Burger",http://www.in-n-out.com,0,(800) 786-1000,"600 N. Sepulveda Blvd","El Segundo","CA","United States","33.9239619828590690531200380065","-118.3954093655737693779883557",4bf58dd8d48988d16c941735,1259,874,6
4bafd591f964a52088243ce3,"Randy's Donuts",http://randys-donuts.com,0,(310) 645-4607,"805 W Manchester Blvd","Inglewood","CA","United States","33.9617631498573757653502980247","-118.37032020092010498046875",4bf58dd8d48988d148941735,12423,7754,190
4b744b13f964a52023d32de3,"Denny's",http://locations.dennys.com/CA/LOS-ANGELES/201918,1,(310) 410-1712,"5535 W Century Blvd","Los Angeles","CA","United States","33.9458286965868580864480463788","-118.3775661885738372802734375",4bf58dd8d48988d147941735,4759,3713,36
4b355f52f964a520922c25e3,"Starbucks",http://www.starbucks.com/,1,(310) 342-0152,"8817 S Sepulveda Blvd","Los Angeles","CA","United States","33.9567281716149480530475557316","-118.396921323884200205611705314",4bf58dd8d48988d1e0931735,6715,2986,41
4af0e085f964a520d9df21e3,"Starbucks",http://www.starbucks.com/,1,(310) 647-1697,"530 N Sepulveda Blvd","El Segundo","CA","United States","33.9228740000000001941771188285","-118.395938000000001011358108371",4bf58dd8d48988d1e0931735,8319,3016,38
4aadb3eaf964a5204e6120e3,"In-N-Out Burger",http://www.in-n-out.com,1,(800) 786-1000,"3801 Inglewood Ave","Redondo Beach","CA","United States","33.8922206701176307319656189065","-118.36180043694679397958680056",4bf58dd8d48988d16c941735,10417,5883,74
56a0407d498ecd292ada6c96,"SOL Mexican Cocina",http://solcicina.com/playa-vista/,0,(424) 289-0066,"12775 Millennium #160","Los Angeles","CA","United States","33.9760490000000032750904210843","-118.416803999999999064129951876",4bf58dd8d48988d1c1941735,978,501,11
4b4d022af964a52095c726e3,"Starbucks",http://www.starbucks.com/,1,(310) 725-9110,"2231 Rosecrans Ave","El Segundo","CA","United States","33.90227399999999846613718546","-118.383551999999994563950167503",4bf58dd8d48988d1e0931735,8453,1947,21
49cd269af964a520c1591fe3,"The Coffee Bean & Tea Leaf",http://www.coffeebean.com,0,(310) 862-5725,"13020 Pacific Promenade Ste 9","Playa Vista","CA","United States","33.9729469399999999268402461894","-118.42273299999999380816007033",4bf58dd8d48988d1e0931735,5831,1186,19
4abd60d0f964a520fa8920e3,"The Habit Burger Grill",http://t.co/PuJauMBn4S,1,(310) 524-9016,"311 N. Sepulveda Blvd.","El Segundo","CA","United States","33.9199917099999979086533130612","-118.396423400000003312015905976",4bf58dd8d48988d16c941735,6921,3135,63
4b576075f964a5208e3428e3,"Burger King",http://www.bk.com,0,(310) 868-6056,"9601 Airport Boulevard","Los Angeles","CA","United States","33.9490418895635102103369717952","-118.386316906978535712369193789",4bf58dd8d48988d16e941735,1733,1222,22
4a87474ef964a520960320e3,"Starbucks",http://www.starbucks.com/,1,(310) 645-0416,"8844 S Sepulveda Blvd","Westchester","CA","United States","33.9559703759363671338178392034","-118.396133966164384787589369807",4bf58dd8d48988d1e0931735,4789,1930,25
4a808d4ff964a52096f51fe3,"Bristol Farms Westchester",http://www.bristolfarms.com,0,(310) 410-0593,"8448 Lincoln Blvd","Westchester","CA","United States","33.9612389600000028622162062675","-118.419421700000000896579877008",4bf58dd8d48988d118951735,4333,1252,22
4b3997c5f964a520005e25e3,"Carl's Jr.",http://www.carlsjr.com,1,(310) 216-9306,"5625 W Century Blvd","Los Angeles","CA","United States","33.94589548215480334647509153","-118.379632836516549332372960635",4bf58dd8d48988d16e941735,3806,2696,18
5344ac90498e9887e0cf9d61,"Mcdonald's",,0,(310) 410-3200,"5908 W Manchester Ave","Los Angeles","CA","United States","33.9596388369553849884141527582","-118.385977861230017538218817208",4bf58dd8d48988d16e941735,396,239,5
4a98d392f964a520462d20e3,"IHOP",http://restaurants.ihop.com/ca/los-angeles/782/,1,(310) 410-4457,"8600 S Sepulveda Blvd","Los Angeles","CA","United States","33.959650000000003444711182965","-118.396100000000004115463525523",4bf58dd8d48988d143941735,4303,2937,38
4be17982d4c362b55605f9ec,"Starbucks",http://www.starbucks.com/,1,(310) 412-2370,"941 N. La Brea Avenue","Inglewood","CA","United States","33.9754848119248507032352790702","-118.35790157318115234375",4bf58dd8d48988d1e0931735,2851,692,15
4a8f0135f964a5208b1320e3,"Blue Butterfly",,1,(310) 640-7687,"351 Main St","El Segundo","CA","United States","33.9205699999999978899722918868","-118.416082619999997405102476478",4bf58dd8d48988d1e0931735,2080,579,26
56e845ff498e0e8c63d46895,"Starbucks",http://www.starbucks.com/store/1014074,0,(310) 560-1760,"8400 Lincoln Blvd.","Los Angeles","CA","United States","33.9616780517230480995749530848","-118.42006114025123508781689452",4bf58dd8d48988d1e0931735,365,135,0
49fc6ec7f964a520a26e1fe3,"Starbucks",http://www.starbucks.com/,1,(310) 725-7001,"5378 W Rosecrans Ave","Hawthorne","CA","United States","33.9013630000000034669938031584","-118.374073999999993134224496316",4bf58dd8d48988d1e0931735,5067,1763,10
51f6be66498ebb946170243b,"DIRECTV Plaza Caf",https://directv.catertrax.com,0,,"2250 E Imperial Hwy","El Segundo","CA","United States","33.9304442522481934929601266049","-118.383918036866560896669398062",4bf58dd8d48988d128941735,1629,86,5
4e27010062e14d5da1540a34,"Roscoe's House of Chicken and Waffles",http://www.roscoeschickenandwaffles.com,1,(310) 981-4141,"621 W Manchester Blvd","Inglewood","CA","United States","33.961849722015543306952167768","-118.367284457718170642692712136",4bf58dd8d48988d14f941735,7309,5085,99
4a5e3c29f964a52035be1fe3,"Starbucks",http://www.starbucks.com/,1,(310) 648-7671,"2263 E. Maple Avenue","El Segundo","CA","United States","33.927375834333879822679591598","-118.383735447337784307819674723",4bf58dd8d48988d1e0931735,5567,940,10
49ebc697f964a5202a671fe3,"Ayara Thai Cuisine",http://www.ayarathaicuisine.com,1,(310) 410-8848,"6245 W 87th St","Westchester","CA","United States","33.9587410000000033960532164201","-118.394529819488525390625",4bf58dd8d48988d149941735,5002,2767,67
4b970b60f964a52004f534e3,"Popeyes Louisiana Kitchen",http://popeyes.com,1,(310) 419-7987,"957 N LA Brea Ave","Inglewood","CA","United States","33.9760959999999982983354129829","-118.357927016666664599142677616",4d4ae6fc7a7b7dea34424761,1025,470,17
4bce6e64fb84c9b6ddeb233e,"7-Eleven",http://www.7-eleven.com,0,(310) 645-0348,"5880 W Manchester Ave","Los Angeles","CA","United States","33.959473460305019898441969417","-118.385117526248393460264196619",4d954b0ea243a5684a65b473,1515,673,10
50315424e4b01042a45f8956,"Banadir Somali Restaurant",,0,(310) 419-9900,"137 Arbor Vitae","Inglewood","CA","United States","33.9528200000000026648194761947","-118.356558000000006813934305683",4bf58dd8d48988d1c8941735,348,195,7
4b6f8312f964a520c0f32ce3,"McDonald's",http://mcdonalds.com,1,(310) 649-5617,"6904 LA Tijera Blvd","Los Angeles","CA","United States","33.9755404897869794922371511348","-118.373304690982379838715132792",4bf58dd8d48988d16e941735,1550,614,8
5375554911d2c45e456a9a69,"Playa Provisions",http://playaprovisions.com,0,(310) 683-5019,"119 Culver Blvd","Playa del Rey","CA","United States","33.9579823754016274506284389645","-118.449597399465602620693971403",4bf58dd8d48988d1c4941735,3003,1636,33
54da6fd2498e88e70c6a10ed,"MRKT",,0,,"","Los Angeles","CA","United States","33.9759892684301831877746735699","-118.426609993775372231539222412",4bf58dd8d48988d16d941735,931,47,1
4d9bcee77ae5548176944074,"The Tripel",http://thetripel.com,1,(310) 821-0333,"333 Culver Blvd","Playa del Rey","CA","United States","33.9603360605312047937331954017","-118.446853908169003943839925341",4bf58dd8d48988d116941735,5137,2449,84
4d2e10dba6df6dcb04c8d57a,"MeSoHungry Truck",http://www.mesohungry.com,1,(310) 363-0946,"","Southern California","CA","United States","34.0195091548900023781243362464","-118.451565156407170320562727284",4bf58dd8d48988d1cb941735,684,474,6
4f0b9d1ee4b00cf4c0c6fd1c,"THE GOOD PIZZA",http://www.thegoodpizza.com/,1,(310) 827-0500,"8115 W Manchester Ave","Playa del Rey","CA","United States","33.9589096185565466612388263457","-118.438212470513619223311252426",4bf58dd8d48988d1ca941735,1069,322,23
50f9ab43e4b0d5fdfb0cef04,"Del Rey Deli Co",http://delreydeli.com,0,(310) 439-2256,"8501 Pershing Dr","Playa del Rey","CA","United States","33.9560800000000000409272615798","-118.442530000000004974936018698",4bf58dd8d48988d146941735,1085,372,19
4ae4a889f964a520dd9c21e3,"Whiskey Red's",http://www.therustypelican.com/rustypelicanmiami/default.aspx,1,(310) 823-4522,"13813 Fiji Way","Marina del Rey","CA","United States","33.9713584774819139511237153783","-118.446151954057285138333099894",4bf58dd8d48988d1ce941735,2849,2245,29
49b064dcf964a520bc521fe3,"Wurstkche",http://www.wurstkuche.com,1,(213) 687-4444,"800 E 3rd St","Los Angeles","CA","United States","34.0456234143537486147579329554","-118.23610246181488037109375",4bf58dd8d48988d10d941735,31429,17374,360
4a33da8ef964a520559b1fe3,"Urth Caff",http://www.urthcaffe.com,1,(213) 797-4534,"451 S Hewitt St","Los Angeles","CA","United States","34.0419441586195787863289297093","-118.235213471036388455104315653",4bf58dd8d48988d1e0931735,28046,11486,265
4470358df964a52089331fe3,"Philippe The Original",http://www.philippes.com,1,(213) 617-3781,"1001 N Alameda St","Los Angeles","CA","United States","34.0597103991092495789416716434","-118.23699295520782470703125",4bf58dd8d48988d1c5941735,24103,15775,399
4da117b2bf22a143f96894f8,"Caf Dulc",http://www.cafedulce.co,1,(213) 346-9910,"134 Japanese Village Plaza Mall Bldg E","Los Angeles","CA","United States","34.0489297039295095714805938769","-118.240501702031878039633738808",4bf58dd8d48988d16a941735,9703,4136,88
4e5b046a227188671508b714,"Shin-Sen-Gumi",http://shinsengumigroup.com,0,(213) 687-7108,"132 S Central Ave","Los Angeles","CA","United States","34.0482829669957993701245868579","-118.239382392440376179365557618",55a59bace4b013909087cb24,11554,5742,104
5801612a38fab747a494609b,"Salt & Straw",,0,,"829 E 3rd St","Los Angeles","CA","United States","34.0460550000000026216184778605","-118.235495000000000231921148952",4bf58dd8d48988d1c9941735,279,242,6
506a1177e4b0bafc66607b7d,"Bestia",http://bestiala.com,1,(213) 514-5724,"2121 E 7th Pl","Los Angeles","CA","United States","34.0336505018268340450049436186","-118.229234033039773521522874944",4bf58dd8d48988d110941735,7614,5382,191
4e992c725c5caa2f44ec6955,"The Pie Hole",http://thepieholela.com,1,(213) 537-0115,"714 Traction Ave","Los Angeles","CA","United States","34.0453838999999973680132825393","-118.236254400000007080961950123",52e81612bcbc57f1066b7a0a,10619,5912,183
534d64f2498e7cde6b8a9c04,"Blacktop Coffee",,0,,"826 E 3rd St","Los Angeles","CA","United States","34.0457683784769571389006159734","-118.235441907708661801734706387",4bf58dd8d48988d1e0931735,2629,1158,34
55fccaa5498ec525f32b644d,"Everson Royce Bar",http://www.erbla.com,0,(213) 335-6166,"1936 E 7th St","Los Angeles","CA","United States","34.0344559169875182647047040518","-118.232626404506788730941480026",4bf58dd8d48988d11e941735,1409,918,24
55773340498ee2c0817e9170,"Howlin' Ray's",http://howlinrays.com,1,(213) 935-8399,"727 N Broadway #128","Los Angeles","CA","United States","34.0613976994206311132984410506","-118.239685063611673854211403523",4d4ae6fc7a7b7dea34424761,777,539,22
52fcf9ab498e29e90ea6f33b,"Zinc Caf & Market",http://www.zinccafe.com,1,(323) 825-5449,"580 Mateo St","Los Angeles","CA","United States","34.0394395332193084868777077645","-118.232649248531942021145368926",4bf58dd8d48988d16d941735,3171,1789,39
4e2071738130e92fc6a3f821,"Cafe Demitasse",http://cafedemitasse.com,1,(213) 613-9300,"135 S San Pedro St","Los Angeles","CA","United States","34.0496859684823576230883190874","-118.24171364307403564453125",4bf58dd8d48988d1e0931735,7576,3009,77
522e7d3f11d24521e9d74edf,"Stumptown Coffee Roasters",http://t.co/HP1jMKlOZf,0,(213) 337-0936,"806 S Santa Fe Ave","Los Angeles","CA","United States","34.0333540503694109702337300405","-118.229913654912706988397985697",4bf58dd8d48988d1e0931735,5695,2339,75
5518423c498edbf62812dbe4,"Cafe Gratitude",http://cafegratitude.com,0,(213) 929-5580,"300 S Santa Fe Ave Ste A","Los Angeles","CA","United States","34.0456841206977856018056627363","-118.232535028375764341035392135",4bf58dd8d48988d1d3941735,1129,674,15
4f321d2419836c91c7b74af1,"Groundwork Coffee Co",http://www.lacoffee.com/,0,(213) 626-8650,"811 Traction Ave","Los Angeles","CA","United States","34.0451952820145180567124043591","-118.235618945920577971264719963",4bf58dd8d48988d1e0931735,1142,496,10
53c621cb498ecf3134b82684,"Blue Bottle Coffee",http://www.bluebottlecoffee.com,0,(213) 621-4194,"582 Mateo St","Los Angeles","CA","United States","34.0390224600864428339264122769","-118.232588768005356882895284798",4bf58dd8d48988d1e0931735,2758,1526,30
49ed71e7f964a520eb671fe3,"Won Kok Restaurant",,0,(213) 613-0700,"210 Alpine St","Los Angeles","CA","United States","34.0618885809812539378071960527","-118.237526378297118867521930952",4bf58dd8d48988d145941735,3806,1987,48
5143f2d7e4b039102cf9793f,"Marugame Monzo",,1,(213) 346-9762,"329 E 1st St","Los Angeles","CA","United States","34.0498028951894013971468666568","-118.240267561343969759946048725",4bf58dd8d48988d111941735,5054,3080,85
54938133498ed65f02e8c4ba,"Redbird",http://redbird.la,1,(213) 788-1191,"114 E 2nd St","Los Angeles","CA","United States","34.0504863270040942779814940877","-118.244139407748050984992005397",4bf58dd8d48988d14e941735,1483,1159,42
53487060498e5e04e7503d6c,"Starbucks",http://www.starbucks.com,0,(213) 680-7825,"639 N Broadway","Los Angeles","CA","United States","34.0587960000000009586074156687","-118.240350000000006502887117676",4bf58dd8d48988d1e0931735,939,457,1
4b26bfcef964a520638024e3,"Starbucks",http://www.starbucks.com/,1,(213) 613-0393,"138 S Central Ave","Los Angeles","CA","United States","34.0479658517084331492696946952","-118.23926746845245361328125",4bf58dd8d48988d1e0931735,9347,3686,47
51dccd46498e4f9ac4865270,"JiST Cafe",http://jistcafe.com,1,(213) 792-2116,"116 Judge John Aiso St","Los Angeles","CA","United States","34.0508794840623707500526506919","-118.240376065604948507825611159",4bf58dd8d48988d143941735,1700,1097,32
518331ad498e578a445e0f2a,"Chego!",http://eatchego.com,1,(323) 380-8680,"727 N Broadway","Los Angeles","CA","United States","34.0614560923193607777648139745","-118.239490897261291024733509403",4bf58dd8d48988d142941735,3950,2339,84
4f1a5e36e4b0850c83181d5d,"Kula Revolving Sushi Bar",http://kulausa.com,0,(213) 290-9631,"333 E 2nd St","Los Angeles","CA","United States","34.0486070460640348755987361073","-118.240764396081743825561716221",4bf58dd8d48988d1d2941735,3683,2117,30
4ad6a19ef964a5200f0821e3,"In-N-Out Burger",http://www.in-n-out.com,1,(800) 786-1000,"6000 Pacific Blvd","Huntington Park","CA","United States","33.9869989999999972951627569273","-118.2248318195343017578125",4bf58dd8d48988d16c941735,3378,1832,34
4e0e69c445ddc2c6d1780ab2,"Pizzanista",http://www.pizzanista.com,1,(213) 627-1430,"2019 E 7th St","Los Angeles","CA","United States","34.0347679999999996880433172919","-118.231575179999992997181834653",4bf58dd8d48988d1ca941735,4079,1717,66
4b79b1a0f964a520b30b2fe3,"Burger King",http://www.bk.com,1,(213) 626-0152,"700 Cesar Chavez Avenue","Los Angeles","CA","United States","34.0606370735277224071069213096","-118.244314532302780662575969473",4bf58dd8d48988d16e941735,1110,624,3
4127e200f964a520540c1fe3,"Daikokuya",http://www.daikoku-ten.com,1,(213) 626-1680,"327 E 1st St","Los Angeles","CA","United States","34.0498506801763625162493553944","-118.240318958107707203453173861",55a59bace4b013909087cb24,16670,10783,272
562592db498e50be3afc8a1f,"Pok Pok LA",http://pokpokla.com/index.php?id=297,1,(213) 613-1831,"978 N Broadway","Los Angeles","CA","United States","34.0661110088268515028175897896","-118.236258566325730612334155012",4bf58dd8d48988d149941735,942,728,19
49f65012f964a5202f6c1fe3,"Grand Central Market",http://www.grandcentralmarket.com,0,(213) 624-2378,"317 S Broadway","Los Angeles","CA","United States","34.0507229959337820446307887323","-118.248776371237084958920604549",50be8ee891d4fa8dcc7199a7,31134,16881,243
562796d5498e03dd35da0f5e,"Whole Foods Market",http://www.wholefoodsmarket.com/stores/downtownlosangeles,0,(213) 873-4745,"788 S. Grand Avenue","Los Angeles","CA","United States","34.0461849911033951343597436789","-118.257684470967916467998293228",4bf58dd8d48988d118951735,4052,1373,20
49e25d07f964a5200f621fe3,"Bottega Louie",http://www.bottegalouie.com,1,(213) 802-1470,"700 S Grand Ave","Los Angeles","CA","United States","34.0472543931865772037781425752","-118.256525302180293124365562107",4bf58dd8d48988d110941735,47987,26767,734
4a58fccbf964a52069b81fe3,"Clifton's Cafeteria",http://www.cliftonscafeteria.com,1,(213) 627-1673,"648 S Broadway","Los Angeles","CA","United States","34.0454628400437186996896343771","-118.253139113900033407844603062",4bf58dd8d48988d128941735,4274,2868,55
4e1f936a628469a57402c1db,"Perch",http://www.perchla.com,1,(213) 802-1770,"448 S Hill St","Los Angeles","CA","United States","34.0489976101532789698467240669","-118.251505953616600663735880516",4bf58dd8d48988d10c941735,20368,13464,203
577c703c498e30c979be439d,"The Halal Guys",http://www.thehalalguys.com,1,,"3432 Wilshire Blvd","Los Angeles","CA","United States","34.0616915203516370524994272273","-118.298832719013319092482561246",4bf58dd8d48988d10b941735,1135,779,14
3fd66200f964a520d1f01ee3,"BCD Tofu House",http://www.bcdtofu.com,1,(213) 382-6677,"3575 Wilshire Blvd","Los Angeles","CA","United States","34.0619213475933122481364989653","-118.30262124538421630859375",4bf58dd8d48988d113941735,12357,6737,102
4f0fcb0be4b07e9ec8c0cacc,"Kang Ho Dong Baek Jeong",,1,(213) 384-9678,"3465 W 6th St","Los Angeles","CA","United States","34.0637698381513303047540830448","-118.297314173001453241340641398",4bf58dd8d48988d113941735,9208,5928,122
4394dc84f964a520862b1fe3,"The Original Pantry",http://www.pantrycafe.com,1,(213) 972-9279,"877 S Figueroa St","Los Angeles","CA","United States","34.0463768239398305581744352821","-118.262895047664642333984375",4bf58dd8d48988d147941735,13934,9534,214
49f8d830f964a5202c6d1fe3,"Yard House",http://www.yardhouse.com,1,(213) 745-9273,"800 W Olympic Blvd","Los Angeles","CA","United States","34.0450810000000032573552743997","-118.265783999999996467522578314",4bf58dd8d48988d14e941735,38507,21717,213
55c7c5c6498e4521ebf9a650,"Philz Coffee",http://philzcoffee.com,0,(213) 213-2616,"801 S Hope St","Los Angeles","CA","United States","34.0463674270007530253678851295","-118.259340412752749216451775283",4bf58dd8d48988d1e0931735,2652,1130,25
4aee0232f964a5203ad121e3,"Koreatown Plaza",http://www.koreatownplaza.com,0,(213) 382-1234,"928 S Western Ave","Los Angeles","CA","United States","34.055192774296614288687123917","-118.3085381984710693359375",4bf58dd8d48988d1fd941735,4508,2270,16
527bf41911d2ff4cca3e912e,"Eggslut",http://eggslut.com,1,,"317 S Broadway","Los Angeles","CA","United States","34.0506191600609255942799791228","-118.248633609455282567068934441",4bf58dd8d48988d143941735,8486,6462,182
53e9021e498e230096f69433,"Guisados",http://guisados.co,1,(213) 627-7656,"541 S Spring St","Los Angeles","CA","United States","34.0464863365939436334883794188","-118.250643684386048448686779011",4bf58dd8d48988d151941735,2929,1935,72
54c7d710498ed093faf6a57e,"Verve Coffee",http://vervecoffeeroasters.com,0,(213) 455-5991,"833 S Spring St","Los Angeles","CA","United States","34.0422562368761774109771067742","-118.254498165474643656125408597",4bf58dd8d48988d1e0931735,2831,1553,45
5530f692498e151e379754ca,"Starbucks",http://www.starbucks.com,0,(213) 618-5477,"2735 S. Figueroa St.","Los Angeles","CA","United States","34.026429999999997733084455831","-118.277510000000006584741640836",4bf58dd8d48988d1e0931735,936,387,5
563ac687cd101c7dff9cd41b,"Otium",http://otiumla.com,1,(213) 935-8500,"222 S. Hope St.","Los Angeles","CA","United States","34.0542924728120652844154392369","-118.251066253955499973926634993",4bf58dd8d48988d157941735,1518,1270,27
52f7dd7111d22027eea4c47f,"Tom's Urban",http://www.tomsurban.com,1,(213) 746-8667,"1011 S Figueroa St","Los Angeles","CA","United States","34.0439680621646800773305585608","-118.265255991046601025118434336",4bf58dd8d48988d11d941735,4610,3131,46
54cc08c0498e27d6208014eb,"Aldewaniah Restaurant",,0,(213) 745-7585,"2528 S Grand Ave","Los Angeles","CA","United States","34.0266082149124926559125015046","-118.272056369020759802879183553",52e81612bcbc57f1066b79ff,653,418,12
431e2d80f964a52081271fe3,"Cole's",http://213nightlife.com/colesfrenchdip,1,(213) 622-4090,"118 E 6th St","Los Angeles","CA","United States","34.0448188810926097858100547455","-118.2495403289794921875",4bf58dd8d48988d116941735,14923,8207,186
53d06bba498e6c801ea9816e,"KazuNori Hand Roll Bar",http://www.kazunorisushi.com,1,(213) 493-6956,"421 S Main St","Los Angeles","CA","United States","34.0477160790633135434291034471","-118.247451537330789506086148322",4bf58dd8d48988d1d2941735,3244,1677,56
57353c56498e900110f3ec86,"85C Bakery Cafe - Downtown Los Angeles",http://t.co/KAWm5gJvpy,0,(213) 623-1885,"700 Wilshire Blvd","Los Angeles","CA","United States","34.0486842299999992178527463693","-118.257056000000005724359652959",4bf58dd8d48988d16a941735,677,304,6
4d34bd016c7c721e9dbcc456,"The Boiling Crab",http://theboilingcrab.com,1,(213) 389-2722,"3377 Wilshire Blvd #115","Los Angeles","CA","United States","34.0622946477764543260491336696","-118.29807758331298828125",4bf58dd8d48988d1ce941735,11366,6805,136
51a8d473498ea68ee462260c,"G&B @ Grand Central",http://gandbcoffee.com,0,,"324 S Hill St #C19","Los Angeles","CA","United States","34.0510710798592128867312567309","-118.249581545458553932803624775",4bf58dd8d48988d1e0931735,6009,2863,90
52e6bdde11d2034a03d6c673,"Faith & Flower",http://www.faithandflowerla.com,1,(213) 239-0642,"705 W 9th St","Los Angeles","CA","United States","34.0453344944477507283409067895","-118.26202869415283203125",4bf58dd8d48988d157941735,3165,2351,67
4c00d9439cf52d7f636714e7,"Hae Jang Chon",http://www.haejangchon.com/,1,(888) 658-0635,"3821 W 6th St","Los Angeles","CA","United States","34.0637458844976706018314871471","-118.306105567079242746331146918",4bf58dd8d48988d113941735,9740,6371,83
4b17478df964a5207cc423e3,"Starbucks",http://www.starbucks.com/,1,(213) 488-9902,"735 S Figueroa St","Los Angeles","CA","United States","34.049174826315116604291688418","-118.260352313518509959067159798",4bf58dd8d48988d1e0931735,6781,2385,21
4ad94bbaf964a520a61921e3,"Park's BBQ",http://www.parksbbq.com,1,(213) 380-1717,"955 S Vermont Ave","Los Angeles","CA","United States","34.0538590000000027657733880915","-118.291855999999995674443198368",4bf58dd8d48988d113941735,5300,3675,56
4af31404f964a52066ea21e3,"Starbucks",http://www.starbucks.com/,0,(323) 734-0281,"4177 W. Washington Blvd.","Los Angeles","CA","United States","34.0401060000000015293153410312","-118.330599000000006526533979923",4bf58dd8d48988d1e0931735,5247,1184,38
49da55f0f964a520775e1fe3,"Han Bat Sul Lung Tang",,0,(213) 388-9499,"4163 W 5th St","Los Angeles","CA","United States","34.065494296178556510312773753","-118.3095681667327880859375",4bf58dd8d48988d113941735,3542,1774,31
4161e400f964a520631d1fe3,"Urth Caff",http://www.urthcaffe.com,1,(310) 205-9311,"267 S Beverly Dr","Beverly Hills","CA","United States","34.0626352808748151801410131156","-118.399214910067570372120826505",4bf58dd8d48988d16d941735,37237,13946,318
55671fc6498e711ea823dc36,"Whole Foods Market",http://www.wholefoodsmarket.com/stores/playavista,0,(310) 862-9900,"12746 West Jefferson Blvd.","Playa Vista","CA","United States","33.9768183113055144417558040004","-118.417990325621147462697990704",4bf58dd8d48988d118951735,5068,1012,15
50202017e4b0586c5d20e336,"Cafe Istanbul",https://cafeistanbulbeverlyhills.com,1,(310) 553-4545,"326 S Beverly Dr","Beverly Hills","CA","United States","34.0612451132027800326795841102","-118.399009515570043049592641182",4bf58dd8d48988d1c0941735,8348,3739,50
527dab3d11d242392040d3a3,"Rpublique",http://www.republiquela.com,1,(310) 362-6115,"624 S LA Brea Ave","Los Angeles","CA","United States","34.0641478242161426237544219475","-118.343891954640241692686686292",4bf58dd8d48988d10c941735,6190,4060,153
54809091498e84bef0a7271b,"Chick-fil-A 405 at Jefferson (Los Angeles)",https://www.chick-fil-a.com/Locations/CA/405-at-Jefferson-(Los-Angeles),1,(310) 391-8364,"11750 Jefferson Blvd","Los Angeles","CA","United States","33.9861892874856508228731399868","-118.400712427593347797483147588",4bf58dd8d48988d16e941735,2244,854,15
4a9a37a5f964a520a63120e3,"In-N-Out Burger",http://www.in-n-out.com,1,(800) 786-1000,"9245 Venice Blvd","Los Angeles","CA","United States","34.0264492216959339998538780492","-118.3942790329456329345703125",4bf58dd8d48988d16c941735,16676,9056,125
57a3a554498e9c85e7962f0a,"Starbucks",,0,,"6150 S Sepulveda Blvd","Los Angeles","CA","United States","33.9881639999999975998434820212","-118.392814999999998804014467169",4bf58dd8d48988d1e0931735,343,125,1
575a03bb498e948231abb9e1,"Starbucks",http://www.starbucks.com/store/1014988,0,(323) 333-1529,"1742 S. La Cienega","Los Angeles","CA","United States","34.046131393480870030998630682","-118.376145825677625111893576104",4bf58dd8d48988d1e0931735,457,170,6
4a0a463ef964a52098741fe3,"Father's Office",http://www.fathersoffice.com,1,(310) 736-2224,"3229 Helms Ave","Los Angeles","CA","United States","34.0303448686797409550308657344","-118.3846056461334228515625",4bf58dd8d48988d155941735,29369,15665,352
4a352ae8f964a5208d9c1fe3,"Starbucks",http://www.starbucks.com/,1,(323) 939-2071,"5353 Wilshire Blvd","Los Angeles","CA","United States","34.0622857596959605075426225085","-118.34528982639312744140625",4bf58dd8d48988d1e0931735,9397,2180,22
4b51fc8cf964a520895f27e3,"McDonald's",http://mcdonalds.com,1,(310) 474-3160,"10451 Santa Monica Blvd","Los Angeles","CA","United States","34.0565769999999972128534864169","-118.425998100000001045373210218",4bf58dd8d48988d16e941735,2678,1340,19
55f38e54498e38daf79e1c62,"Hopdoddy Burger Bar",http://www.hopdoddy.com,0,(310) 410-2337,"12746 W Jefferson Blvd Ste 120","Los Angeles","CA","United States","33.9763903649885747881853603758","-118.417699382665816187909513246",4bf58dd8d48988d16c941735,1347,699,15
4b32efe1f964a520271625e3,"RockSugar Pan Asian Kitchen",http://www.rocksugarpanasiankitchen.com,1,(310) 552-9988,"10250 Santa Monica Blvd","Los Angeles","CA","United States","34.0588815563212463644049421418","-118.420257568359375",4bf58dd8d48988d142941735,8951,6057,138
4ad931f7f964a520041921e3,"Beverly Hills Marriott",http://crowneplaza.com,0,(310) 553-6561,"1150 S Beverly Dr","Los Angeles","CA","United States","34.0564899174093866918155981693","-118.395951389932861275156028569",4bf58dd8d48988d1fa931735,5623,1898,23
49cfb3f1f964a520bc5a1fe3,"Starbucks",http://www.starbucks.com/,1,(310) 823-3479,"12313 Jefferson Blvd","Los Angeles","CA","United States","33.9815409999999999968167685438","-118.409087999999997009581420571",4bf58dd8d48988d1e0931735,9636,2230,31
573bd28b498e5ce5ac29ea32,"The Cannibal",http://thecanniballa.com,0,(310) 838-2783,"8850 Washington Blvd","Culver City","CA","United States","34.027084535699643197403929662","-118.388271597114666633387969341",4bf58dd8d48988d155941735,648,428,9
41390580f964a520d81a1fe3,"Tito's Tacos",http://www.titostacos.com/,1,(310) 391-5780,"11222 Washington Pl","Culver City","CA","United States","34.0082023209742132507926726248","-118.414571285247802734375",4bf58dd8d48988d151941735,16513,8072,244
56e59bb0498e29dda29f7621,"Blue Bottle Coffee",https://bluebottlecoffee.com,0,,"8830 Washington Blvd.","Culver City","CA","United States","34.0271570000000025402187020518","-118.387619999999998299244907685",4bf58dd8d48988d1e0931735,977,469,12
5840782394c6902a4476671d,"Roberta's Pizza Pop Up",,0,,"","Culver City","CA","United States","34.0276830000000032327989174519","-118.386549999999999727151589468",4bf58dd8d48988d1ca941735,111,99,0
4bb91df998c7ef3b57d03102,"7-Eleven",http://www.7-eleven.com,0,(323) 290-2594,"4343 W Slauson Ave","Los Angeles","CA","United States","33.9893073271079302344332973007","-118.351330826437148857621650677",4d954b0ea243a5684a65b473,1007,290,5
529aea6511d27c193da4ae1e,"Leo's Tacos Truck",http://www.leostacostruck.com/#/,1,(323) 346-2001,"1515 S LA Brea Ave","Los Angeles","CA","United States","34.0461618495998052935647137929","-118.345838124609443298140831757",4bf58dd8d48988d1cb941735,1914,1079,33
52fbab42498e29c9898647d7,"Dave & Buster's",http://daveandbusters.com,1,(310) 846-9950,"6081 Center Dr","Westchester","CA","United States","33.9775832231444283593191357795","-118.391523855433902667755319271",4bf58dd8d48988d1e1931735,3213,2043,32
50b4df6de4b0627b56ceb145,"Public School 310",http://t.co/y8Bw1QDK6K,1,(310) 558-0414,"9411 Culver Blvd","Culver City","CA","United States","34.0243820999999968535121297464","-118.394468000000003371496859472",4bf58dd8d48988d155941735,8687,5264,105
4a2895f9f964a52031951fe3,"Akasha",http://akasharestaurant.com,1,(310) 845-1700,"9543 Culver Blvd","Culver City","CA","United States","34.0229816380104992390442930628","-118.395512065060643180913757533",4bf58dd8d48988d157941735,10369,4909,122
4a8b3c72f964a520e40b20e3,"The Coffee Bean & Tea Leaf",http://www.coffeebean.com,1,(310) 313-0259,"3470 S Sepulveda Blvd","Los Angeles","CA","United States","34.019688590000001227053871844","-118.422114699999994513746059965",4bf58dd8d48988d1e0931735,6828,1730,39
56293f01498e076d6abe2cdc,"Urban Plates",,1,,"12746 W Jefferson Blvd Ste 3140","Playa Vista","CA","United States","33.9769636854450638452362909447","-118.416512786541815671625954565",4bf58dd8d48988d1c4941735,964,427,7
49c9526ff964a52055581fe3,"Rush Street",http://www.rushstreetculvercity.com,1,(310) 837-9546,"9546 Washington Blvd","Culver City","CA","United States","34.0229990027555331266739813145","-118.394748013247578910522861406",4bf58dd8d48988d14e941735,19849,10244,174
427ff980f964a520ba211fe3,"Starbucks",http://www.starbucks.com/,1,(310) 204-1075,"9718 Washington Blvd","Culver City","CA","United States","34.0221930000000014615579857491","-118.396230000000002746673999354",4bf58dd8d48988d1e0931735,8696,2745,54
57c8f093498ede7689606a75,"ROC",,0,(424) 835-4777,"12775 W. Millenium Drive","Playa Vista","CA","United States","33.9761319999999997776285454165","-118.417944000000005644324119203",4bf58dd8d48988d108941735,289,187,3
4ae93d2ef964a5209db421e3,"McDonald's",http://mcdonalds.com,1,(310) 838-6976,"10623 Venice Blvd","Los Angeles","CA","United States","34.0193196428040778300783131272","-118.406979778350333276648598257",4bf58dd8d48988d16e941735,2834,1167,16
49e0e4aaf964a5207b611fe3,"Whole Foods Market",http://www.wholefoodsmarket.com/stores/Venice,0,(310) 566-9480,"225 Lincoln Blvd.","Venice","CA","United States","34.0012076891039853876463894267","-118.469656020586000977345975116",4bf58dd8d48988d118951735,27292,6887,157
49ee2919f964a5202e681fe3,"Intelligentsia Coffee & Tea",http://www.intelligentsiacoffee.com/location/venice-coffeebar,0,(310) 399-1233,"1331 Abbot Kinney Blvd","Venice","CA","United States","33.9910867996436749649546982255","-118.46693001687526702880859375",4bf58dd8d48988d1e0931735,31530,12598,358
4a6160e1f964a52062c21fe3,"In-N-Out Burger",http://www.in-n-out.com,1,(800) 786-1000,"13425 Washington Blvd","Marina del Rey","CA","United States","33.9916494407747293848842673469","-118.4461677074432373046875",4bf58dd8d48988d16c941735,22913,11599,134
49f483a7f964a520126b1fe3,"In-N-Out Burger",http://www.in-n-out.com,1,(800) 786-1000,"922 Gayley Ave","Los Angeles","CA","United States","34.0630938608966360447993793059","-118.448097325632460297129000537",4bf58dd8d48988d16c941735,19220,10714,138
47fccaaff964a520d44e1fe3,"Urth Caff",http://www.urthcaffe.com,1,(310) 314-7040,"2327 Main St","Santa Monica","CA","United States","34.0042865717042559481342323124","-118.485788988171179880737327039",4bf58dd8d48988d16d941735,25018,13127,305
4a6bdc59f964a52020d01fe3,"Gjelina",http://gjelina.com,1,(310) 450-1429,"1429 Abbot Kinney Blvd","Venice","CA","United States","33.9905041396840630341102951206","-118.464978039264678955078125",4bf58dd8d48988d157941735,24172,15238,512
3fd66200f964a520a5ee1ee3,"The Apple Pan",http://www.applepan.com,1,(310) 475-3585,"10801 W Pico Blvd","Los Angeles","CA","United States","34.0406391259068357157957507297","-118.427813631403964222954527941",4bf58dd8d48988d16c941735,15159,8455,274
49e4f711f964a5207c631fe3,"Whole Foods Market",http://www.wholefoodsmarket.com/stores/wilshireblvd,0,(310) 395-4510,"500 Wilshire Blvd.","Santa Monica","CA","United States","34.0198100936647733760764822364","-118.496968746185302734375",4bf58dd8d48988d118951735,10096,2912,38
53af17e3498e8de9d6381a9f,"Philz Coffee",http://philzcoffee.com,1,(310) 451-9500,"525 Santa Monica Blvd","Santa Monica","CA","United States","34.017681550901507137041335227","-118.493680966351874417341605294",4bf58dd8d48988d1e0931735,8312,3074,88
3fd66200f964a52088ef1ee3,"Rose Caf-Restaurant",http://www.rosecafevenice.com,1,(310) 399-0711,"220 Rose Ave","Venice","CA","United States","33.9963053238148376067329081707","-118.477121063803153333537920844",4bf58dd8d48988d16d941735,8182,4604,102
563fdd4ccd1088eed9da1cc6,"Salt & Straw",http://saltandstraw.com,0,(310) 310-8429,"1357 Abbot Kinney Blvd","Los Angeles","CA","United States","33.9907177194982992318728065584","-118.466114427193190294929081574",4bf58dd8d48988d1c9941735,2645,1965,50
544e59cc498ee019d1af49d6,"Gjusta",http://www.gjusta.com,1,(310) 314-0320,"320 Sunset Ave","Venice","CA","United States","33.9951332178117553439733455889","-118.474520597998960624863684643",4bf58dd8d48988d16d941735,4366,2358,152
49dd9267f964a5201b601fe3,"Whole Foods Market",http://www.wholefoodsmarket.com/stores/santamonica,0,(310) 315-0662,"2201 Wilshire Blvd","Santa Monica","CA","United States","34.0332478707532644079947203863","-118.48139584064483642578125",4bf58dd8d48988d118951735,10973,3170,41
4a355681f964a520d39c1fe3,"Whole Foods Market",http://www.wholefoodsmarket.com/stores/westwood,0,(310) 824-0858,"1050 Gayley Ave","Los Angeles","CA","United States","34.0612724182901516201127378736","-118.447127688958957492104673292",4bf58dd8d48988d118951735,8676,2909,38
4b4ca899f964a52043b926e3,"Blue Bottle Coffee",http://bluebottlecoffee.com,0,,"1103 Abbot Kinney Blvd","Venice","CA","United States","33.9918438778234275332579272799","-118.470420219221935553832736332",4bf58dd8d48988d1e0931735,3030,1660,49
4b5e4444f964a520cc8629e3,"Whole Foods Market",http://www.wholefoodsmarket.com/stores/westlosangeles,0,(310) 996-8840,"11666 National Blvd","Los Angeles","CA","United States","34.0223200926300037849614454899","-118.437927266905433043575612828",4bf58dd8d48988d118951735,10820,2787,41
4ab56a2bf964a5207b7420e3,"Whole Foods Market",http://www.wholefoodsmarket.com/stores/brentwood,0,(310) 826-4433,"11737 San Vicente Blvd","Los Angeles","CA","United States","34.0536172154597522876429138705","-118.4673678874969482421875",4bf58dd8d48988d118951735,8691,1987,29
4d3f1f9ea2e4b1f7d2410126,"True Food Kitchen",http://truefoodkitchen.com,1,(310) 593-8300,"395 Santa Monica Pl","Santa Monica","CA","United States","34.0131782278769421168362896424","-118.49454402923583984375",4bf58dd8d48988d157941735,11744,6948,210
4a2ffbe1f964a52001991fe3,"Bay Cities Italian Deli & Bakery",http://www.baycitiesitaliandeli.com,1,(424) 268-8242,"1517 Lincoln Blvd","Santa Monica","CA","United States","34.017747999999997432496456895","-118.489329999999995379766914994",4bf58dd8d48988d1c4941735,20456,8540,318
562a6755498e0e92cb0d2d8a,"The Cheesecake Factory",http://www.thecheesecakefactory.com,0,(310) 260-1296,"395 Santa Monica Pl Ste 305","Santa Monica","CA","United States","34.0139897289703014848782913759","-118.494393734843541210466355551",4bf58dd8d48988d14e941735,2836,2255,18
530faf60498e4936dd032288,"Superba Food + Bread",http://www.superbafb.com,1,(310) 907-5075,"1900 Lincoln Blvd","Venice","CA","United States","33.9962159395458556332414445933","-118.456487298559807186393300071",4bf58dd8d48988d157941735,3980,2209,87
4dd4560cd1649f0f048bc444,"Tsujita LA Artisan Noodle",http://tsujita-la.com,1,(310) 231-7373,"2057 Sawtelle Blvd","Los Angeles","CA","United States","34.0396466025426676083043275867","-118.442615952229417075614037458",4bf58dd8d48988d1d1941735,13062,6867,183
563683bd498e2c8761eb2ede,"Sidecar Doughnuts & Coffee",http://www.sidecardoughnuts.com,0,(310) 587-0022,"631 Wilshire Blvd","Santa Monica","CA","United States","34.0211602633572738341172225773","-118.495813560514008599966473412",4bf58dd8d48988d1e0931735,1908,975,38
44d75352f964a52066361fe3,"Habibi Cafe",http://habibicafe.com/,1,(310) 824-2277,"923 Broxton Ave","Los Angeles","CA","United States","34.0631633843806440609114360996","-118.447196134086041752198070753",4bf58dd8d48988d119941735,5422,3051,52
4da4bb1d0f578cfaafdbd518,"The Misfit Restaurant + Bar",http://www.themisfitbar.com,1,(310) 656-9800,"225 Santa Monica Blvd","Santa Monica","CA","United States","34.0154421639959281264964374714","-118.496571936293179305721423589",4bf58dd8d48988d14e941735,20702,12243,307
4a03393df964a5209f711fe3,"Starbucks",http://www.starbucks.com/,1,(310) 312-2903,"11155 Santa Monica Blvd","West Los Angeles","CA","United States","34.0474009938326886981485586148","-118.445057210553969184729794506",4bf58dd8d48988d1e0931735,5856,2041,21
4a775d06f964a52048e41fe3,"Starbucks",http://www.starbucks.com/,1,(310) 207-4202,"11707 San Vicente Blvd","Los Angeles","CA","United States","34.0537279999999995538928487804","-118.466122999999996068254404236",4bf58dd8d48988d1e0931735,8692,1970,35
4b0343e4f964a520144e22e3,"Starbucks",http://www.starbucks.com/,1,(310) 209-1626,"10955 West Weyburn","Los Angeles","CA","United States","34.0626299999999986312104738317","-118.447286000000005401489033829",4bf58dd8d48988d1e0931735,12695,4207,60
455d90cbf964a520783d1fe3,"P.F. Chang's",http://www.pfchangs.com,1,(310) 395-1912,"326 Wilshire Boulevard","Santa Monica","CA","United States","34.0184100000000029240254662","-118.498999999999995225152815692",4bf58dd8d48988d145941735,5088,3364,52
4af489d6f964a520a0f321e3,"Caf Crpe",http://cafecrepe.com,1,(310) 576-0499,"1460 3rd Street Promenade","Santa Monica","CA","United States","34.0142765344388919857010478154","-118.49466741085052490234375",52e81612bcbc57f1066b79f2,10113,7158,127
4b09d5f1f964a5207a1e23e3,"Starbucks",http://www.starbucks.com/,1,(310) 573-0177,"15300 Sunset Boulevard","Pacific Palisades","CA","United States","34.0472230000000024574546841905","-118.526010999999996897713572253",4bf58dd8d48988d1e0931735,5704,1147,13
52fe9e7c498eb01c8bb4fbcc,"Starbucks",http://www.starbucks.com,0,(310) 573-4138,"514 Palisades Drive","Pacific Palisades","CA","United States","34.0448650000000014870238373987","-118.551604999999995015969034284",4bf58dd8d48988d1e0931735,733,184,2
5397dc5c498eaa663f449f12,"Mastro's Ocean Club",http://mastrosrestaurants.com,0,(310) 454-4357,"18412 Pacific Coast Hwy","Malibu","CA","United States","34.0396969999999967626536090393","-118.576083999999994489371601958",4bf58dd8d48988d1cc941735,1046,841,18
4abfddd8f964a520b09220e3,"Cafe Vida - Pacific Palisades",http://cafevida.net,1,(310) 573-1335,"15317 Antioch St","Pacific Palisades","CA","United States","34.0471210227512912638303532731","-118.526624758241453605478454847",4bf58dd8d48988d16d941735,3134,1160,27
3fd66200f964a520cbf01ee3,"Reel Inn",http://www.reelinnmalibu.com/,1,(310) 456-8221,"18661 Pacific Coast Hwy","Malibu","CA","United States","34.0398081858950192213342234027","-118.581590487809791056861286052",4bf58dd8d48988d1ce941735,4165,3067,64
4daf5c4593a037b7b06da425,"Gladstones",http://www.thayerinteractive.com/clickthru/clickthrough.rry/119242,1,(310) 454-3474,"17300 Pacific Coast Hwy","Pacific Palisades","CA","United States","34.0382558515987128089363977779","-118.556170489724692629351920914",4bf58dd8d48988d1ce941735,7124,5794,95
4b4a44a1f964a520878126e3,"Taste at the Palisades",http://www.ilovetaste.com,1,(310) 459-9808,"538 Palisades Dr","Pacific Palisades","CA","United States","34.0457256473154785680890199728","-118.5518360137939453125",4bf58dd8d48988d157941735,628,372,12
4aff60e5f964a520f03722e3,"Cholada Thai",http://www.choladathaicuisine.com/,1,(310) 317-0025,"18763 Pacific Coast Hwy","Malibu","CA","United States","34.0390813597614467767016321886","-118.58401715755462646484375",4bf58dd8d48988d149941735,1937,1246,25
4a0527fbf964a5205b721fe3,"Marix Tex Mex",http://www.marixtexmex.com/company/locations.php#sm,1,(310) 459-8596,"118 Entrada Dr","Santa Monica","CA","United States","34.0281395376664335117311566137","-118.518147122123238546009815764",4bf58dd8d48988d1c1941735,1701,960,21
4b3e68edf964a520ba9c25e3,"The Coffee Bean & Tea Leaf",http://www.coffeebean.com,1,(310) 230-2587,"15278 Antioch St","Pacific Palisades","CA","United States","34.0468548200000000747422745917","-118.525682500000002050910552498",4bf58dd8d48988d1e0931735,1473,441,7
558f2e89498e023e109cb25c,"Acai Nation",,0,,"","Los Angeles","CA","United States","34.0463680570458109286846593022","-118.527371590247000199269677978",4bf58dd8d48988d112941735,59,24,1
